[{"name": "Chrysalis Obstetrics & Gynaecology", "address": "8835 Macleod Trl SW #220w, Calgary, AB T2H 0M2", "city": "Calgary", "phone": "+1 403-242-0770", "website": "http://www.chrysalis-obgyn.ca/", "rating": 3.9, "reviews": 108, "place_id": "ChIJ61FYtpRxcVMRS18R5mBhGhw", "latitude": 50.9752868, "longitude": -114.0735499, "care_type": "OB-GYN"}, {"name": "Li Andrew Dr", "address": "2675 36 St NE, Calgary, AB T1Y 5T4", "city": "Calgary", "phone": "+1 403-457-0547", "website": "", "rating": 4.9, "reviews": 19, "place_id": "ChIJjzMGIMRkcVMR5baivcLk93A", "latitude": 51.0768347, "longitude": -113.9824688, "care_type": "OB-GYN"}, {"name": "Dr. Liane Belland", "address": "Bridgeland Professional Centre, 1010 1 Ave NE, Calgary, AB T2E 7W7", "city": "Calgary", "phone": "+1 403-266-3030", "website": "https://www.bridgelandadvancedgynecology.com/", "rating": 3.6, "reviews": 56, "place_id": "ChIJLer3aYuQcUERVVp39_z-Hu4", "latitude": 51.0534352, "longitude": -114.0401281, "care_type": "OB-GYN"}, {"name": "Maud Medical Clinic", "address": "909 1 Ave NE, Calgary, AB T2E 1M2", "city": "Calgary", "phone": "+1 587-352-6283", "website": "https://www.maudmedical.com/%3Futm_source%3Dgoogle%26utm_medium%3DGMB", "rating": 4.9, "reviews": 1028, "place_id": "ChIJiZvw--ZlcVMRuPl3rU9zKKQ", "latitude": 51.0531579, "longitude": -114.0426176, "care_type": "OB-GYN"}, {"name": "Rosengarten Albert Dr", "address": "7007 14 St SW, Calgary, AB T2V 1P9", "city": "Calgary", "phone": "+1 403-943-8733", "website": "", "rating": 5.0, "reviews": 3, "place_id": "ChIJy34oCAlxcVMRmeFO7bp6FMg", "latitude": 50.9898221, "longitude": -114.096632, "care_type": "OB-GYN"}, {"name": "Calgary Well Woman Clinic", "address": "4640 17 Ave NW, Calgary, AB T3B 0P3", "city": "Calgary", "phone": "+1 403-202-2727", "website": "http://papclinic.com/", "rating": 4.6, "reviews": 142, "place_id": "ChIJG_HsePlucVMReA3QBOWQ2Xg", "latitude": 51.0720871, "longitude": -114.1612108, "care_type": "OB-GYN"}, {"name": "Cenaiko David F Dr", "address": "2675 36 St NE #302, Calgary, AB T1Y 6H6", "city": "Calgary", "phone": "+1 403-250-6922", "website": "", "rating": 4.3, "reviews": 20, "place_id": "ChIJjzMGIMRkcVMR5KCgOVJP15o", "latitude": 51.0770267, "longitude": -113.9825303, "care_type": "OB-GYN"}, {"name": "Calgary Women's Specialty Clinic", "address": "113-3223 5 Ave NE, Calgary, AB T2A 5N1", "city": "Calgary", "phone": "+1 403-806-2496", "website": "", "rating": 3.3, "reviews": 63, "place_id": "ChIJfcQs5YdmcVMRcjKxAQ4_WKc", "latitude": 51.05642229999999, "longitude": -113.9866552, "care_type": "OB-GYN"}, {"name": "Women\u2019s Health Clinic", "address": "3840 104 Ave NE UNIT 114, Calgary, AB T3N 0T1", "city": "Calgary", "phone": "+1 587-254-3130", "website": "http://womenscliniccalgary.com/", "rating": 4.2, "reviews": 91, "place_id": "ChIJ909EwrxhcVMRe2ke8t0s7qM", "latitude": 51.1476927, "longitude": -113.9790462, "care_type": "OB-GYN"}, {"name": "Dr. Jennifer Adams, MD FRCSC", "address": "3007 14 St SW #301, Calgary, AB T2T 3V6", "city": "Calgary", "phone": "+1 587-327-6360", "website": "http://www.jenniferadamsmd.com/", "rating": 5.0, "reviews": 7, "place_id": "ChIJ67HShdFxcVMRP2f69UzBrTY", "latitude": 51.0274626, "longitude": -114.0949876, "care_type": "OB-GYN"}, {"name": "Dr. Charlene Lyndon OBGYN", "address": "5920 1a St SW #280, Calgary, AB T2H 0G3", "city": "Calgary", "phone": "+1 403-384-9799", "website": "", "rating": 3.9, "reviews": 7, "place_id": "ChIJBdIBjylscVMRLSkZaUaSXrE", "latitude": 51.000263, "longitude": -114.0665979, "care_type": "OB-GYN"}, {"name": "Glenmore Maternity", "address": "1600 90 Ave SW A301, Calgary, AB T2V 4S2", "city": "Calgary", "phone": "+1 403-246-0200", "website": "http://www.glenmorematernity.ca/", "rating": 4.2, "reviews": 77, "place_id": "ChIJQZaoAWtxcVMRJPTnVVatC58", "latitude": 50.9740431, "longitude": -114.0988916, "care_type": "OB-GYN"}, {"name": "Ambulatory Care Centre Special Services Building FMC", "address": "1331 29 St NW, Calgary, AB T2N 4N2", "city": "Calgary", "phone": "+1 403-944-1110", "website": "https://www.albertahealthservices.ca/fmc/Page16418.aspx", "rating": 3.7, "reviews": 58, "place_id": "ChIJN_drVa5vcVMR5ihTQDAvjBE", "latitude": 51.062971, "longitude": -114.1332793, "care_type": "OB-GYN"}, {"name": "Pediatric Gynecology Clinic", "address": "4448 Front St SE, Calgary, AB T3M", "city": "Calgary", "phone": "+1 403-956-2001", "website": "https://www.albertahealthservices.ca/findhealth/Service.aspx%3Fid%3D1868%26serviceAtFacilityID%3D1129330", "rating": 4.0, "reviews": 1, "place_id": "ChIJVVVVxWWdcVMRswnaB0XDVT4", "latitude": 50.8818837, "longitude": -113.9514229, "care_type": "OB-GYN"}, {"name": "Meadows Maternity Clinic and Family Practice - Calgary", "address": "7524 Elbow Dr SW, Calgary, AB T2V 1K1", "city": "Calgary", "phone": "+1 403-252-8851", "website": "http://www.meadowsmaternity.com/", "rating": 4.2, "reviews": 48, "place_id": "ChIJ_TSn3-twcVMRTbfK0bieFrU", "latitude": 50.986189, "longitude": -114.08277, "care_type": "OB-GYN"}, {"name": "Avivo Health Alliance", "address": "2012 12 Ave NW, Calgary, AB T2N 1J7", "city": "Calgary", "phone": "+1 403-289-8996", "website": "http://www.myavivohealth.ca/", "rating": 3.8, "reviews": 61, "place_id": "ChIJh6hYQw9vcVMR2CU0ADEOlFc", "latitude": 51.0635999, "longitude": -114.1084818, "care_type": "OB-GYN"}, {"name": "Emily-Rose Women's health", "address": "1015 4 St SW #110, Calgary, AB T2R 1J4", "city": "Calgary", "phone": "+1 587-349-2939", "website": "", "rating": 3.8, "reviews": 23, "place_id": "ChIJqfFrLeBvcVMR2oxN7e51UrA", "latitude": 51.042974, "longitude": -114.0717207, "care_type": "OB-GYN"}, {"name": "Dr. Christina Dolhaniuk", "address": "2925 66 St NW, Edmonton, AB T6L 6N3", "city": "Edmonton", "phone": "+1 587-523-0235", "website": "http://www.drdolhaniuk.com/", "rating": 5.0, "reviews": 73, "place_id": "ChIJJZS7_zwZoFMRSrgAqmMEg0M", "latitude": 53.4609355, "longitude": -113.4320331, "care_type": "OB-GYN"}, {"name": "Dr Justin Marillier", "address": "2905 66 St NW, Edmonton, AB T6K 4E8", "city": "Edmonton", "phone": "+1 780-784-7733", "website": "http://www.drjustinmarillier.com/", "rating": 4.7, "reviews": 55, "place_id": "ChIJcaQG4UAZoFMRjKZJBx6Z_dc", "latitude": 53.4605, "longitude": -113.4337222, "care_type": "OB-GYN"}, {"name": "Alberta Associates of Obstetrics and Gynecology", "address": "Kings Point Medical, 11230 110 St NW Unit B1, Edmonton, AB T5G 3H7", "city": "Edmonton", "phone": "+1 780-414-0782", "website": "", "rating": 3.0, "reviews": 49, "place_id": "ChIJyxZcpq0joFMRMC5k5xIG-Wo", "latitude": 53.5625625, "longitude": -113.5107458, "care_type": "OB-GYN"}, {"name": "Women's Health Clinic of Edmonton", "address": "11010 101 St NW #604, Edmonton, AB T5H 2V1", "city": "Edmonton", "phone": "+1 780-421-4728", "website": "", "rating": 3.6, "reviews": 51, "place_id": "ChIJQWeUJLO8Y0ER84Bc6vWut0k", "latitude": 53.5574526, "longitude": -113.4946551, "care_type": "OB-GYN"}, {"name": "Westmount Obstetrics and Gynecology", "address": "10957 124 St #204, Edmonton, AB T5M 0H9", "city": "Edmonton", "phone": "+1 780-229-2682", "website": "", "rating": 4.8, "reviews": 6, "place_id": "ChIJg8yZIgAjoFMRZ-x7lJuyhNc", "latitude": 53.5560763, "longitude": -113.5354833, "care_type": "OB-GYN"}, {"name": "Ladies First Obstetrics & Gynecology Consultants", "address": "17010 90 Ave NW Unit 192, Edmonton, AB T5T 1L6", "city": "Edmonton", "phone": "+1 780-483-2901", "website": "", "rating": 3.8, "reviews": 65, "place_id": "ChIJP_88plcgoFMRjjgrJSwuCRQ", "latitude": 53.5262947, "longitude": -113.6177597, "care_type": "OB-GYN"}, {"name": "South Side Women's Health Centre", "address": "3017 66 St NW Suite 120, Edmonton, AB T6K 4B2", "city": "Edmonton", "phone": "+1 780-461-6220", "website": "https://www.southsidewomens.com/", "rating": 3.4, "reviews": 140, "place_id": "ChIJDXb_Aj0ZoFMRNySj0uhh8ok", "latitude": 53.4616501, "longitude": -113.4331539, "care_type": "OB-GYN"}, {"name": "Kingsway Obstetrics & Gynecologist", "address": "303 Kingsway Mall, 109 St NW, Edmonton, AB T5G 3A6", "city": "Edmonton", "phone": "+1 780-540-8990", "website": "https://kingswaymall.com/store/kingsway-obstetrics-gynecology-obgyn/", "rating": 3.0, "reviews": 40, "place_id": "ChIJcf4NJd4joFMRjsixqwxzmzM", "latitude": 53.5628343, "longitude": -113.5067329, "care_type": "OB-GYN"}, {"name": "South Edmonton Women's Care Clinic", "address": "211, 8915 51 Ave NW Building #2, Edmonton, AB T6E 5J3", "city": "Edmonton", "phone": "+1 587-635-3555", "website": "https://sewcareclinic.ca/", "rating": 3.9, "reviews": 58, "place_id": "ChIJE9LrPaQfoFMRMof6596bM-c", "latitude": 53.4869906, "longitude": -113.4658999, "care_type": "OB-GYN"}, {"name": "Dr. Billy R. Wong", "address": "11230 110 St NW B1, Edmonton, AB T5G 3H7", "city": "Edmonton", "phone": "+1 780-414-0782", "website": "", "rating": 3.6, "reviews": 51, "place_id": "ChIJ6dwuqK0joFMRfEUO8QkuvN0", "latitude": 53.5625625, "longitude": -113.5107458, "care_type": "OB-GYN"}, {"name": "Lois Hole Hospital for Women", "address": "10245 111 Ave NW, Edmonton, AB T5H 0P5", "city": "Edmonton", "phone": "+1 780-735-4111", "website": "https://www.albertahealthservices.ca/lhhw/lhhw.aspx", "rating": 3.4, "reviews": 98, "place_id": "ChIJX36N8K0joFMRSG76lbXsTQM", "latitude": 53.55853699999999, "longitude": -113.498073, "care_type": "OB-GYN"}, {"name": "Corbett, Dr. Tom", "address": "120-3017 66 St NW, Edmonton, AB T6K 4B2", "city": "Edmonton", "phone": "+1 780-461-6220", "website": "https://www.southsidewomens.com/drcorbett", "rating": 5.0, "reviews": 3, "place_id": "ChIJG960mPyYY0ER2UXO0Kqu76U", "latitude": 53.4615559, "longitude": -113.4327731, "care_type": "OB-GYN"}, {"name": "Christine Bentz Professional Corporate", "address": "11010 101 St NW #408, Edmonton, AB T5H 4B9", "city": "Edmonton", "phone": "+1 780-420-1771", "website": "", "rating": 4.2, "reviews": 14, "place_id": "ChIJ6dwuqK0joFMRCGbJ4o7g4YM", "latitude": 53.5574701, "longitude": -113.4940407, "care_type": "OB-GYN"}, {"name": "Dr Jonathan Tankel", "address": "\u2022 Kingsway Mall, 303, 109 Princess Elizabeth Ave NW, Edmonton, AB T5G 3G4", "city": "Edmonton", "phone": "+1 780-540-8990", "website": "", "rating": 3.9, "reviews": 52, "place_id": "ChIJ6dwuqK0joFMRH4qt7XHS0Ak", "latitude": 53.5628915, "longitude": -113.5054961, "care_type": "OB-GYN"}, {"name": "Capital City Women's Centre", "address": "17010 90 Ave NW #196, Edmonton, AB T5T 1L6", "city": "Edmonton", "phone": "+1 780-439-2008", "website": "", "rating": 3.3, "reviews": 72, "place_id": "ChIJX679QcKiY0ERVoQFET0_lHI", "latitude": 53.5262985, "longitude": -113.6176453, "care_type": "OB-GYN"}, {"name": "Dr Marillier's Office", "address": "2905 66 St NW, Edmonton, AB T6K 4C1", "city": "Edmonton", "phone": "+1 780-784-7733", "website": "", "rating": 5.0, "reviews": 1, "place_id": "ChIJ37DAn_gZoFMRel7zZ9PCHAg", "latitude": 53.4604037, "longitude": -113.4332683, "care_type": "OB-GYN"}, {"name": "Dr. Gulnaz Jiwa, M.D., FRCSC", "address": "11910 111 Ave NW Unit 104, Edmonton, AB T5G 0E5", "city": "Edmonton", "phone": "+1 780-454-0351", "website": "", "rating": 4.1, "reviews": 9, "place_id": "ChIJG28VMd8joFMRL32B11qp4KM", "latitude": 53.56011969999999, "longitude": -113.5279438, "care_type": "OB-GYN"}, {"name": "Dr. Dwaine Larose", "address": "17010 90 Ave NW Unit 192, Edmonton, AB T5T 1L6", "city": "Edmonton", "phone": "+1 780-483-2901", "website": "", "rating": 4.5, "reviews": 11, "place_id": "ChIJwZg6cfogoFMR5WoC503VZQA", "latitude": 53.526263, "longitude": -113.6173992, "care_type": "OB-GYN"}, {"name": "Dr. Angela Vinturache", "address": "9814 97 St #204, Grande Prairie, AB T8V 8B9", "city": "Grande Prairie", "phone": "+1 780-533-2261", "website": "https://www.womanhealth.ca/", "rating": 4.1, "reviews": 60, "place_id": "ChIJ_RYVATSRkFMRZrl0o5yzsdM", "latitude": 55.16916999999999, "longitude": -118.7854793, "care_type": "OB-GYN"}, {"name": "Delacruz Christa Dr", "address": "9719 98 Ave, Grande Prairie, AB T8V 8K6", "city": "Grande Prairie", "phone": "+1 780-882-8955", "website": "", "rating": 4.2, "reviews": 27, "place_id": "ChIJCYc6mUqRkFMRKBaB_egkj5w", "latitude": 55.1687198, "longitude": -118.7859812, "care_type": "OB-GYN"}, {"name": "O&G Medical Associates", "address": "11745 105 St #202, Grande Prairie, AB T8V 8L1", "city": "Grande Prairie", "phone": "+1 780-538-2190", "website": "http://ogmed.ca/", "rating": 4.6, "reviews": 21, "place_id": "ChIJyQQjyEqRkFMRqd0XbtkBC7Q", "latitude": 55.1870921, "longitude": -118.808117, "care_type": "OB-GYN"}, {"name": "Willow Green Medical Centre", "address": "10126 120 Ave, Grande Prairie, AB T8V 8H9", "city": "Grande Prairie", "phone": "+1 780-814-8286", "website": "", "rating": 3.6, "reviews": 12, "place_id": "ChIJS2vUqDmXkFMRac1NUgJNYbA", "latitude": 55.1885888, "longitude": -118.799599, "care_type": "OB-GYN"}, {"name": "Aporna Kali PC", "address": "9815 97 St, Grande Prairie, AB T8V 8B9", "city": "Grande Prairie", "phone": "+1 780-832-3030", "website": "", "rating": 3.9, "reviews": 37, "place_id": "ChIJyQQjyEqRkFMR2HqoA0btwvI", "latitude": 55.1697139, "longitude": -118.784638, "care_type": "OB-GYN"}, {"name": "Dr Laura Cano Obstetrics & Gynecology", "address": "JP2-JP3, 9725 98 Ave Unit 104, Grande Prairie, AB T8V 8K5", "city": "Grande Prairie", "phone": "+1 780-402-2808", "website": "", "rating": 3.3, "reviews": 12, "place_id": "ChIJt3unj0qRkFMRNTXdEf8CxWg", "latitude": 55.168782, "longitude": -118.7871499, "care_type": "OB-GYN"}, {"name": "Vena Women's Health + Wellness", "address": "117 1 St NW, Airdrie, AB T4B 0R3", "city": "Airdrie", "phone": "+1 403-850-1617", "website": "https://www.venamobilehealth.com/", "rating": 5.0, "reviews": 17, "place_id": "ChIJTfAUbxRfcVMRCbjFliqCpVM", "latitude": 51.2920084, "longitude": -114.0153867, "care_type": "OB-GYN"}, {"name": "BFG Medical Clinic", "address": "513 Centre Ave E #105, Airdrie, AB T4B 1P9", "city": "Airdrie", "phone": "+1 587-600-4217", "website": "http://www.bfgmedical.ca/", "rating": 4.6, "reviews": 42, "place_id": "ChIJ3-nHxGRfcVMR6d2GAJfNwtY", "latitude": 51.29116819999999, "longitude": -114.003395, "care_type": "OB-GYN"}, {"name": "Nest Maternity and Lactation", "address": "229 1 St SW Unit 1, Airdrie, AB T4B 3L8", "city": "Airdrie", "phone": "+1 403-960-0446", "website": "http://www.nestmaternity.ca/", "rating": 4.5, "reviews": 42, "place_id": "ChIJ-R2glm5fcVMR4xvLN-REduI", "latitude": 51.290274, "longitude": -114.0154263, "care_type": "OB-GYN"}, {"name": "Olubukola Apantaku Prof Corporation", "address": "3939 50a Ave, Red Deer, AB T4N 4E6", "city": "Red Deer", "phone": "+1 403-348-8100", "website": "", "rating": 4.0, "reviews": 42, "place_id": "ChIJWVVOxyBUdFMRkSG5r5GIVbI", "latitude": 52.260689, "longitude": -113.816092, "care_type": "OB-GYN"}, {"name": "Dr. Anneline Slabbert", "address": "5201 43 St #200, Red Deer, AB T4N 1C7", "city": "Red Deer", "phone": "+1 403-967-0170", "website": "", "rating": 5.0, "reviews": 7, "place_id": "ChIJdXd0ut1VdFMR2H1eFzRRpBI", "latitude": 52.26208949999999, "longitude": -113.8207331, "care_type": "OB-GYN"}, {"name": "Dr. Christopher Cham", "address": "Willow Clinic, 5201 43 St #200, Red Deer, AB T4N 1C7", "city": "Red Deer", "phone": "+1 403-967-0170", "website": "https://www.drchamreddeer.com/", "rating": 4.6, "reviews": 11, "place_id": "ChIJl_BiS0xVdFMReOzbg2Dq5RE", "latitude": 52.26208949999999, "longitude": -113.8207331, "care_type": "OB-GYN"}, {"name": "Dr. Angelina Lukwinski", "address": "4320 50 Ave #206, Red Deer, AB T4N 3Z6", "city": "Red Deer", "phone": "+1 403-986-1900", "website": "", "rating": 4.0, "reviews": 23, "place_id": "ChIJscVf9alVdFMR6OUQHGLB630", "latitude": 52.2630329, "longitude": -113.814751, "care_type": "OB-GYN"}, {"name": "Dr Aaron Pink", "address": "5201 43 St, Red Deer, AB T4N 1C7", "city": "Red Deer", "phone": "+1 403-340-3130", "website": "", "rating": 4.3, "reviews": 16, "place_id": "ChIJxTpi2vZVdFMRu3h-vuGozKs", "latitude": 52.262065, "longitude": -113.8207381, "care_type": "OB-GYN"}, {"name": "Canmore Obstetrics and Gynecology", "address": "1205 Bow Valley Trl, Canmore, AB T1W 1P5", "city": "Canmore", "phone": "+1 403-609-0243", "website": "http://www.canmoreobgyn.com/", "rating": 4.1, "reviews": 14, "place_id": "ChIJd5kAOZTFcFMR5A9h5BZmtKk", "latitude": 51.091642, "longitude": -115.350954, "care_type": "OB-GYN"}, {"name": "Spruce Grove Community Midwives", "address": "93 McLeod Ave #203, Spruce Grove, AB T7X 2Z9", "city": "Spruce Grove", "phone": "", "website": "http://www.sprucegrovecommunitymidwives.ca/", "rating": 5.0, "reviews": 21, "place_id": "ChIJKQjarKuPn1MRGvERCsmpatU", "latitude": 53.5430273, "longitude": -113.9119998, "care_type": "OB-GYN"}, {"name": "Passages Midwifery", "address": "5013 53 Ave, Stony Plain, AB T7Z 1B9", "city": "Stony Plain", "phone": "+1 780-937-2501", "website": "http://www.passagesmidwifery.com/", "rating": 4.8, "reviews": 23, "place_id": "ChIJX4yDYM-Rn1MRahAF9460pHU", "latitude": 53.52695869999999, "longitude": -114.0084988, "care_type": "OB-GYN"}, {"name": "Dedoming E Dr", "address": "625 St Albert Trl #250, St. Albert, AB T8N 3L3", "city": "St. Albert", "phone": "+1 780-459-7390", "website": "", "rating": 4.5, "reviews": 18, "place_id": "ChIJWwjV3_oloFMRphXBnO782iE", "latitude": 53.65598199999999, "longitude": -113.628045, "care_type": "OB-GYN"}, {"name": "Baby Doctor", "address": "10957 124 St #204, Edmonton, AB T5M 0H9", "city": "Edmonton", "phone": "", "website": "", "rating": null, "reviews": 0, "place_id": "ChIJ907RXgAjoFMRnZZBTJHs_6Q", "latitude": 53.5560763, "longitude": -113.5354833, "care_type": "OB-GYN"}, {"name": "Dr De Lara", "address": "51 Inglewood Dr, St. Albert, AB T8N 4E7", "city": "St. Albert", "phone": "+1 780-459-5673", "website": "", "rating": 3.7, "reviews": 22, "place_id": "ChIJVVVVVfoloFMRmLVfpCv-bLc", "latitude": 53.6529132, "longitude": -113.6263301, "care_type": "OB-GYN"}, {"name": "Parsons Medical Centre", "address": "625 Parsons Rd SW, Edmonton, AB T6X 0N9", "city": "Edmonton", "phone": "+1 587-754-5600", "website": "http://parsonsmedicalcentre.ca/", "rating": 2.4, "reviews": 598, "place_id": "ChIJ1xU04pgeoFMR3KQb5MwmGaE", "latitude": 53.42806, "longitude": -113.4791703, "care_type": "OB-GYN"}, {"name": "Millwoods Maternity Care Clinic", "address": "Mill Woods Town Centre Professional Building, 6203 28 Ave NW suite 314 3rd Floor, Edmonton, AB T6L 6K3", "city": "Edmonton", "phone": "+1 780-761-3177", "website": "https://millwoodsmaternitycare.com/", "rating": 3.8, "reviews": 53, "place_id": "ChIJAx6shjgZoFMRNms7i5UlUHY", "latitude": 53.45825809999999, "longitude": -113.4287922, "care_type": "OB-GYN"}, {"name": "Albany Medical Clinic", "address": "12916 167 Ave NW, Edmonton, AB T6V 1J6", "city": "Edmonton", "phone": "+1 780-244-2696", "website": "https://albanymedicalclinic.com/", "rating": 2.8, "reviews": 290, "place_id": "ChIJP1HGdFYkoFMRCIVNbm1Yub0", "latitude": 53.6291795, "longitude": -113.546914, "care_type": "OB-GYN"}, {"name": "Milestones Diagnostics", "address": "16508 118 Ave NW, Edmonton, AB T5V 1P7", "city": "Edmonton", "phone": "+1 780-540-9940", "website": "https://www.milestonesdiagnostics.ca/", "rating": 4.9, "reviews": 143, "place_id": "ChIJU0oBKiIhoFMRMX-Bz40q-1o", "latitude": 53.5711081, "longitude": -113.6068347, "care_type": "OB-GYN"}, {"name": "Doctor Kerr\u2019s office", "address": "625 St Albert Trl, St. Albert, AB T8N 3L3", "city": "St. Albert", "phone": "+1 780-459-1121", "website": "", "rating": 4.6, "reviews": 15, "place_id": "ChIJo3SYYP4loFMRIFmbVIk6LCw", "latitude": 53.6557699, "longitude": -113.62801, "care_type": "OB-GYN"}, {"name": "Sturgeon Women\u2019s Health Clinic", "address": "625 St Albert Trl #250, St. Albert, AB T8N 3L3", "city": "St. Albert", "phone": "+1 780-459-1104", "website": "", "rating": 3.4, "reviews": 78, "place_id": "ChIJoUkOu6IloFMRZ0OtVS_vcqs", "latitude": 53.65598199999999, "longitude": -113.628045, "care_type": "OB-GYN"}, {"name": "Diane Ahn MD, FRCSC", "address": "9888 Jasper Ave 3rd Floor, Edmonton, AB T5J 5C6", "city": "Edmonton", "phone": "+1 780-990-4442", "website": "https://pacificfertility.ca/our-doctors%3Futm_source%3DGBP%26utm_medium%3Dorganic%26utm_campaign%3Dlocation-listing-PCRMED%26utm_content%3DPCRMED-loclisting%26y_source%3D1_NjMzNjcxMTktNzE1LWxvY2F0aW9uLndlYnNpdGU%253D", "rating": 5.0, "reviews": 2, "place_id": "ChIJvUDgdF0joFMRTxJjkDlZvx8", "latitude": 53.5416277, "longitude": -113.4880817, "care_type": "OB-GYN"}, {"name": "Sturgeon Women\u2019s Health Clinic", "address": "200 Boudreau Rd, St. Albert, AB T8N 6B9", "city": "St. Albert", "phone": "", "website": "", "rating": 1.0, "reviews": 1, "place_id": "ChIJ__-P0PoloFMRuZAnSRC6tAg", "latitude": 53.6535147, "longitude": -113.6274867, "care_type": "OB-GYN"}, {"name": "Dr. O. Oyewole", "address": "117-10010 86 Ave, Fort Saskatchewan, AB T8L 4P4", "city": "Fort Saskatchewan", "phone": "+1 587-285-0028", "website": "", "rating": 4.6, "reviews": 49, "place_id": "ChIJ088X8IU4oFMRa4yw_PabSfc", "latitude": 53.6983389, "longitude": -113.204242, "care_type": "OB-GYN"}, {"name": "Synergy Women's Wellness Centre", "address": "501 Bethel Dr, Sherwood Park, AB T8H 0N2", "city": "Sherwood Park", "phone": "+1 780-467-4343", "website": "http://www.synergywomens.ca/", "rating": 3.3, "reviews": 111, "place_id": "ChIJszmubSkWoFMR-gVHabq1Lac", "latitude": 53.5455958, "longitude": -113.3027071, "care_type": "OB-GYN"}, {"name": "Pine Integrated Health Centre", "address": "150 Chippewa Rd #158, Sherwood Park, AB T8A 6A2", "city": "Sherwood Park", "phone": "+1 587-855-5598", "website": "https://pinehealth.ca/", "rating": 4.4, "reviews": 14, "place_id": "ChIJfw7UUJAXoFMRaoCsuLoC6h4", "latitude": 53.5377307, "longitude": -113.3260178, "care_type": "OB-GYN"}, {"name": "Zia Women's Health", "address": "4424 Calgary Trl NW, Edmonton, AB T6H 4A6", "city": "Edmonton", "phone": "+1 780-306-8400", "website": "https://www.ziamedical.ca/", "rating": 4.9, "reviews": 25, "place_id": "ChIJKTHEspMXoFMRrP32YC-AhIg", "latitude": 53.4823152, "longitude": -113.4958247, "care_type": "OB-GYN"}, {"name": "Sarah Halleran, MD, FRCSC", "address": "9888 Jasper Ave 3rd Floor, Edmonton, AB T5J 5C6", "city": "Edmonton", "phone": "+1 780-990-4442", "website": "https://pacificfertility.ca/our-doctors%3Futm_source%3Dgbp%26utm_medium%3Dorganic%26utm_campaign%3Dlocation-listing-PCRMED%26y_source%3D1_ODI1MzIyNjYtNzE1LWxvY2F0aW9uLndlYnNpdGU%253D", "rating": 5.0, "reviews": 2, "place_id": "ChIJg5iztBojoFMRDXn8aJZ8TpY", "latitude": 53.5416277, "longitude": -113.4880817, "care_type": "OB-GYN"}, {"name": "Full Circle Women's Clinic", "address": "24 Inglewood Dr Suite 104, St. Albert, AB T8N 6K4", "city": "St. Albert", "phone": "+1 587-805-5155", "website": "https://www.fullwomensclinic.ca/", "rating": 4.8, "reviews": 46, "place_id": "ChIJvQpo4NkloFMRa_BrdBLV8fg", "latitude": 53.6512013, "longitude": -113.6263447, "care_type": "OB-GYN"}, {"name": "Dr Ziad Abouzeid", "address": "1524 9 Ave SW, Medicine Hat, AB T1A 8H6", "city": "Medicine Hat", "phone": "+1 587-289-2663", "website": "", "rating": 4.5, "reviews": 16, "place_id": "ChIJM4Zijf4tE1MR3I6Tl_Om9IY", "latitude": 50.0249404, "longitude": -110.7075959, "care_type": "OB-GYN"}, {"name": "Dr. Kristin Hoffman", "address": "1524 9 Ave SW, Medicine Hat, AB T1A 8H6", "city": "Medicine Hat", "phone": "+1 403-487-5109", "website": "", "rating": 3.7, "reviews": 9, "place_id": "ChIJneplmpotE1MRZpKR4V4yjuA", "latitude": 50.0249404, "longitude": -110.7075959, "care_type": "OB-GYN"}, {"name": "Lethbridge Pregnancy Care Centre", "address": "118 8 St S, Lethbridge, AB T1J 2J3", "city": "Lethbridge", "phone": "+1 403-942-1819", "website": "https://lethbridgepregcentre.com/", "rating": 4.4, "reviews": 33, "place_id": "ChIJL-CWMMmHblMRMX0ndjcFN4c", "latitude": 49.697348, "longitude": -112.835942, "care_type": "OB-GYN"}, {"name": "The IUD & NE Women's Clinic", "address": "3223 5 Ave NE unit 117, Calgary, AB T2A 5N1", "city": "Calgary", "phone": "+1 587-353-4483", "website": "https://myiud.ca/%3Futm_source%3DGMB_Listing%26utm_medium%3DOrganic%26utm_campaign%3DWebsite_Referral", "rating": 4.1, "reviews": 209, "place_id": "ChIJjzMGIMRkcVMR6CN8VAk7h1A", "latitude": 51.0565588, "longitude": -113.986761, "care_type": "OB-GYN"}, {"name": "Oasis Fertility Centre", "address": "23 Sunpark Dr SE, Calgary, AB T2X 3V3", "city": "Calgary", "phone": "+1 403-910-7888", "website": "https://oasisfertility.com/", "rating": 3.3, "reviews": 141, "place_id": "ChIJ38IgBXd3cVMREq8vrwXb_gA", "latitude": 50.9048346, "longitude": -114.0567117, "care_type": "OB-GYN"}, {"name": "Rockyview Maternity & Family Practice", "address": "1016 68 Ave SW #200, Calgary, AB T2V 4J2", "city": "Calgary", "phone": "+1 403-640-0600", "website": "http://www.rockyviewmaternity.ca/", "rating": 3.7, "reviews": 86, "place_id": "ChIJtxtMtQBxcVMR63rX7CzGsak", "latitude": 50.992905, "longitude": -114.0855436, "care_type": "OB-GYN"}, {"name": "Mountain View Medical Centre - Cranston", "address": "356 Cranston Rd SE #2002, Calgary, AB T3M 0S9", "city": "Calgary", "phone": "+1 403-454-2006", "website": "http://www.mountainviewmedicalcentre.com/", "rating": 3.5, "reviews": 0, "place_id": "ChIJ3ZU6aCedcVMRQl5AZmG9CFQ", "latitude": 50.880792, "longitude": -113.9776474, "care_type": "OB-GYN"}, {"name": "Maternity Care Clinic", "address": "178 96 Ave NE, Calgary, AB T3K 6G4", "city": "Calgary", "phone": "+1 403-735-4922", "website": "https://maternitycareclinic.ca/", "rating": 3.1, "reviews": 62, "place_id": "ChIJfcQs5YdmcVMRkzBZK3-yKEY", "latitude": 51.1420623, "longitude": -114.0662988, "care_type": "OB-GYN"}, {"name": "Aurora Midwifery", "address": "6622 20a St SE, Calgary, AB T2C 0R3", "city": "Calgary", "phone": "+1 403-203-5105", "website": "http://www.auroramidwifery.ca/", "rating": 4.5, "reviews": 69, "place_id": "ChIJdTRpYp5wcVMRzKZPmn1t3eY", "latitude": 50.9936808, "longitude": -114.0097807, "care_type": "OB-GYN"}, {"name": "Border City Obstetrics and Gynecology", "address": "5006 18 St, Lloydminster, AB T9V 0A8", "city": "Lloydminster", "phone": "+1 780-872-7589", "website": "", "rating": 4.1, "reviews": 9, "place_id": "ChIJAQAAAJeyCVMR59Owp1F7OlY", "latitude": 53.25404349999999, "longitude": -110.0074539, "care_type": "OB-GYN"}, {"name": "Lloyd Women's Clinic", "address": "1812 50 Ave Unit 7, Lloydminster, AB T9V 2W7", "city": "Lloydminster", "phone": "+1 780-875-8755", "website": "http://www.lloydwomensclinic.com/", "rating": 2.9, "reviews": 42, "place_id": "ChIJUZA8poKyCVMRM0HLUeTuWNU", "latitude": 53.25482, "longitude": -110.0070659, "care_type": "OB-GYN"}, {"name": "Dr Ogunlewe", "address": "4402 52 Ave, Lloydminster, AB T9V 0C7", "city": "Lloydminster", "phone": "+1 780-872-7343", "website": "", "rating": 4.7, "reviews": 14, "place_id": "ChIJN0GkOZOzCVMRCHsY3LokZPU", "latitude": 53.2790258, "longitude": -110.0111149, "care_type": "OB-GYN"}, {"name": "Synergy Women\u2019s Health Clinic", "address": "Fort McMurray, AB T9H 2J4", "city": "Fort McMurray", "phone": "+1 780-713-8007", "website": "https://thesynergycentre.ca/womens-clinic/", "rating": 5.0, "reviews": 1, "place_id": "ChIJNa4nJQAPsFMRhwhHPVGZc4g", "latitude": 56.7193036, "longitude": -111.3586753, "care_type": "OB-GYN"}, {"name": "Rehoboth Health Centre", "address": "8550 Franklin Ave, Fort McMurray, AB T9H 2J4", "city": "Fort McMurray", "phone": "+1 780-790-0366", "website": "https://www.rehobothclinic.ca/", "rating": 2.5, "reviews": 36, "place_id": "ChIJma00ykwPsFMRh3G_ejfkWwc", "latitude": 56.71912, "longitude": -111.3586502, "care_type": "OB-GYN"}, {"name": "Wild Rose Medical Clinic", "address": "37 2 Ave SE, High River, AB T1V 1G4", "city": "High River", "phone": "+1 403-652-4505", "website": "https://wildrosemedicalclinic.com/", "rating": 3.2, "reviews": 17, "place_id": "ChIJ-bnUhu2VcVMRa8t8CSXQvlc", "latitude": 50.5809473, "longitude": -113.8685253, "care_type": "OB-GYN"}, {"name": "Wetaskiwin Synergy Clinic", "address": "5011B 50 Ave, Wetaskiwin, AB T9A 1J8", "city": "Wetaskiwin", "phone": "+1 780-312-7898", "website": "", "rating": 3.6, "reviews": 28, "place_id": "ChIJ1Yv0y5xPdVMRL_tI8Sm5YPs", "latitude": 52.9696169, "longitude": -113.3753739, "care_type": "OB-GYN"}, {"name": "Premier Medical Clinic", "address": "1356 Windermere Way SW, Edmonton, AB T6W 2J3", "city": "Edmonton", "phone": "+1 780-760-1727", "website": "https://sphinxmedicalgroup.com/premier-clinic", "rating": 2.4, "reviews": 0, "place_id": "ChIJWykDUpz1n1MRuDiChdFphGA", "latitude": 53.4334076, "longitude": -113.6181966, "care_type": "OB-GYN"}, {"name": "Dr. Nadia Jilwah", "address": "51 Inglewood Dr #201, St. Albert, AB T8N 5M9", "city": "St. Albert", "phone": "+1 780-459-0500", "website": "", "rating": 3.7, "reviews": 22, "place_id": "ChIJG_MZy_oloFMRr63qiNLssTk", "latitude": 53.6532286, "longitude": -113.6259687, "care_type": "OB-GYN"}, {"name": "Mountain Maternity and Family Medicine", "address": "1205 Bow Valley Trl #201A, Canmore, AB T1W 1P5", "city": "Canmore", "phone": "+1 403-675-3088", "website": "http://www.mountainmaternity.ca/", "rating": 4.0, "reviews": 37, "place_id": "ChIJTzrjEr3FcFMRkXrD0RfmMgg", "latitude": 51.0916135, "longitude": -115.3508799, "care_type": "OB-GYN"}, {"name": "South Health Maternity & Wellness", "address": "12100 Macleod Trl Ste 234, Calgary, AB T2J 7G9", "city": "Calgary", "phone": "+1 403-271-3381", "website": "https://www.southhealthmaternity.ca/", "rating": 3.7, "reviews": 60, "place_id": "ChIJKZnrznJ3cVMR75EczWznQAI", "latitude": 50.94421999999999, "longitude": -114.0689089, "care_type": "OB-GYN"}, {"name": "Airdrie Midwives", "address": "328 1 Ave NW, Airdrie, AB T4B 0C4", "city": "Airdrie", "phone": "+1 587-360-2676", "website": "http://www.airdrie-midwives.com/", "rating": 4.8, "reviews": 82, "place_id": "ChIJCTCTUWlfcVMRZ5Ga2tyLNyE", "latitude": 51.2928656, "longitude": -114.0184684, "care_type": "OB-GYN"}, {"name": "Vena Mobile Health Inc.", "address": "117 1 St NW, Airdrie, AB T2R 1J3", "city": "Airdrie", "phone": "+1 403-850-1617", "website": "http://www.venamobilehealth.com/", "rating": 5.0, "reviews": 23, "place_id": "ChIJc2AQG8akjKIRNHDBcqLlf1E", "latitude": 51.2920084, "longitude": -114.0153867, "care_type": "OB-GYN"}, {"name": "Care First Medical", "address": "1301 8 St SW #37, Airdrie, AB T4B 3Y2", "city": "Airdrie", "phone": "+1 587-287-1837", "website": "http://www.carefirstmedical.ca/", "rating": 2.6, "reviews": 169, "place_id": "ChIJu8WGfKhfcVMRmBBqNYwOpGY", "latitude": 51.2727602, "longitude": -114.0256153, "care_type": "OB-GYN"}, {"name": "Shifra Centre for Wellness", "address": "304 1 St E, Cochrane, AB T4C 1Z2", "city": "Cochrane", "phone": "+1 403-932-3176", "website": "http://www.shifracentre.com/", "rating": 4.9, "reviews": 95, "place_id": "ChIJCyWvsZ1AcVMRHNRv5UmXWrs", "latitude": 51.1880593, "longitude": -114.4622845, "care_type": "OB-GYN"}]