[{"name": "Saline Women's Clinic", "address": "3 Medical Park Dr Building A, Suite 100, Benton, AR 72015", "city": "Benton", "phone": "+1 501-776-6249", "website": "https://www.salineclinics.org/", "rating": 4.4, "reviews": 95, "place_id": "ChIJa1rKGYdRzYcRLdN9C891R6o", "latitude": 34.5734035, "longitude": -92.5853214, "care_type": "OB-GYN"}, {"name": "Dr. Estelle A. Rutledge, MD", "address": "2301 Springhill Rd, Bryant, AR 72019", "city": "Bryant", "phone": "+1 501-847-0834", "website": "", "rating": 4.0, "reviews": 2, "place_id": "ChIJM82GjatXzYcRK8eMPJNWvVk", "latitude": 34.613396, "longitude": -92.518214, "care_type": "OB-GYN"}, {"name": "Saline Surgical Associates", "address": "23157 I-30 Frontage Rd # 200, Bryant, AR 72022", "city": "Bryant", "phone": "+1 501-778-4862", "website": "", "rating": 5.0, "reviews": 1, "place_id": "ChIJtyeBjatXzYcRhOXiwLSz8y8", "latitude": 34.61854, "longitude": -92.4962455, "care_type": "OB-GYN"}, {"name": "Ralynn Brann MD", "address": "3 Medical Park Dr building a suite 100, Benton, AR 72015", "city": "Benton", "phone": "+1 501-776-6249", "website": "https://www.salineclinics.org/", "rating": 4.8, "reviews": 13, "place_id": "ChIJ9Zs7UXRRzYcRBvaI0Us5hmc", "latitude": 34.572948, "longitude": -92.5848166, "care_type": "OB-GYN"}, {"name": "Dr. Stacy Ulmer-Pinter", "address": "3412A Market Pl Ave, Bryant, AR 72022", "city": "Bryant", "phone": "+1 501-776-6252", "website": "", "rating": null, "reviews": 0, "place_id": "ChIJbYMQn69XzYcREjsiUUYS49g", "latitude": 34.6258538, "longitude": -92.4923635, "care_type": "OB-GYN"}, {"name": "Benton Womens Clinic", "address": "5 Medical Park Dr # 308, Benton, AR 72015", "city": "Benton", "phone": "+1 501-778-1000", "website": "", "rating": 4.2, "reviews": 19, "place_id": "ChIJbTpwvYZRzYcRxSJ13UAVbKw", "latitude": 34.574428, "longitude": -92.58542299999999, "care_type": "OB-GYN"}, {"name": "Rutledge Estelle MD", "address": "23157 I-30 Frontage Rd, Bryant, AR 72022", "city": "Bryant", "phone": "+1 501-847-0834", "website": "", "rating": null, "reviews": 0, "place_id": "ChIJtyeBjatXzYcRX9n-DACARDI", "latitude": 34.618478, "longitude": -92.4963598, "care_type": "OB-GYN"}, {"name": "Siloam Springs Women's Center", "address": "603 N Progress Ave 2 #100, Siloam Springs, AR 72761", "city": "Siloam Springs", "phone": "+1 479-524-9312", "website": "http://www.siloamwomenscenter.com/www", "rating": 3.9, "reviews": 46, "place_id": "ChIJOT8tYp-iyYcRY-esJ3i8EVg", "latitude": 36.1899429, "longitude": -94.5077653, "care_type": "OB-GYN"}, {"name": "Chad Hill MD", "address": "603 N Progress Ave #100, Siloam Springs, AR 72761", "city": "Siloam Springs", "phone": "+1 479-524-9312", "website": "http://www.siloamwomenscenter.com/", "rating": 4.6, "reviews": 18, "place_id": "ChIJiSXEY5-iyYcR4tegk6MimmI", "latitude": 36.1898192, "longitude": -94.5075045, "care_type": "OB-GYN"}, {"name": "AMMC Women's Clinic", "address": "1110 W Kingshighway, Paragould, AR 72450", "city": "Paragould", "phone": "+1 870-205-2002", "website": "http://www.myammc.org/", "rating": 2.9, "reviews": 55, "place_id": "ChIJCb3YDg971ocRuS2Sq4oO8qw", "latitude": 36.0520704, "longitude": -90.5005633, "care_type": "OB-GYN"}, {"name": "Jodi Turano", "address": "1000 W Kingshighway Ste 14, Paragould, AR 72450", "city": "Paragould", "phone": "+1 870-239-8591", "website": "", "rating": 3.0, "reviews": 4, "place_id": "ChIJh_f3GA971ocRAUVLwBHUyIQ", "latitude": 36.0517332, "longitude": -90.4993569, "care_type": "OB-GYN"}, {"name": "Dr. Betty Orange", "address": "1000 W Kingshighway #4, Paragould, AR 72450", "city": "Paragould", "phone": "+1 870-239-8137", "website": "", "rating": null, "reviews": 0, "place_id": "ChIJf0qkEg971ocRyjevvr8DzvU", "latitude": 36.0522623, "longitude": -90.49866329999999, "care_type": "OB-GYN"}, {"name": "Baptist Health Women's Satellite Clinic-Cabot", "address": "205 Westport Dr #1, Cabot, AR 72023", "city": "Cabot", "phone": "+1 501-955-2741", "website": "https://www.baptist-health.com/services/womens-health/", "rating": null, "reviews": 0, "place_id": "ChIJMdcBIBXv0ocROGWdwNUasj4", "latitude": 34.9803065, "longitude": -92.04342609999999, "care_type": "OB-GYN"}, {"name": "Jefferson Regional OB/GYN Associates", "address": "1609 W 40th Ave suite 300, Pine Bluff, AR 71603", "city": "Pine Bluff", "phone": "+1 870-541-6045", "website": "https://www.jrmc.org/locations/ob-gyn-associates/", "rating": 4.5, "reviews": 103, "place_id": "ChIJp3l8-0E9LYYR-XzO-GvzFsw", "latitude": 34.1896632, "longitude": -92.0189015, "care_type": "OB-GYN"}, {"name": "Katie Beal, M.D.", "address": "2900 Medical Center Pkwy #380, Bentonville, AR 72712", "city": "Bentonville", "phone": "+1 479-250-4258", "website": "https://www.nw-physicians.com/doctors-providers/beal-katie-md-6831%3Futm_source%3Dgmb%26utm_medium%3Dhomepage%26utm_campaign%3Dbiz-listings", "rating": 4.7, "reviews": 239, "place_id": "ChIJbVfwU1kRyYcRF2nONFBqTzs", "latitude": 36.3408265, "longitude": -94.1905331, "care_type": "OB-GYN"}, {"name": "Dr. Natalie Eiland", "address": "500 SE Plaza Ave, Bentonville, AR 72712", "city": "Bentonville", "phone": "+1 479-876-8110", "website": "https://whanwa.com/our-doctors/", "rating": 5.0, "reviews": 16, "place_id": "ChIJAQDQ5EQQyYcRNe8Vx_pAI-8", "latitude": 36.3334048, "longitude": -94.2044875, "care_type": "OB-GYN"}, {"name": "Tate William MD", "address": "7 Applecross Pl, Bella Vista, AR 72715", "city": "Bella Vista", "phone": "+1 479-876-2093", "website": "", "rating": 1.0, "reviews": 1, "place_id": "ChIJB3_ISEEByYcRDik7ifWScZs", "latitude": 36.461384, "longitude": -94.33183, "care_type": "OB-GYN"}, {"name": "Women's Health Associates", "address": "500 SE Plaza Ave, Bentonville, AR 72712", "city": "Bentonville", "phone": "+1 479-876-8111", "website": "https://www.whanwa.com/", "rating": 4.7, "reviews": 501, "place_id": "ChIJy0KAMPUQyYcRUuTdYBaQZis", "latitude": 36.3334173, "longitude": -94.2045167, "care_type": "OB-GYN"}, {"name": "Sills Amber J MD", "address": "500 SE Plaza Ave, Bentonville, AR 72712", "city": "Bentonville", "phone": "+1 479-876-8111", "website": "http://www.whanwa.com/", "rating": 4.7, "reviews": 15, "place_id": "ChIJab6X3fQQyYcRbzTn5oCo-jk", "latitude": 36.3335283, "longitude": -94.20451419999999, "care_type": "OB-GYN"}, {"name": "Dr. Darrin D. Cunningham, DO", "address": "6636 W Sunset Ave Suite A, Springdale, AR 72762", "city": "Springdale", "phone": "+1 479-757-5066", "website": "https://www.northwesthealth.com/find-a-doctor/cunningham-darrin-do-8212", "rating": 4.9, "reviews": 523, "place_id": "ChIJsTCij1FsyYcRvS0-3nKMIBc", "latitude": 36.176256, "longitude": -94.2040354, "care_type": "OB-GYN"}, {"name": "Serena Pierson, M.D.", "address": "4301 Greathouse Springs Rd #100, Johnson, AR 72741", "city": "Johnson", "phone": "+1 479-757-1730", "website": "https://www.nw-physicians.com/doctors-providers/pierson-serena-md-6638%3Futm_source%3Dgmb%26utm_medium%3Dhomepage%26utm_campaign%3Dbiz-listings", "rating": 4.6, "reviews": 195, "place_id": "ChIJh4nrna5tyYcRXgxA85b-iNY", "latitude": 36.1353994, "longitude": -94.1860974, "care_type": "OB-GYN"}, {"name": "Willow Creek Women's Clinic", "address": "4301 Greathouse Springs Rd #100, Johnson, AR 72741", "city": "Johnson", "phone": "+1 479-757-1730", "website": "https://www.nw-physicians.com/our-locations/willow-creek-womens-clinic-2316%3Futm_source%3Dgmb%26utm_medium%3Dhomepage%26utm_campaign%3Dbiz-listings", "rating": 3.5, "reviews": 135, "place_id": "ChIJR18XGU5syYcR1cYb0jg24zw", "latitude": 36.1353994, "longitude": -94.1860974, "care_type": "OB-GYN"}, {"name": "Ozark Womens Specialty Group", "address": "2900 Medical Center Pkwy, Bentonville, AR 72712", "city": "Bentonville", "phone": "+1 479-250-4258", "website": "https://owsg.org/", "rating": 4.4, "reviews": 124, "place_id": "ChIJ0XAdUMgRyYcRTiMXraPCR78", "latitude": 36.340816, "longitude": -94.19023899999999, "care_type": "OB-GYN"}, {"name": "Rachel Farrell, M.D.", "address": "4301 Greathouse Springs Rd, Johnson, AR 72741", "city": "Johnson", "phone": "", "website": "https://rymaps.xyz/business/rachel-farrell-md-2pvro3", "rating": 4.8, "reviews": 182, "place_id": "ChIJ70EzQodRzYcRorgoKi2XHZQ", "latitude": 36.135608, "longitude": -94.18497699999999, "care_type": "OB-GYN"}, {"name": "Womens Clinic: Blossom Eddye G MD", "address": "210 S Rhodes St, West Memphis, AR 72301", "city": "West Memphis", "phone": "+1 870-732-5448", "website": "", "rating": null, "reviews": 0, "place_id": "ChIJsymxb9921YcRPFvvkDhGLXI", "latitude": 35.1443386, "longitude": -90.1873473, "care_type": "OB-GYN"}, {"name": "East Arkansas Medical Group - OB/GYN - West Memphis", "address": "210 S Rhodes St, West Memphis, AR 72301", "city": "West Memphis", "phone": "+1 870-630-9934", "website": "https://eastarkansascare.com/services/womens-health/", "rating": null, "reviews": 0, "place_id": "ChIJQXPMe5t31YcRDSj-bUf7Ito", "latitude": 35.1443094, "longitude": -90.18729379999999, "care_type": "OB-GYN"}, {"name": "Hutchinson Clinton T MD", "address": "9500 Kanis Rd, Little Rock, AR 72205", "city": "Little Rock", "phone": "+1 501-224-6699", "website": "", "rating": 4.2, "reviews": 14, "place_id": "ChIJsSleBAOk0ocR8GmBpqqEQcg", "latitude": 34.7436066, "longitude": -92.3803334, "care_type": "OB-GYN"}, {"name": "Jody Callaway, MD", "address": "105 Skyline Dr, Russellville, AR 72801", "city": "Russellville", "phone": "+1 479-968-2345", "website": "https://www.saintmarysphysicianservices.com/", "rating": 4.6, "reviews": 10, "place_id": "ChIJWR3dHMNTzIcROgAOAF6hIl4", "latitude": 35.287247, "longitude": -93.16579, "care_type": "OB-GYN"}, {"name": "River Valley Obstetrics & Gynecology, P.A.", "address": "2500 W Main St, Russellville, AR 72801", "city": "Russellville", "phone": "+1 479-219-9913", "website": "http://www.rivervalleyobgyn.com/", "rating": 4.4, "reviews": 61, "place_id": "ChIJCeL3lIdTzIcRypKUapv05XA", "latitude": 35.285376, "longitude": -93.1567333, "care_type": "OB-GYN"}, {"name": "Montgomery Frances R MD", "address": "521 Marshall Rd, Jacksonville, AR 72076", "city": "Jacksonville", "phone": "+1 501-982-3461", "website": "", "rating": 5.0, "reviews": 4, "place_id": "ChIJMYPcIsLq0ocRG19CZNE1G_Y", "latitude": 34.87211, "longitude": -92.1267354, "care_type": "OB-GYN"}, {"name": "Gregory D Wood Md", "address": "4505 McCain Blvd, North Little Rock, AR 72117", "city": "North Little Rock", "phone": "+1 501-955-9585", "website": "", "rating": 4.1, "reviews": 39, "place_id": "ChIJnRSN8oS-0ocRoaw80ruQA8Q", "latitude": 34.7895899, "longitude": -92.2140127, "care_type": "OB-GYN"}, {"name": "Millard-Henry Women's Clinic", "address": "105 Skyline Dr, Russellville, AR 72801", "city": "Russellville", "phone": "+1 479-968-2345", "website": "https://www.saintmarysphysicianservices.com/", "rating": 2.9, "reviews": 15, "place_id": "ChIJlwJFzaJTzIcRWUJT7YrbPVs", "latitude": 35.287247, "longitude": -93.16579, "care_type": "OB-GYN"}, {"name": "Michael Escue MD", "address": "105 Skyline Dr, Russellville, AR 72801", "city": "Russellville", "phone": "+1 479-968-2345", "website": "https://www.saintmarysphysicianservices.com/", "rating": 5.0, "reviews": 11, "place_id": "ChIJWR3dHMNTzIcRn8BdMfeh-JA", "latitude": 35.287247, "longitude": -93.16579, "care_type": "OB-GYN"}, {"name": "Cristina Clark MD", "address": "105 Skyline Dr, Russellville, AR 72801", "city": "Russellville", "phone": "+1 479-968-2345", "website": "https://www.saintmarysphysicianservices.com/", "rating": 3.7, "reviews": 12, "place_id": "ChIJWR3dHMNTzIcR7zPULZyDM7g", "latitude": 35.2864428, "longitude": -93.16691399999999, "care_type": "OB-GYN"}, {"name": "David Nelson MD", "address": "105 Skyline Dr, Russellville, AR 72801", "city": "Russellville", "phone": "+1 479-968-2345", "website": "https://www.saintmarysphysicianservices.com/", "rating": 5.0, "reviews": 8, "place_id": "ChIJ2TtrE8NTzIcR_l54gc8fcvU", "latitude": 35.287247, "longitude": -93.16579, "care_type": "OB-GYN"}, {"name": "Lynn Callaway", "address": "105 Skyline Dr, Russellville, AR 72801", "city": "Russellville", "phone": "+1 479-880-4332", "website": "https://www.saintmarysphysicianservices.com/", "rating": 5.0, "reviews": 4, "place_id": "ChIJQTJVGDpTzIcRZAzPYMUA2QA", "latitude": 35.287247, "longitude": -93.16579, "care_type": "OB-GYN"}, {"name": "Melissa Darnell", "address": "105 Skyline Dr, Russellville, AR 72801", "city": "Russellville", "phone": "+1 479-890-4332", "website": "https://www.saintmarysphysicianservices.com/", "rating": 4.5, "reviews": 2, "place_id": "ChIJJQET6wxTzIcRxj-33zc-NSc", "latitude": 35.287247, "longitude": -93.16579, "care_type": "OB-GYN"}, {"name": "The Woman's Clinic, P.A.", "address": "9601 Baptist Health Dr #1200, Little Rock, AR 72205", "city": "Little Rock", "phone": "+1 501-664-4131", "website": "http://arobgyn.com/", "rating": 3.3, "reviews": 130, "place_id": "ChIJZX3aJH6k0ocRPhFelT7pFd0", "latitude": 34.7453286, "longitude": -92.3816214, "care_type": "OB-GYN"}, {"name": "Arkansas Women's Center", "address": "9500 Kanis Rd Ste 200, Little Rock, AR 72205", "city": "Little Rock", "phone": "+1 501-224-6699", "website": "http://www.arwomenscenter.com/", "rating": 3.7, "reviews": 35, "place_id": "ChIJsSleBAOk0ocR4rXiNZF-eBk", "latitude": 34.7438078, "longitude": -92.3801397, "care_type": "OB-GYN"}, {"name": "West Little Rock Women's Center", "address": "12921 Cantrell Rd #300, Little Rock, AR 72223", "city": "Little Rock", "phone": "+1 501-907-6699", "website": "http://www.wlrwomens.com/", "rating": 3.8, "reviews": 55, "place_id": "ChIJvXbBoquh0ocRgAkOgKyRXIA", "latitude": 34.79837759999999, "longitude": -92.41785, "care_type": "OB-GYN"}, {"name": "Central Clinic For Women", "address": "9601 Baptist Health Dr # 500, Little Rock, AR 72205", "city": "Little Rock", "phone": "+1 501-227-5885", "website": "http://www.centralclinicforwomen.com/", "rating": 2.8, "reviews": 52, "place_id": "ChIJaYV7A6qm0ocRgRfdgRAktl8", "latitude": 34.745462, "longitude": -92.381667, "care_type": "OB-GYN"}, {"name": "May Women's Health Clinic", "address": "500 S University Ave #717, Little Rock, AR 72205", "city": "Little Rock", "phone": "+1 501-661-9525", "website": "https://www.chistvincent.com/physicians/caroline-v-may", "rating": 5.0, "reviews": 1, "place_id": "ChIJs1wMOn6k0ocRJ-cexupa3fA", "latitude": 34.7476491, "longitude": -92.34280129999999, "care_type": "OB-GYN"}, {"name": "Dr. Leticia A. Jones, MD", "address": "9601 Baptist Health Dr #1200, Little Rock, AR 72205", "city": "Little Rock", "phone": "+1 501-664-4131", "website": "https://www.arobgyn.com/leticia-jones/", "rating": 3.9, "reviews": 48, "place_id": "ChIJzear5wGk0ocRnB7IaaL31bE", "latitude": 34.7448261, "longitude": -92.38133839999999, "care_type": "OB-GYN"}, {"name": "UAMS Health - Women's Center", "address": "Midtown Medical Park, 6119 Midtown Ave, Little Rock, AR 72205", "city": "Little Rock", "phone": "+1 501-296-1800", "website": "https://uamshealth.com/location/womens-center/%3Futm_source%3Dgoogle%26utm_medium%3Dgmb%26utm_campaign%3Dclinical%26utm_term%3Dlocation%26utm_content%3Dprofile%26utm_specs%3Dwomens-center", "rating": 3.3, "reviews": 109, "place_id": "ChIJLcfboCyl0ocRd6ErcVNHop4", "latitude": 34.7478406, "longitude": -92.3452413, "care_type": "OB-GYN"}, {"name": "North Little Rock Women's Clinic", "address": "2524 Crestwood Rd # 5, North Little Rock, AR 72116", "city": "North Little Rock", "phone": "+1 501-835-9444", "website": "http://www.nlrwc.com/", "rating": 3.8, "reviews": 109, "place_id": "ChIJl7nq8py-0ocRrnuyO1JXYGU", "latitude": 34.798053, "longitude": -92.23468899999999, "care_type": "OB-GYN"}, {"name": "Dr. Elizabeth A. Deed, MD", "address": "9601 Baptist Health Dr # 500, Little Rock, AR 72205", "city": "Little Rock", "phone": "+1 501-227-5885", "website": "http://www.centralclinicforwomen.com/", "rating": 4.8, "reviews": 10, "place_id": "ChIJaYV7A6qm0ocR9abqgm2n3pQ", "latitude": 34.7445622, "longitude": -92.381458, "care_type": "OB-GYN"}, {"name": "Cornerstone Clinic For Women - Main Location", "address": "9500 Baptist Health Dr Suite 100, Little Rock, AR 72205", "city": "Little Rock", "phone": "+1 501-224-5500", "website": "http://cornerstoneclinicforwomen.com/", "rating": 3.2, "reviews": 187, "place_id": "ChIJB6QOYQGk0ocRUpPTYO5WGho", "latitude": 34.7461896, "longitude": -92.3791253, "care_type": "OB-GYN"}, {"name": "Baptist Health Women's Center", "address": "9601 Baptist Health Dr 2nd floor, Little Rock, AR 72205", "city": "Little Rock", "phone": "+1 501-227-8478", "website": "https://www.baptist-health.com/location/baptist-health-womens-center", "rating": 3.0, "reviews": 14, "place_id": "ChIJP_wGQvGm0ocRyEvF3pCdeWE", "latitude": 34.7445622, "longitude": -92.381458, "care_type": "OB-GYN"}, {"name": "UAMS Health - Mary Luann Racher, M.D. - Women's Center", "address": "Midtown Medical Park Women's Center, 6119 Midtown Ave, Little Rock, AR 72205", "city": "Little Rock", "phone": "+1 501-296-1800", "website": "https://uamshealth.com/provider/mary-luann-racher/%3Futm_source%3Dgoogle%26utm_medium%3Dgmb%26utm_campaign%3Dclinical%26utm_term%3Dprovider%26utm_content%3Dprofile%26utm_specs%3Dmary-luann-racher_womens-center", "rating": 4.5, "reviews": 10, "place_id": "ChIJ9UuMWtql0ocRr5vCCPY1RB4", "latitude": 34.7478406, "longitude": -92.3452413, "care_type": "OB-GYN"}, {"name": "Dr. Caroline May, MD", "address": "500 S University Ave #717, Little Rock, AR 72205", "city": "Little Rock", "phone": "+1 501-661-9525", "website": "", "rating": 3.0, "reviews": 12, "place_id": "ChIJZX3aJH6k0ocR0267lxoZwQs", "latitude": 34.7476491, "longitude": -92.34280129999999, "care_type": "OB-GYN"}, {"name": "Dr. Julia Goodwin, MD", "address": "12921 Cantrell Rd #300, Little Rock, AR 72223", "city": "Little Rock", "phone": "+1 501-907-6699", "website": "http://www.wlrwomens.com/", "rating": 4.4, "reviews": 24, "place_id": "ChIJt7FiJgKk0ocR6GuQpfYImXM", "latitude": 34.79837759999999, "longitude": -92.41785, "care_type": "OB-GYN"}, {"name": "Women First Gynecology & Wellness Clinic", "address": "9600 Baptist Health Dr # 340, Little Rock, AR 72205", "city": "Little Rock", "phone": "+1 501-248-0200", "website": "https://womenfirstclinic.com/", "rating": 3.3, "reviews": 9, "place_id": "ChIJS5Pl8OOl0ocRYJ9aCQ3F5co", "latitude": 34.7464013, "longitude": -92.3807035, "care_type": "OB-GYN"}, {"name": "Women's Pavilion", "address": "1 St Vincent Cir # 440, Little Rock, AR 72205", "city": "Little Rock", "phone": "+1 501-666-4294", "website": "", "rating": 3.9, "reviews": 19, "place_id": "ChIJ0_xEiICk0ocR06uRSuL4_mM", "latitude": 34.7495665, "longitude": -92.33826499999999, "care_type": "OB-GYN"}, {"name": "Lindsay Osleber", "address": "9500 Kanis Rd Ste 200, Little Rock, AR 72205", "city": "Little Rock", "phone": "+1 501-224-6699", "website": "https://www.arwomenscenter.com/dr-lindsay-osleber", "rating": 4.6, "reviews": 10, "place_id": "ChIJM2muEgKk0ocRRkiyeK2qbOA", "latitude": 34.7440271, "longitude": -92.38071289999999, "care_type": "OB-GYN"}, {"name": "UAMS Health - Kristina M. Jones, M.D. - Women's Center", "address": "Midtown Medical Park Women's Center, 6119 Midtown Ave, Little Rock, AR 72205", "city": "Little Rock", "phone": "+1 501-296-1800", "website": "https://uamshealth.com/provider/kristina-m-jones/%3Futm_source%3Dgoogle%26utm_medium%3Dgmb%26utm_campaign%3Dclinical%26utm_term%3Dprovider%26utm_content%3Dprofile%26utm_specs%3Dkristina-m-jones_womens-center", "rating": 5.0, "reviews": 2, "place_id": "ChIJ26tqQnCl0ocRu3BRCSz5BCM", "latitude": 34.7477596, "longitude": -92.3450388, "care_type": "OB-GYN"}, {"name": "Dr. Amy C. Wiedower Eble, MD", "address": "9601 Baptist Health Dr # 500, Little Rock, AR 72205", "city": "Little Rock", "phone": "+1 501-227-5885", "website": "", "rating": 4.2, "reviews": 13, "place_id": "ChIJaYV7A6qm0ocRFXArWaZgwXI", "latitude": 34.7453286, "longitude": -92.3816214, "care_type": "OB-GYN"}, {"name": "Cope Michael G MD", "address": "9601 Baptist Health Dr #1200, Little Rock, AR 72205", "city": "Little Rock", "phone": "+1 501-664-4131", "website": "http://www.arobgyn.com/", "rating": 4.7, "reviews": 14, "place_id": "ChIJ3_d5Pn6k0ocRVxwrgTREBn8", "latitude": 34.7443236, "longitude": -92.3815032, "care_type": "OB-GYN"}, {"name": "UAMS Health - Lettie A. Odom, M.D. - UAMS Medical Center", "address": "UAMS Medical Center, 4301 W Markham St, Little Rock, AR 72205", "city": "Little Rock", "phone": "+1 501-686-8000", "website": "https://uamshealth.com/provider/lettie-a-odom/%3Futm_source%3Dgoogle%26utm_medium%3Dgmb%26utm_campaign%3Dclinical%26utm_term%3Dprovider%26utm_content%3Dprofile%26utm_specs%3Dlettie-a-odom_uams-medical-center", "rating": 5.0, "reviews": 2, "place_id": "ChIJK96QsAel0ocR5M89ui0sQbM", "latitude": 34.7482716, "longitude": -92.3214527, "care_type": "OB-GYN"}, {"name": "Dr. Brian Burton, MD", "address": "9601 Baptist Health Dr #1200, Little Rock, AR 72205", "city": "Little Rock", "phone": "+1 501-664-4131", "website": "http://www.arobgyn.com/team/brian-m-burton/", "rating": 4.2, "reviews": 20, "place_id": "ChIJZX3aJH6k0ocRKzCCvTA-wuk", "latitude": 34.7449072, "longitude": -92.3813079, "care_type": "OB-GYN"}, {"name": "Shelly Gibbs, MD", "address": "9601 Baptist Health Dr #1200, Little Rock, AR 72205", "city": "Little Rock", "phone": "+1 501-664-4131", "website": "https://www.arobgyn.com/shelly-gibbs/", "rating": 4.6, "reviews": 27, "place_id": "ChIJJfPaJH6k0ocRK-P55fLcGK4", "latitude": 34.7444214, "longitude": -92.3810554, "care_type": "OB-GYN"}, {"name": "Holly Cockrum, MD", "address": "2524 Crestwood Rd, North Little Rock, AR 72116", "city": "North Little Rock", "phone": "+1 501-835-9444", "website": "http://nlrwc.com/", "rating": 3.5, "reviews": 29, "place_id": "ChIJl7nq8py-0ocR_BLyh-QEbO4", "latitude": 34.7981329, "longitude": -92.23467269999999, "care_type": "OB-GYN"}, {"name": "Watkins Julia M MD", "address": "12921 Cantrell Rd, Little Rock, AR 72223", "city": "Little Rock", "phone": "+1 501-907-6699", "website": "https://www.baptist-health.com/doctor/julia-m-watkins-md", "rating": 3.7, "reviews": 11, "place_id": "ChIJPVq9hKih0ocRNa9ww7LxlAY", "latitude": 34.7983287, "longitude": -92.4178513, "care_type": "OB-GYN"}, {"name": "Susan Barr, MD", "address": "5 St Vincent Cir Suite 300, Little Rock, AR 72205", "city": "Little Rock", "phone": "+1 501-480-8800", "website": "https://www.arurogyn.com/", "rating": 4.5, "reviews": 19, "place_id": "ChIJHbytc4Sl0ocR90OzQNbYLvk", "latitude": 34.75151, "longitude": -92.33703589999999, "care_type": "OB-GYN"}, {"name": "UAMS Health - Dora Mah Smith, M.D. - Women's Center", "address": "Midtown Medical Park Women's Center, 6119 Midtown Ave, Little Rock, AR 72205", "city": "Little Rock", "phone": "+1 501-296-1800", "website": "https://uamshealth.com/provider/dora-mah-smith/%3Futm_source%3Dgoogle%26utm_medium%3Dgmb%26utm_campaign%3Dclinical%26utm_term%3Dprovider%26utm_content%3Dprofile%26utm_specs%3Ddora-mah-smith_womens-center", "rating": 5.0, "reviews": 3, "place_id": "ChIJDx67eIak0ocRw7C6TTEW_p8", "latitude": 34.7478406, "longitude": -92.3452413, "care_type": "OB-GYN"}, {"name": "UAMS Health - Heather R. Williams, M.D. - Women's Gynecologic Cancer Clinic", "address": "UAMS Winthrop P. Rockefeller Cancer Institute Women's Gynecologic Cancer Clinic, 449 Jack Stephens Dr, Little Rock, AR 72205", "city": "Little Rock", "phone": "+1 501-686-8522", "website": "https://uamshealth.com/provider/heather-r-williams/%3Futm_source%3Dgoogle%26utm_medium%3Dgmb%26utm_campaign%3Dclinical%26utm_term%3Dprovider%26utm_content%3Dprofile%26utm_specs%3Dheather-r-williams_womens-cancer-gynecology", "rating": 4.4, "reviews": 34, "place_id": "ChIJMXJcogViXIYRWw4HoHpuSI4", "latitude": 34.7486324, "longitude": -92.3189884, "care_type": "OB-GYN"}, {"name": "Dr. Rufus Thrower Jr, MD", "address": "1100 N University Ave #125, Little Rock, AR 72207", "city": "Little Rock", "phone": "+1 501-663-0055", "website": "", "rating": 4.2, "reviews": 53, "place_id": "ChIJoT50zYmk0ocRhdHTfb4iKOs", "latitude": 34.7618196, "longitude": -92.34150629999999, "care_type": "OB-GYN"}, {"name": "Arkansas Gynecology Oncology: Bandy Lawrence MD", "address": "9601 Baptist Health Dr, Little Rock, AR 72205", "city": "Little Rock", "phone": "+1 501-221-3088", "website": "https://www.baptist-health.com/doctor/lawrence-curtis-bandy-md/", "rating": 4.2, "reviews": 26, "place_id": "ChIJaYV7A6qm0ocR14QPVEapxe4", "latitude": 34.7453286, "longitude": -92.38162129999999, "care_type": "OB-GYN"}, {"name": "UAMS Health - Alexis C. White, M.D. - UAMS Medical Center", "address": "UAMS Medical Ctr, 4301 W Markham St, Little Rock, AR 72205", "city": "Little Rock", "phone": "+1 501-686-8000", "website": "https://uamshealth.com/provider/alexis-c-white/%3Futm_source%3Dgoogle%26utm_medium%3Dgmb%26utm_campaign%3Dclinical%26utm_term%3Dprovider%26utm_content%3Dprofile%26utm_specs%3Dalexis-c-white_uams-medical-center", "rating": 4.1, "reviews": 9, "place_id": "ChIJs5ug_sCl0ocRvVH15-inG2A", "latitude": 34.7493136, "longitude": -92.3205302, "care_type": "OB-GYN"}, {"name": "Chandler Kay H MD", "address": "9500 Baptist Health Dr Suite 100, Little Rock, AR 72205", "city": "Little Rock", "phone": "+1 501-224-5500", "website": "https://www.baptist-health.com/doctor/kay-h-chandler-md/", "rating": 5.0, "reviews": 10, "place_id": "ChIJB6QOYQGk0ocRtWZYoVsgrm8", "latitude": 34.745565, "longitude": -92.3785485, "care_type": "OB-GYN"}, {"name": "UAMS Health - Amy M. Phillips, M.D. - UAMS Medical Center", "address": "UAMS Medical Ctr, 4301 W Markham St, Little Rock, AR 72205", "city": "Little Rock", "phone": "+1 501-686-8000", "website": "https://uamshealth.com/provider/amy-m-phillips/%3Futm_source%3Dgoogle%26utm_medium%3Dgmb%26utm_campaign%3Dclinical%26utm_term%3Dprovider%26utm_content%3Dprofile%26utm_specs%3Damy-m-phillips_uams-medical-center", "rating": 5.0, "reviews": 1, "place_id": "ChIJtWvFDhml0ocRuG1E58GzK_0", "latitude": 34.7493136, "longitude": -92.3205302, "care_type": "OB-GYN"}, {"name": "Fertility & Gynecology Care Center", "address": "9501 Baptist Health Dr # 940, Little Rock, AR 72205", "city": "Little Rock", "phone": "+1 501-812-3458", "website": "https://www.baptist-health.com/doctor/michael-m-miller-md/", "rating": 5.0, "reviews": 4, "place_id": "ChIJw12tbgKk0ocRRlL0hKU8ebA", "latitude": 34.7449805, "longitude": -92.3798892, "care_type": "OB-GYN"}, {"name": "Arkansas Children's - Kathryn C. Stambough, M.D.", "address": "Children's Hospital, 1 Children's Way, Little Rock, AR 72202", "city": "Little Rock", "phone": "+1 501-263-2621", "website": "https://uamshealth.com/provider/kathryn-c-stambough/%3Futm_source%3Dgoogle%26utm_medium%3Dgmb%26utm_campaign%3Dclinical%26utm_term%3Dprovider%26utm_content%3Dprofile%26utm_specs%3Dkathryn-c-stambough_arkansas-childrens", "rating": 5.0, "reviews": 2, "place_id": "ChIJbyoohpG70ocReStljvQJGiI", "latitude": 34.7429496, "longitude": -92.2929685, "care_type": "OB-GYN"}, {"name": "UAMS Health - Renee P. McGraw, M.D. - Women's Center", "address": "Midtown Medical Park Women's Center, 6119 Midtown Ave, Little Rock, AR 72205", "city": "Little Rock", "phone": "+1 501-296-1800", "website": "https://uamshealth.com/provider/renee-p-mcgraw/%3Futm_source%3Dgoogle%26utm_medium%3Dgmb%26utm_campaign%3Dclinical%26utm_term%3Dprovider%26utm_content%3Dprofile%26utm_specs%3Drenee-p-mcgraw_womens-center", "rating": 5.0, "reviews": 8, "place_id": "ChIJRUywEGml0ocRQpXDneU7KdY", "latitude": 34.7478406, "longitude": -92.3452413, "care_type": "OB-GYN"}, {"name": "UAMS Health - Dora Mah Smith, M.D. - UAMS Medical Center", "address": "UAMS Medical Ctr, 4301 W Markham St, Little Rock, AR 72205", "city": "Little Rock", "phone": "+1 501-686-8000", "website": "https://uamshealth.com/provider/dora-mah-smith/%3Futm_source%3Dgoogle%26utm_medium%3Dgmb%26utm_campaign%3Dclinical%26utm_term%3Dprovider%26utm_content%3Dprofile%26utm_specs%3Ddora-mah-smith_uams-medical-center", "rating": 5.0, "reviews": 1, "place_id": "ChIJn3I1MJGl0ocRBeJYyuFxplc", "latitude": 34.7493136, "longitude": -92.3205302, "care_type": "OB-GYN"}, {"name": "Moutos Dean M MD", "address": "9101 Kanis Rd #300, Little Rock, AR 72205", "city": "Little Rock", "phone": "+1 501-663-5858", "website": "http://arkansasfertility.com/", "rating": 3.0, "reviews": 10, "place_id": "ChIJ3ZV-qQSk0ocR717W8O6vb5U", "latitude": 34.7406961, "longitude": -92.3762553, "care_type": "OB-GYN"}, {"name": "UAMS Health - Nirvana A. Manning, M.D. - UAMS Medical Center", "address": "UAMS Medical Center, 4301 W Markham St, Little Rock, AR 72205", "city": "Little Rock", "phone": "+1 501-686-8000", "website": "https://uamshealth.com/provider/nirvana-a-manning/%3Futm_source%3Dgoogle%26utm_medium%3Dgmb%26utm_campaign%3Dclinical%26utm_term%3Dprovider%26utm_content%3Dprofile%26utm_specs%3Dnirvana-a-manning_uams-medical-center", "rating": 5.0, "reviews": 1, "place_id": "ChIJ-ShahaGk0ocRgnrZWO8syko", "latitude": 34.7493154, "longitude": -92.320596, "care_type": "OB-GYN"}, {"name": "Chatelain Stephen M MD", "address": "9501 Baptist Health Dr Suite 810, Little Rock, AR 72205", "city": "Little Rock", "phone": "+1 501-217-8467", "website": "https://www.baptist-health.com/", "rating": 5.0, "reviews": 3, "place_id": "ChIJa6_i-QGk0ocR2TQsnSEBR4g", "latitude": 34.744895, "longitude": -92.3797132, "care_type": "OB-GYN"}, {"name": "UAMS Health - Lindsey B. Sward, M.D. - UAMS Medical Center", "address": "UAMS Medical Ctr, 4301 W Markham St, Little Rock, AR 72205", "city": "Little Rock", "phone": "+1 501-686-8000", "website": "https://uamshealth.com/provider/lindsey-b-sward/%3Futm_source%3Dgoogle%26utm_medium%3Dgmb%26utm_campaign%3Dclinical%26utm_term%3Dprovider%26utm_content%3Dprofile%26utm_specs%3Dlindsey-b-sward_uams-medical-center", "rating": 3.6, "reviews": 5, "place_id": "ChIJsf-F2pOl0ocR5nW2t8Ywu1k", "latitude": 34.7493136, "longitude": -92.3205302, "care_type": "OB-GYN"}, {"name": "Stephen Marks", "address": "3333 Springhill Dr, North Little Rock, AR 72117", "city": "North Little Rock", "phone": "+1 501-202-3000", "website": "", "rating": 5.0, "reviews": 1, "place_id": "ChIJpaokm52-0ocRnyqvDsj8V1M", "latitude": 34.7837674, "longitude": -92.2229943, "care_type": "OB-GYN"}, {"name": "Hutchinson Clint MD", "address": "9500 Kanis Rd Ste 200, Little Rock, AR 72205", "city": "Little Rock", "phone": "+1 501-224-6699", "website": "https://www.arwomenscenter.com/dr-clinton-hutchinson", "rating": 5.0, "reviews": 3, "place_id": "ChIJsSleBAOk0ocRskRnLx8HFpI", "latitude": 34.7438078, "longitude": -92.38013959999999, "care_type": "OB-GYN"}, {"name": "Nancy Andrews Collins, M.D.", "address": "4301 W Markham St, Little Rock, AR 72205", "city": "Little Rock", "phone": "+1 501-686-8000", "website": "https://uamshealth.com/provider/%3Futm_source%3Dgoogle%26utm_medium%3Dgmb%26utm_campaign%3Dclinical%26utm_term%3Dprovider%26utm_content%3Dprofile", "rating": 4.8, "reviews": 6, "place_id": "ChIJ-ShahaGk0ocRMje_qWhQkYI", "latitude": 34.7493154, "longitude": -92.320596, "care_type": "OB-GYN"}, {"name": "David Neal Shenker, MD", "address": "9601 Baptist Health Dr, Little Rock, AR 72205", "city": "Little Rock", "phone": "+1 501-202-2000", "website": "https://www.baptist-health.org/find-care/provider/david-neal-shenker-md", "rating": 4.4, "reviews": 7, "place_id": "ChIJ3_d5Pn6k0ocR7jFaNfTD9Us", "latitude": 34.7441644, "longitude": -92.3812078, "care_type": "OB-GYN"}, {"name": "Dr. Cortez Mcfarland", "address": "1 St Vincent Cir # 440, Little Rock, AR 72205", "city": "Little Rock", "phone": "+1 501-666-4294", "website": "", "rating": 5.0, "reviews": 3, "place_id": "ChIJVVWVooGk0ocRxNJPXMsq6l8", "latitude": 34.7495665, "longitude": -92.33826499999999, "care_type": "OB-GYN"}, {"name": "Jonathan Nicholas Chang, MD", "address": "3201 Springhill Dr Suite 130, North Little Rock, AR 72117", "city": "North Little Rock", "phone": "+1 501-955-2741", "website": "https://www.baptist-health.org/find-care/provider/jonathan-n-chang-md", "rating": 4.7, "reviews": 14, "place_id": "ChIJGxvAOWO_0ocRN08OONPN0aw", "latitude": 34.7826443, "longitude": -92.2189282, "care_type": "OB-GYN"}, {"name": "UAMS Health - Chad B. Taylor, M.D. - UAMS Medical Center", "address": "UAMS Medical Ctr, 4301 W Markham St, Little Rock, AR 72205", "city": "Little Rock", "phone": "+1 501-686-8000", "website": "https://uamshealth.com/provider/chad-b-taylor/%3Futm_source%3Dgoogle%26utm_medium%3Dgmb%26utm_campaign%3Dclinical%26utm_term%3Dprovider%26utm_content%3Dprofile%26utm_specs%3Dchad-b-taylor_uams-medical-center", "rating": 4.3, "reviews": 6, "place_id": "ChIJi4_Oubql0ocRYTow_ElE9J4", "latitude": 34.7493136, "longitude": -92.3205302, "care_type": "OB-GYN"}, {"name": "Dr. Carl M. Riddell, MD", "address": "5800 W 10th St, Little Rock, AR 72204", "city": "Little Rock", "phone": "+1 501-661-2480", "website": "", "rating": 5.0, "reviews": 1, "place_id": "ChIJDx67eIak0ocRQ-jIHvn6PLA", "latitude": 34.7441578, "longitude": -92.33907409999999, "care_type": "OB-GYN"}, {"name": "UAMS Health - Morgan M. Knight, M.D. - Women's Center", "address": "Midtown Medical Park Women's Center, 6119 Midtown Ave, Little Rock, AR 72205", "city": "Little Rock", "phone": "+1 501-296-1800", "website": "https://uamshealth.com/provider/morgan-m-knight/%3Futm_source%3Dgoogle%26utm_medium%3Dgmb%26utm_campaign%3Dclinical%26utm_term%3Dprovider%26utm_content%3Dprofile%26utm_specs%3Dmorgan-m-knight_womens-center", "rating": 5.0, "reviews": 5, "place_id": "ChIJHwJetGel0ocRQZXsYYyDS5E", "latitude": 34.7477596, "longitude": -92.3450388, "care_type": "OB-GYN"}, {"name": "Jennings Jill Kimmer MD", "address": "500 S University Ave # 815, Little Rock, AR 72205", "city": "Little Rock", "phone": "+1 501-664-9232", "website": "", "rating": 3.7, "reviews": 6, "place_id": "ChIJZX3aJH6k0ocRQWqQjmkSM44", "latitude": 34.7476422, "longitude": -92.34266269999999, "care_type": "OB-GYN"}, {"name": "Milligan L Beth MD", "address": "2508 Crestwood Rd, North Little Rock, AR 72116", "city": "North Little Rock", "phone": "+1 501-758-2294", "website": "", "rating": 5.0, "reviews": 2, "place_id": "ChIJB6hxIM290ocRoQfHi5EBo0k", "latitude": 34.7991006, "longitude": -92.23589009999999, "care_type": "OB-GYN"}, {"name": "UAMS Health - William W. \"Sam\" Greenfield, M.D. - Women's Center", "address": "Midtown Medical Park Women's Center, 6119 Midtown Ave, Little Rock, AR 72205", "city": "Little Rock", "phone": "+1 501-296-1800", "website": "https://uamshealth.com/provider/william-w-greenfield/%3Futm_source%3Dgoogle%26utm_medium%3Dgmb%26utm_campaign%3Dclinical%26utm_term%3Dprovider%26utm_content%3Dprofile%26utm_specs%3Dwilliam-w-greenfield_womens-center", "rating": 3.7, "reviews": 3, "place_id": "ChIJ-ShahaGk0ocRRAgkBEKMuSM", "latitude": 34.7478406, "longitude": -92.3452413, "care_type": "OB-GYN"}, {"name": "Dr. Michael M. Miller, MD", "address": "9501 Baptist Health Dr # 940, Little Rock, AR 72205", "city": "Little Rock", "phone": "+1 501-812-3458", "website": "http://facebook.com/FertilityGynecologyCare", "rating": 4.0, "reviews": 52, "place_id": "ChIJ3ZV-qQSk0ocRA0tOHmpxEVU", "latitude": 34.7450354, "longitude": -92.37962519999999, "care_type": "OB-GYN"}, {"name": "UAMS Health - Lettie A. Odom, M.D. - Women's Center", "address": "Midtown Medical Park Women's Center, 6119 Midtown Ave, Little Rock, AR 72205", "city": "Little Rock", "phone": "+1 501-296-1800", "website": "https://uamshealth.com/provider/lettie-a-odom/%3Futm_source%3Dgoogle%26utm_medium%3Dgmb%26utm_campaign%3Dclinical%26utm_term%3Dprovider%26utm_content%3Dprofile%26utm_specs%3Dlettie-a-odom_womens-center", "rating": null, "reviews": 0, "place_id": "ChIJ9bAMsL-l0ocR7k4MEk02jvY", "latitude": 34.7477596, "longitude": -92.3450388, "care_type": "OB-GYN"}, {"name": "Patrick Lang, MD", "address": "9601 Baptist Health Dr #250, Little Rock, AR 72205", "city": "Little Rock", "phone": "+1 501-217-4910", "website": "https://www.baptist-health.org/find-care/provider/patrick-m-lang-md", "rating": 4.2, "reviews": 25, "place_id": "ChIJz14iXDCl0ocRExz2uAlzfYE", "latitude": 34.7448812, "longitude": -92.3814981, "care_type": "OB-GYN"}, {"name": "UAMS Health - Amy M. Phillips, M.D. - Women's Center", "address": "Midtown Medical Park Women's Center, 6119 Midtown Ave, Little Rock, AR 72205", "city": "Little Rock", "phone": "+1 501-296-1800", "website": "https://uamshealth.com/provider/amy-m-phillips/%3Futm_source%3Dgoogle%26utm_medium%3Dgmb%26utm_campaign%3Dclinical%26utm_term%3Dprovider%26utm_content%3Dprofile%26utm_specs%3Damy-m-phillips_womens-center", "rating": 3.5, "reviews": 2, "place_id": "ChIJoa45JqCk0ocR0fBMZMQTt_U", "latitude": 34.7478406, "longitude": -92.3452413, "care_type": "OB-GYN"}, {"name": "UAMS Health - Nafisa K. Dajani, M.D. - UAMS Medical Center", "address": "UAMS Medical Center, 4301 W Markham St, Little Rock, AR 72205", "city": "Little Rock", "phone": "+1 501-686-8000", "website": "https://uamshealth.com/provider/nafisa-k-dajani/%3Futm_source%3Dgoogle%26utm_medium%3Dgmb%26utm_campaign%3Dclinical%26utm_term%3Dprovider%26utm_content%3Dprofile%26utm_specs%3Dnafisa-k-dajani_uams-medical-center", "rating": 2.0, "reviews": 4, "place_id": "ChIJ-ShahaGk0ocR8KrUESS15wU", "latitude": 34.7493154, "longitude": -92.320596, "care_type": "OB-GYN"}, {"name": "UAMS Health - Alexander F. Burnett, M.D. - Women's Gynecologic Cancer Clinic", "address": "UAMS Winthrop P. Rockefeller Cancer Institute Women's Gynecologic Cancer Clinic, 449 Jack Stephens Dr, Little Rock, AR 72205", "city": "Little Rock", "phone": "+1 501-686-8522", "website": "https://uamshealth.com/provider/alexander-f-burnett/%3Futm_source%3Dgoogle%26utm_medium%3Dgmb%26utm_campaign%3Dclinical%26utm_term%3Dprovider%26utm_content%3Dprofile%26utm_specs%3Dalexander-f-burnett_womens-cancer-gynecology", "rating": 5.0, "reviews": 25, "place_id": "ChIJ-ShahaGk0ocRo-HbCApgK9I", "latitude": 34.7486324, "longitude": -92.3189884, "care_type": "OB-GYN"}, {"name": "UAMS Health - Alexis C. White, M.D. - Women's Center", "address": "Midtown Medical Park Women's Center, 6119 Midtown Ave, Little Rock, AR 72205", "city": "Little Rock", "phone": "+1 501-296-1800", "website": "https://uamshealth.com/provider/alexis-c-white/%3Futm_source%3Dgoogle%26utm_medium%3Dgmb%26utm_campaign%3Dclinical%26utm_term%3Dprovider%26utm_content%3Dprofile%26utm_specs%3Dalexis-c-white_womens-center", "rating": 2.3, "reviews": 3, "place_id": "ChIJl76Ls0Ol0ocRSGAB8rKAzTE", "latitude": 34.7478406, "longitude": -92.3452413, "care_type": "OB-GYN"}, {"name": "UAMS Health - Michael V. Smith, M.D. - UAMS Medical Center", "address": "UAMS Medical Ctr, 4301 W Markham St, Little Rock, AR 72205", "city": "Little Rock", "phone": "+1 501-686-8000", "website": "https://uamshealth.com/provider/michael-v-smith/%3Futm_source%3Dgoogle%26utm_medium%3Dgmb%26utm_campaign%3Dclinical%26utm_term%3Dprovider%26utm_content%3Dprofile%26utm_specs%3Dmichael-v-smith_uams-medical-center", "rating": 5.0, "reviews": 5, "place_id": "ChIJ-ShahaGk0ocREcBbgeDiUjw", "latitude": 34.7484267, "longitude": -92.3204908, "care_type": "OB-GYN"}, {"name": "UAMS Health - Chad B. Taylor, M.D. - Women's Center", "address": "Midtown Medical Park Women's Center, 6119 Midtown Ave, Little Rock, AR 72205", "city": "Little Rock", "phone": "+1 501-296-1800", "website": "https://uamshealth.com/provider/chad-b-taylor/%3Futm_source%3Dgoogle%26utm_medium%3Dgmb%26utm_campaign%3Dclinical%26utm_term%3Dprovider%26utm_content%3Dprofile%26utm_specs%3Dchad-b-taylor_womens-center", "rating": 5.0, "reviews": 1, "place_id": "ChIJoacl_7Gl0ocRTMjB-E_NpFQ", "latitude": 34.7478406, "longitude": -92.3452413, "care_type": "OB-GYN"}, {"name": "UAMS Health - William Scott Sosbee, M.D. - UAMS Medical Center", "address": "UAMS Medical Center, 4301 W Markham St, Little Rock, AR 72205", "city": "Little Rock", "phone": "+1 501-686-8000", "website": "https://uamshealth.com/provider/william-s-sosbee/%3Futm_source%3Dgoogle%26utm_medium%3Dgmb%26utm_campaign%3Dclinical%26utm_term%3Dprovider%26utm_content%3Dprofile%26utm_specs%3Dwilliam-s-sosbee_uams-medical-center", "rating": null, "reviews": 0, "place_id": "ChIJnw3N3bKl0ocRMDdsXQcWB4E", "latitude": 34.7482716, "longitude": -92.3214527, "care_type": "OB-GYN"}, {"name": "UAMS Health - Women's Gynecologic Cancer Clinic", "address": "449 Jack Stephens Drive UAMS Winthrop P. Rockefeller Cancer Institute, 449 Jack Stephens Dr Second Floor, Little Rock, AR 72205", "city": "Little Rock", "phone": "+1 501-686-8522", "website": "https://uamshealth.com/location/womens-cancer-gynecology/%3Futm_source%3Dgoogle%26utm_medium%3Dgmb%26utm_campaign%3Dclinical%26utm_term%3Dlocation%26utm_content%3Dprofile%26utm_specs%3Dwomens-cancer-gynecology", "rating": 3.0, "reviews": 2, "place_id": "ChIJn6EBwbul0ocRnSNoLuWYVU8", "latitude": 34.7486324, "longitude": -92.3189884, "care_type": "OB-GYN"}, {"name": "Dina Epstein, MD", "address": "3201 Springhill Dr Suite 130, North Little Rock, AR 72117", "city": "North Little Rock", "phone": "+1 501-955-2741", "website": "https://www.baptist-health.org/find-care/provider/dina-e-epstein-md", "rating": 3.5, "reviews": 13, "place_id": "ChIJNUCGy_q_0ocRBw1CYO3S4ls", "latitude": 34.7824235, "longitude": -92.2189708, "care_type": "OB-GYN"}, {"name": "UAMS Health - Monique A. Spillman, M.D., Ph.D. - Women's Gynecologic Cancer Clinic", "address": "UAMS Winthrop P. Rockefeller Cancer Institute Women's Gynecologic Cancer Clinic, 449 Jack Stephens Dr, Little Rock, AR 72205", "city": "Little Rock", "phone": "+1 501-686-8522", "website": "https://uamshealth.com/provider/monique-a-spillman/%3Futm_source%3Dgoogle%26utm_medium%3Dgmb%26utm_campaign%3Dclinical%26utm_term%3Dprovider%26utm_content%3Dprofile%26utm_specs%3Dmonique-a-spillman_womens-cancer-gynecology", "rating": 5.0, "reviews": 20, "place_id": "ChIJX1xN-rGl0ocRKX1OuS0Q_Lc", "latitude": 34.7486324, "longitude": -92.3189884, "care_type": "OB-GYN"}, {"name": "Sellers Matthew MD", "address": "9500 Baptist Health Dr Suite 100, Little Rock, AR 72205", "city": "Little Rock", "phone": "+1 501-224-5500", "website": "http://cornerstoneclinicforwomen.com/", "rating": 5.0, "reviews": 9, "place_id": "ChIJJaEOYQGk0ocR73kQ1-O3TJA", "latitude": 34.7461896, "longitude": -92.3791253, "care_type": "OB-GYN"}, {"name": "Amber Lyn Hunt, APRN", "address": "9601 Baptist Health Dr, Little Rock, AR 72205", "city": "Little Rock", "phone": "+1 501-224-5500", "website": "https://www.baptist-health.com/find-care/provider/amber-lyn-hunt-aprn", "rating": null, "reviews": 0, "place_id": "ChIJSdMCFzO80ocRrMr_HI4Tj4U", "latitude": 34.7962028, "longitude": -92.23672529999999, "care_type": "OB-GYN"}, {"name": "Kevin Barber, MD", "address": "3201 Springhill Dr # 130, North Little Rock, AR 72117", "city": "North Little Rock", "phone": "+1 501-955-2741", "website": "https://www.baptist-health.org/find-care/provider/kevin-a-barber-md", "rating": 4.8, "reviews": 12, "place_id": "ChIJ3QgL85y-0ocRxBFH9aQ0WN4", "latitude": 34.7847353, "longitude": -92.2201185, "care_type": "OB-GYN"}, {"name": "UAMS Health - Nirvana A. Manning, M.D. - Women's Center", "address": "Midtown Medical Park Women's Center, 6119 Midtown Ave, Little Rock, AR 72205", "city": "Little Rock", "phone": "+1 501-296-1800", "website": "https://uamshealth.com/provider/nirvana-a-manning/%3Futm_source%3Dgoogle%26utm_medium%3Dgmb%26utm_campaign%3Dclinical%26utm_term%3Dprovider%26utm_content%3Dprofile%26utm_specs%3Dnirvana-a-manning_womens-center", "rating": 4.0, "reviews": 1, "place_id": "ChIJj7Eao7Wm0ocRRPKVTHQpIfU", "latitude": 34.7481136, "longitude": -92.3452306, "care_type": "OB-GYN"}, {"name": "Dr. Herbert L. Wineland Jr, MD", "address": "4300 W 7th St, Little Rock, AR 72205", "city": "Little Rock", "phone": "+1 501-257-1000", "website": "http://www.littlerock.va.gov/", "rating": null, "reviews": 0, "place_id": "ChIJNaNmO6Kk0ocRs2XeNXqmkI8", "latitude": 34.746368, "longitude": -92.320488, "care_type": "OB-GYN"}, {"name": "J. Afton Cooper, MD", "address": "5 St Vincent Cir Suite 300, Little Rock, AR 72205", "city": "Little Rock", "phone": "+1 501-552-8800", "website": "https://www.chistvincent.com/hospitals-locations/clinics/chi-st.-vincent-urogynecology-clinic", "rating": 5.0, "reviews": 7, "place_id": "ChIJDcLhsYpnZIgRu1j7XWlpSyI", "latitude": 34.75151, "longitude": -92.33703589999999, "care_type": "OB-GYN"}, {"name": "Garner William L MD", "address": "9500 Kanis Rd Ste 200, Little Rock, AR 72205", "city": "Little Rock", "phone": "+1 501-224-6699", "website": "", "rating": 3.7, "reviews": 3, "place_id": "ChIJsSleBAOk0ocRNqRi_EAJT_o", "latitude": 34.7438078, "longitude": -92.38013959999999, "care_type": "OB-GYN"}, {"name": "Serenity Health Center For Women", "address": "500 S University Ave #316, Little Rock, AR 72205", "city": "Little Rock", "phone": "+1 501-320-1101", "website": "", "rating": null, "reviews": 0, "place_id": "ChIJZX3aJH6k0ocR1G81Jr7q7a4", "latitude": 34.7476129, "longitude": -92.3428198, "care_type": "OB-GYN"}, {"name": "Dr. Siamak Shahriari", "address": "4301 W Markham St, Little Rock, AR 72205", "city": "Little Rock", "phone": "+1 501-686-8000", "website": "", "rating": null, "reviews": 0, "place_id": "ChIJq6qaUKCk0ocRUAstvrCEYsE", "latitude": 34.7499553, "longitude": -92.32012089999999, "care_type": "OB-GYN"}, {"name": "UAMS Health - William W. \"Sam\" Greenfield, M.D. - UAMS Medical Center", "address": "UAMS Medical Ctr, 4301 W Markham St, Little Rock, AR 72205", "city": "Little Rock", "phone": "+1 501-686-8000", "website": "https://uamshealth.com/provider/william-w-greenfield/%3Futm_source%3Dgoogle%26utm_medium%3Dgmb%26utm_campaign%3Dclinical%26utm_term%3Dprovider%26utm_content%3Dprofile%26utm_specs%3Dwilliam-w-greenfield_uams-medical-center", "rating": 4.3, "reviews": 3, "place_id": "ChIJ7x7BPQal0ocRpgC_mx2TDdA", "latitude": 34.7484267, "longitude": -92.3204908, "care_type": "OB-GYN"}, {"name": "Dr. Michael V. Smith, MD", "address": "5800 W 10th St, Little Rock, AR 72204", "city": "Little Rock", "phone": "+1 501-296-1800", "website": "https://uamshealth.com/provider/michael-v-smith/", "rating": null, "reviews": 0, "place_id": "ChIJ8-G6eIak0ocRBkvn2lrBWsY", "latitude": 34.7440532, "longitude": -92.3389462, "care_type": "OB-GYN"}, {"name": "Jennifer Duroy, DO", "address": "3201 Springhill Dr Suite 130, North Little Rock, AR 72117", "city": "North Little Rock", "phone": "+1 501-955-2741", "website": "", "rating": 4.0, "reviews": 5, "place_id": "ChIJEUkKjtq_0ocRAe3TkfAkHaQ", "latitude": 34.7824235, "longitude": -92.2189708, "care_type": "OB-GYN"}, {"name": "UAMS Health - Michael V. Smith, M.D. - Women's Center", "address": "Midtown Medical Park Women's Center, 6119 Midtown Ave, Little Rock, AR 72205", "city": "Little Rock", "phone": "+1 501-296-1800", "website": "https://uamshealth.com/provider/michael-v-smith/%3Futm_source%3Dgoogle%26utm_medium%3Dgmb%26utm_campaign%3Dclinical%26utm_term%3Dprovider%26utm_content%3Dprofile%26utm_specs%3Dmichael-v-smith_womens-center", "rating": null, "reviews": 0, "place_id": "ChIJzZ6Jr3Sl0ocRzfOyleYz-eU", "latitude": 34.7478406, "longitude": -92.3452413, "care_type": "OB-GYN"}, {"name": "Revive Lifestyle Medicine", "address": "8114 Cantrell Rd Suite 201, Little Rock, AR 72227", "city": "Little Rock", "phone": "+1 501-779-8554", "website": "http://www.revivelifestylemedicine.com/", "rating": 4.8, "reviews": 0, "place_id": "ChIJUaYNecGj0ocR9nt3yh0U2Tk", "latitude": 34.7773149, "longitude": -92.3645887, "care_type": "OB-GYN"}, {"name": "Dr. Joseph Ivy", "address": "8901 Carti Way, Little Rock, AR 72205", "city": "Little Rock", "phone": "+1 479-587-1700", "website": "https://highlandsoncology.com/our-providers/joseph-j-ivy-md/", "rating": null, "reviews": 0, "place_id": "ChIJfT4NwA6k0ocRVicb_VTRV1Q", "latitude": 34.7443333, "longitude": -92.3678213, "care_type": "OB-GYN"}, {"name": "Bryan Fuller", "address": "4509 McCain Blvd, North Little Rock, AR 72117", "city": "North Little Rock", "phone": "", "website": "", "rating": 5.0, "reviews": 1, "place_id": "ChIJ__9PgY--0ocRsE5Y7Nkke_A", "latitude": 34.7896317, "longitude": -92.21356, "care_type": "OB-GYN"}, {"name": "Dajani Nafisa K MD", "address": "3915 W 8th St, Little Rock, AR 72204", "city": "Little Rock", "phone": "+1 501-526-7425", "website": "", "rating": null, "reviews": 0, "place_id": "ChIJufFafKSk0ocRnNWCUD6Mf-o", "latitude": 34.7435844, "longitude": -92.31707399999999, "care_type": "OB-GYN"}, {"name": "Jeni Warrior, APRN", "address": "3201 Springhill Dr Suite 130, North Little Rock, AR 72117", "city": "North Little Rock", "phone": "+1 501-955-2741", "website": "https://www.baptist-health.org/find-care/provider/jeni-a-warrior-aprn", "rating": null, "reviews": 0, "place_id": "ChIJWX-kJ_q_0ocR0NXnwpuE_RM", "latitude": 34.782503, "longitude": -92.21907999999999, "care_type": "OB-GYN"}, {"name": "Lydia Williams, APRN", "address": "3201 Springhill Dr Suite 130, North Little Rock, AR 72117", "city": "North Little Rock", "phone": "+1 501-955-2741", "website": "https://www.baptist-health.org/find-care/provider/lydia-faye-williams-aprn", "rating": null, "reviews": 0, "place_id": "ChIJK6_KKw-_0ocRUtMspysT-cA", "latitude": 34.7824235, "longitude": -92.2189708, "care_type": "OB-GYN"}, {"name": "Greenfield William W MD", "address": "5800 W 10th St #705, Little Rock, AR 72204", "city": "Little Rock", "phone": "+1 501-296-1800", "website": "", "rating": null, "reviews": 0, "place_id": "ChIJ8-G6eIak0ocR1zVqMO0_U4Q", "latitude": 34.7440532, "longitude": -92.3389462, "care_type": "OB-GYN"}, {"name": "Katrina R. Davis, M.D.", "address": "5800 W 10th St #705, Little Rock, AR 72204", "city": "Little Rock", "phone": "+1 501-296-1800", "website": "", "rating": null, "reviews": 0, "place_id": "ChIJ8-G6eIak0ocR1tqXO90_rLc", "latitude": 34.744192, "longitude": -92.3388615, "care_type": "OB-GYN"}, {"name": "UAMS Health - Renee P. McGraw, M.D. - UAMS Medical Center", "address": "UAMS Medical Ctr, 4301 W Markham St, Little Rock, AR 72205", "city": "Little Rock", "phone": "+1 501-686-8000", "website": "https://uamshealth.com/provider/renee-p-mcgraw/%3Futm_source%3Dgoogle%26utm_medium%3Dgmb%26utm_campaign%3Dclinical%26utm_term%3Dprovider%26utm_content%3Dprofile%26utm_specs%3Drenee-p-mcgraw_uams-medical-center", "rating": null, "reviews": 0, "place_id": "ChIJzTY5DVql0ocReK7qDO0YZV4", "latitude": 34.7493136, "longitude": -92.3205302, "care_type": "OB-GYN"}, {"name": "UAMS Health - Joseph S. Fixler, M.D. - UAMS Medical Center Hospital", "address": "UAMS Medical Ctr, UAMS Medical Center Hospital, 4301 W Markham St, Little Rock, AR 72205", "city": "Little Rock", "phone": "+1 501-686-8000", "website": "https://uamshealth.com/provider/joseph-s-fixler/%3Futm_source%3Dgoogle%26utm_medium%3Dgmb%26utm_campaign%3Dclinical%26utm_term%3Dprovider%26utm_content%3Dprofile%26utm_specs%3Djoseph-s-fixler_uams-medical-center", "rating": null, "reviews": 0, "place_id": "ChIJ9cjEVn2l0ocRmT9Fd0EEDd0", "latitude": 34.7482716, "longitude": -92.3214527, "care_type": "OB-GYN"}, {"name": "Lowery Curt MD", "address": "4301 W Markham St # 518, Little Rock, AR 72205", "city": "Little Rock", "phone": "+1 501-686-5000", "website": "", "rating": null, "reviews": 0, "place_id": "ChIJ-ShahaGk0ocRFMr2ZbyhVDk", "latitude": 34.7499714, "longitude": -92.321546, "care_type": "OB-GYN"}, {"name": "Dr. Ann W. Maners, MD", "address": "4 St Vincent Cir, Little Rock, AR 72205", "city": "Little Rock", "phone": "+1 501-664-8573", "website": "", "rating": null, "reviews": 0, "place_id": "ChIJ0_xEiICk0ocRaRkQYNCBSJQ", "latitude": 34.7515308, "longitude": -92.33707059999999, "care_type": "OB-GYN"}, {"name": "Shanna Rahmaan, APRN", "address": "3500 Springhill Dr, North Little Rock, AR 72117", "city": "North Little Rock", "phone": "+1 501-441-8000", "website": "https://www.baptist-health.com/find-care/provider/shanna-rahmaan-aprn", "rating": null, "reviews": 0, "place_id": "ChIJWUXT6TK_0ocRJOTk1-jXIHI", "latitude": 34.7870244, "longitude": -92.2194009, "care_type": "OB-GYN"}, {"name": "ReGynerate by Moore Surgical Arts & Gynecology", "address": "8201 Cantrell Rd #300, Little Rock, AR 72227", "city": "Little Rock", "phone": "+1 501-200-1505", "website": "", "rating": null, "reviews": 0, "place_id": "ChIJUZIEzLWj0ocRdJtVJy_WhO4", "latitude": 34.776279, "longitude": -92.36581059999999, "care_type": "OB-GYN"}, {"name": "UAMS Health - Dayna D. Whitcombe, M.D. - UAMS Medical Center", "address": "UAMS Medical Center, 4301 W Markham St, Little Rock, AR 72205", "city": "Little Rock", "phone": "+1 501-686-8000", "website": "https://uamshealth.com/provider/dayna-d-whitcombe/%3Futm_source%3Dgoogle%26utm_medium%3Dgmb%26utm_campaign%3Dclinical%26utm_term%3Dprovider%26utm_content%3Dprofile%26utm_specs%3Ddayna-d-whitcombe_uams-medical-center", "rating": null, "reviews": 0, "place_id": "ChIJ76oaywml0ocRxVAV6Cro8wM", "latitude": 34.7482716, "longitude": -92.3214527, "care_type": "OB-GYN"}, {"name": "Taylor Ken M MD", "address": "500 S University Ave # 414, Little Rock, AR 72205", "city": "Little Rock", "phone": "+1 501-663-8400", "website": "", "rating": null, "reviews": 0, "place_id": "ChIJZX3aJH6k0ocR5BcZNPJ8-qM", "latitude": 34.74763799999999, "longitude": -92.34269839999999, "care_type": "OB-GYN"}, {"name": "Henry Charles J MD", "address": "1817 Shadow Ln, Little Rock, AR 72207", "city": "Little Rock", "phone": "+1 501-664-4807", "website": "", "rating": null, "reviews": 0, "place_id": "ChIJMVIdfmmj0ocREqVtyKs90a0", "latitude": 34.7685645, "longitude": -92.3249548, "care_type": "OB-GYN"}, {"name": "Hutchins David H MD", "address": "5800 W 10th St #705, Little Rock, AR 72204", "city": "Little Rock", "phone": "+1 501-296-1800", "website": "", "rating": null, "reviews": 0, "place_id": "ChIJ8-G6eIak0ocRHbp6zyAm3Po", "latitude": 34.7440532, "longitude": -92.3389462, "care_type": "OB-GYN"}, {"name": "UAMS Health - Dayna D. Whitcombe, M.D. - Women's Center", "address": "Midtown Medical Park Women's Center, 6119 Midtown Ave, Little Rock, AR 72205", "city": "Little Rock", "phone": "+1 501-296-1800", "website": "https://uamshealth.com/provider/dayna-d-whitcombe/%3Futm_source%3Dgoogle%26utm_medium%3Dgmb%26utm_campaign%3Dclinical%26utm_term%3Dprovider%26utm_content%3Dprofile%26utm_specs%3Ddayna-d-whitcombe_womens-center", "rating": null, "reviews": 0, "place_id": "ChIJNcC70Pml0ocRJj4o3TFUBHI", "latitude": 34.7477596, "longitude": -92.3450388, "care_type": "OB-GYN"}, {"name": "Dr. Orman W. Simmons, MD", "address": "1 Lile Ct, Little Rock, AR 72205", "city": "Little Rock", "phone": "+1 501-224-5500", "website": "http://www.pathlabsofark.com/", "rating": null, "reviews": 0, "place_id": "ChIJB6QOYQGk0ocRpBd1liiEn5c", "latitude": 34.745565, "longitude": -92.3785485, "care_type": "OB-GYN"}, {"name": "Riddell Carl M MD", "address": "4815 W Markham St # 16, Little Rock, AR 72205", "city": "Little Rock", "phone": "+1 501-661-2000", "website": "http://www.healthy.arkansas.gov/", "rating": null, "reviews": 0, "place_id": "ChIJkevjHJ6k0ocRA0_Q3W2XnZM", "latitude": 34.75167709999999, "longitude": -92.3263812, "care_type": "OB-GYN"}, {"name": "UAMS Health - Nafisa K. Dajani, M.D. - Women's Center", "address": "Midtown Medical Park Women's Center, 6119 Midtown Ave, Little Rock, AR 72205", "city": "Little Rock", "phone": "+1 501-296-1800", "website": "https://uamshealth.com/provider/nafisa-k-dajani/%3Futm_source%3Dgoogle%26utm_medium%3Dgmb%26utm_campaign%3Dclinical%26utm_term%3Dprovider%26utm_content%3Dprofile%26utm_specs%3Dnafisa-k-dajani_womens-center", "rating": null, "reviews": 0, "place_id": "ChIJ_QFvmzml0ocRU4fTuFkGHeo", "latitude": 34.7478406, "longitude": -92.3452413, "care_type": "OB-GYN"}, {"name": "UAMS Health - Joel R. Dickens, M.D. - Women's Center", "address": "Midtown Medical Park Women's Center, 6119 Midtown Ave, Little Rock, AR 72205", "city": "Little Rock", "phone": "+1 501-296-1800", "website": "https://uamshealth.com/provider/joel-r-dickens/%3Futm_source%3Dgoogle%26utm_medium%3Dgmb%26utm_campaign%3Dclinical%26utm_term%3Dprovider%26utm_content%3Dprofile%26utm_specs%3Djoel-r-dickens_womens-center", "rating": null, "reviews": 0, "place_id": "ChIJKwyw7n6k0ocRV24Ce3t5p5k", "latitude": 34.7477596, "longitude": -92.3450388, "care_type": "OB-GYN"}, {"name": "UAMS Health - Everett F. \"Pat\" Magann, M.D. - Women's Center", "address": "Midtown Medical Park Women's Center, 6119 Midtown Ave, Little Rock, AR 72205", "city": "Little Rock", "phone": "+1 501-296-1800", "website": "https://uamshealth.com/provider/everett-f-magann/%3Futm_source%3Dgoogle%26utm_medium%3Dgmb%26utm_campaign%3Dclinical%26utm_term%3Dprovider%26utm_content%3Dprofile%26utm_specs%3Deverett-f-magann_womens-center", "rating": null, "reviews": 0, "place_id": "ChIJSwNf0Wel0ocRQaqOK8SRuhY", "latitude": 34.7478406, "longitude": -92.3452413, "care_type": "OB-GYN"}, {"name": "UAMS Health - Laura L. Hollenbach, M.D. - Women's Center", "address": "Midtown Medical Park Women's Center, 6119 Midtown Ave, Little Rock, AR 72205", "city": "Little Rock", "phone": "+1 501-296-1800", "website": "https://uamshealth.com/provider/laura-l-hollenbach/%3Futm_source%3Dgoogle%26utm_medium%3Dgmb%26utm_campaign%3Dclinical%26utm_term%3Dprovider%26utm_content%3Dprofile%26utm_specs%3Dlaura-l-hollenbach_womens-center", "rating": null, "reviews": 0, "place_id": "ChIJE5KV1_Kl0ocRlAuuHkAKkOg", "latitude": 34.7478406, "longitude": -92.3452413, "care_type": "OB-GYN"}, {"name": "UAMS Health - Joseph S. Fixler, M.D. - Women's Center", "address": "Midtown Medical Park Women's Center, 6119 Midtown Ave, Little Rock, AR 72205", "city": "Little Rock", "phone": "+1 501-296-1800", "website": "https://uamshealth.com/provider/joseph-s-fixler/%3Futm_source%3Dgoogle%26utm_medium%3Dgmb%26utm_campaign%3Dclinical%26utm_term%3Dprovider%26utm_content%3Dprofile%26utm_specs%3Djoseph-s-fixler_womens-center", "rating": null, "reviews": 0, "place_id": "ChIJud8aXkSl0ocRsvydAyCvp5g", "latitude": 34.7477596, "longitude": -92.3450388, "care_type": "OB-GYN"}, {"name": "UAMS Health - Monique A. Spillman, M.D., Ph.D. - Infusion Center B", "address": "UAMS Winthrop P. Rockefeller Cancer Institute Infusion Center, 449 Jack Stephens Dr B, Little Rock, AR 72205", "city": "Little Rock", "phone": "+1 501-296-1200", "website": "https://uamshealth.com/provider/monique-a-spillman/%3Futm_source%3Dgoogle%26utm_medium%3Dgmb%26utm_campaign%3Dclinical%26utm_term%3Dprovider%26utm_content%3Dprofile%26utm_specs%3Dmonique-a-spillman_infusion-center-b", "rating": null, "reviews": 0, "place_id": "ChIJpx8b4wql0ocRnqdXDr3rxAE", "latitude": 34.7486324, "longitude": -92.3189884, "care_type": "OB-GYN"}, {"name": "UAMS Health - Lindsey B. Sward, M.D. - Women's Center", "address": "Midtown Medical Park Women's Center, 6119 Midtown Ave, Little Rock, AR 72205", "city": "Little Rock", "phone": "+1 501-296-1800", "website": "https://uamshealth.com/provider/lindsey-b-sward/%3Futm_source%3Dgoogle%26utm_medium%3Dgmb%26utm_campaign%3Dclinical%26utm_term%3Dprovider%26utm_content%3Dprofile%26utm_specs%3Dlindsey-b-sward_womens-center", "rating": null, "reviews": 0, "place_id": "ChIJU6fQp9al0ocRbQQqyjYgFEA", "latitude": 34.7478406, "longitude": -92.3452413, "care_type": "OB-GYN"}, {"name": "UAMS Health - Mary Luann Racher, M.D. - UAMS Medical Center", "address": "UAMS Medical Ctr, 4301 W Markham St, Little Rock, AR 72205", "city": "Little Rock", "phone": "+1 501-686-8000", "website": "https://uamshealth.com/provider/mary-luann-racher/%3Futm_source%3Dgoogle%26utm_medium%3Dgmb%26utm_campaign%3Dclinical%26utm_term%3Dprovider%26utm_content%3Dprofile%26utm_specs%3Dmary-luann-racher_uams-medical-center", "rating": null, "reviews": 0, "place_id": "ChIJlQnYrVyl0ocRBXwwZ2eVcvQ", "latitude": 34.7493136, "longitude": -92.3205302, "care_type": "OB-GYN"}, {"name": "Hitt Wilbur C MD", "address": "4301 W Markham St # 518, Little Rock, AR 72205", "city": "Little Rock", "phone": "+1 501-296-1800", "website": "", "rating": null, "reviews": 0, "place_id": "ChIJ-ShahaGk0ocR72NCYQqI4Rw", "latitude": 34.7495736, "longitude": -92.3220467, "care_type": "OB-GYN"}, {"name": "Smith Douglas B MD", "address": "1 Lile Ct Ste 200, Little Rock, AR 72205", "city": "Little Rock", "phone": "+1 501-224-5500", "website": "http://www.pathlabsofark.com/", "rating": null, "reviews": 0, "place_id": "ChIJB6QOYQGk0ocRtW33LK4HZzk", "latitude": 34.7455791, "longitude": -92.3785698, "care_type": "OB-GYN"}, {"name": "Johnson D Richard MD", "address": "500 S University Ave, Little Rock, AR 72205", "city": "Little Rock", "phone": "", "website": "", "rating": null, "reviews": 0, "place_id": "ChIJZX3aJH6k0ocR9MFYp9mLnck", "latitude": 34.7475855, "longitude": -92.34258059999999, "care_type": "OB-GYN"}, {"name": "UAMS Health - Morgan M. Knight, M.D. - UAMS Medical Center", "address": "UAMS Medical Center, 4301 W Markham St, Little Rock, AR 72205", "city": "Little Rock", "phone": "+1 501-686-8000", "website": "https://uamshealth.com/provider/morgan-m-knight/%3Futm_source%3Dgoogle%26utm_medium%3Dgmb%26utm_campaign%3Dclinical%26utm_term%3Dprovider%26utm_content%3Dprofile%26utm_specs%3Dmorgan-m-knight_uams-medical-center", "rating": null, "reviews": 0, "place_id": "ChIJGSlU-WWl0ocRUhJOkdcd0TI", "latitude": 34.7482716, "longitude": -92.3214527, "care_type": "OB-GYN"}, {"name": "UAMS Health - Joel R. Dickens, M.D. - UAMS Medical Center Hospital", "address": "UAMS Medical Center, UAMS Medical Center Hospital, 4301 W Markham St, Little Rock, AR 72205", "city": "Little Rock", "phone": "+1 501-686-8000", "website": "https://uamshealth.com/provider/joel-r-dickens/%3Futm_source%3Dgoogle%26utm_medium%3Dgmb%26utm_campaign%3Dclinical%26utm_term%3Dprovider%26utm_content%3Dprofile%26utm_specs%3Djoel-r-dickens_uams-medical-center", "rating": null, "reviews": 0, "place_id": "ChIJVVVVuKGk0ocRHA9aBB3hqrQ", "latitude": 34.7482833, "longitude": -92.3214521, "care_type": "OB-GYN"}, {"name": "UAMS Health - Laura L. Hollenbach, M.D. - UAMS Medical Center", "address": "UAMS Medical Ctr, 4301 W Markham St, Little Rock, AR 72205", "city": "Little Rock", "phone": "+1 501-686-8000", "website": "https://uamshealth.com/provider/laura-l-hollenbach/%3Futm_source%3Dgoogle%26utm_medium%3Dgmb%26utm_campaign%3Dclinical%26utm_term%3Dprovider%26utm_content%3Dprofile%26utm_specs%3Dlaura-l-hollenbach_uams-medical-center", "rating": null, "reviews": 0, "place_id": "ChIJB9zf9Lml0ocRNkNd_g3uC94", "latitude": 34.7493136, "longitude": -92.3205302, "care_type": "OB-GYN"}, {"name": "Mrs. Jill Jennings", "address": "9601 Baptist Health Dr #1200, Little Rock, AR 72205", "city": "Little Rock", "phone": "+1 501-222-4175", "website": "", "rating": null, "reviews": 0, "place_id": "ChIJ7xSEBwKk0ocRMz96PwYp8zM", "latitude": 34.7448261, "longitude": -92.38133839999999, "care_type": "OB-GYN"}, {"name": "UAMS Health - Everett F. \"Pat\" Magann, M.D. - UAMS Medical Center", "address": "UAMS Medical Ctr, 4301 W Markham St, Little Rock, AR 72205", "city": "Little Rock", "phone": "+1 501-686-5251", "website": "", "rating": null, "reviews": 0, "place_id": "ChIJ-ShahaGk0ocR39_YzQhgHt4", "latitude": 34.7484328, "longitude": -92.3207757, "care_type": "OB-GYN"}, {"name": "UAMS Health - Adam T. Sandlin, M.D. - UAMS Medical Center", "address": "UAMS Medical Center, 4301 W Markham St, Little Rock, AR 72205", "city": "Little Rock", "phone": "+1 501-686-8000", "website": "https://uamshealth.com/provider/adam-t-sandlin/%3Futm_source%3Dgoogle%26utm_medium%3Dgmb%26utm_campaign%3Dclinical%26utm_term%3Dprovider%26utm_content%3Dprofile%26utm_specs%3Dadam-t-sandlin_uams-medical-center", "rating": null, "reviews": 0, "place_id": "ChIJoa45JqCk0ocRgEzO-xisbaY", "latitude": 34.7493516, "longitude": -92.3207066, "care_type": "OB-GYN"}, {"name": "Dr. Valerie D. Mcnee, MD", "address": "3343 Springhill Dr, North Little Rock, AR 72117", "city": "North Little Rock", "phone": "+1 501-758-5133", "website": "http://www.chistvincent.com/", "rating": null, "reviews": 0, "place_id": "ChIJp0L0jZu-0ocR_P-qDW8mjt0", "latitude": 34.7848798, "longitude": -92.2204491, "care_type": "OB-GYN"}, {"name": "Galdamez Amy B MD", "address": "4301 W Markham St # 518, Little Rock, AR 72205", "city": "Little Rock", "phone": "+1 501-686-5610", "website": "", "rating": null, "reviews": 0, "place_id": "ChIJoa45JqCk0ocRtaOQzl3oPug", "latitude": 34.7500376, "longitude": -92.3219615, "care_type": "OB-GYN"}, {"name": "Gregory Jennifer MD", "address": "9500 Kanis Rd Ste 200, Little Rock, AR 72205", "city": "Little Rock", "phone": "+1 501-221-9700", "website": "", "rating": 3.0, "reviews": 12, "place_id": "ChIJ78JS9wGk0ocRtBF0OE4HxJY", "latitude": 34.7440271, "longitude": -92.38071289999999, "care_type": "OB-GYN"}, {"name": "Krulin Gregory S MD", "address": "1 St Vincent Cir, Little Rock, AR 72205", "city": "Little Rock", "phone": "+1 501-664-1400", "website": "", "rating": null, "reviews": 0, "place_id": "ChIJ0_xEiICk0ocRG7j9MY7WM2Q", "latitude": 34.7485277, "longitude": -92.3415455, "care_type": "OB-GYN"}, {"name": "Mercy Clinic OB/GYN - Eastside Rogers Avenue", "address": "7001 Rogers Ave #502, Fort Smith, AR 72903", "city": "Fort Smith", "phone": "+1 479-484-5901", "website": "https://www.mercy.net/practice/mercy-clinic-obgyn-eastside-rogers-avenue%3Futm_source%3Dgoogle%26utm_medium%3Dorganic_search%26utm_campaign%3Dyext%26utm_term%3D%26utm_content%3Dwebsite%26y_source%3D1_MTA1MDgyMDk4Ni03MTUtbG9jYXRpb24ud2Vic2l0ZQ%253D%253D", "rating": 3.5, "reviews": 92, "place_id": "ChIJwzJTWVWyy4cRC_jBWDV-LgU", "latitude": 35.3557908, "longitude": -94.35434339999999, "care_type": "OB-GYN"}, {"name": "Mercy Clinic OB/GYN - 7001 Rogers Avenue Suite 403", "address": "7001 Rogers Ave Suite 403, Fort Smith, AR 72903", "city": "Fort Smith", "phone": "+1 479-785-2229", "website": "https://www.mercy.net/practice/mercy-clinic-obgyn-7001-rogers-avenue-suite-403%3Futm_source%3Dgoogle%26utm_medium%3Dorganic_search%26utm_campaign%3Dyext%26utm_term%3DCentral%26utm_content%3Dwebsite%26y_source%3D1_MTI5OTY0MjctNzE1LWxvY2F0aW9uLndlYnNpdGU%253D", "rating": 2.8, "reviews": 29, "place_id": "ChIJdVh-AVayy4cRcHZfMLvwbvY", "latitude": 35.3557815, "longitude": -94.3544082, "care_type": "OB-GYN"}, {"name": "JeanMarie Householder, MD", "address": "7001 Rogers Ave #502, Fort Smith, AR 72903", "city": "Fort Smith", "phone": "+1 479-484-5901", "website": "https://www.eastsideobgynftsmith.com/", "rating": 3.5, "reviews": 77, "place_id": "ChIJUVKSz8FMyocRBYsIKq-Jd40", "latitude": 35.3556749, "longitude": -94.3545556, "care_type": "OB-GYN"}, {"name": "Women's Center for Health and Wellness", "address": "3000 Rogers Ave, Fort Smith, AR 72901", "city": "Fort Smith", "phone": "+1 479-459-6528", "website": "https://www.wchwfs.com/", "rating": 4.2, "reviews": 80, "place_id": "ChIJ09IPvtGzy4cRiGli4m5LEXQ", "latitude": 35.3743188, "longitude": -94.39989969999999, "care_type": "OB-GYN"}, {"name": "Brock Dupree Wilson, DO", "address": "7001 Rogers Ave Suite 403, Fort Smith, AR 72903", "city": "Fort Smith", "phone": "+1 479-785-2229", "website": "https://www.mercy.net/doctor/brock-dupree-wilson-do%3Futm_source%3Dgoogle%26utm_medium%3Dorganic_search%26utm_campaign%3Dyext%26utm_term%3DCentral%26utm_content%3Dwebsite%26y_source%3D1_MTMwMDAxNDItNzE1LWxvY2F0aW9uLndlYnNpdGU%253D", "rating": 4.2, "reviews": 21, "place_id": "ChIJjYt_F4Szy4cRInSdnhKv9GM", "latitude": 35.3555436, "longitude": -94.3559059, "care_type": "OB-GYN"}, {"name": "Lukasek Donna DO", "address": "1500 Dodson Ave Ste. 230, Fort Smith, AR 72901", "city": "Fort Smith", "phone": "+1 479-709-7490", "website": "", "rating": 4.0, "reviews": 11, "place_id": "ChIJUVKSz8FMyocRkQEHfkBk3no", "latitude": 35.3714897, "longitude": -94.4174264, "care_type": "OB-GYN"}, {"name": "Laws Casey Do", "address": "7001 Rogers Ave #502, Fort Smith, AR 72903", "city": "Fort Smith", "phone": "+1 479-484-5901", "website": "http://www.eastsideobgynftsmith.com/", "rating": 4.6, "reviews": 5, "place_id": "ChIJocyvFgCzy4cRYZ3fDi6Tvkc", "latitude": 35.35703549999999, "longitude": -94.3575068, "care_type": "OB-GYN"}, {"name": "Muylaert Michel MD", "address": "7001 Rogers Ave #502, Fort Smith, AR 72903", "city": "Fort Smith", "phone": "+1 479-484-5901", "website": "http://www.eastsideobgynftsmith.com/office/meet-the-doctors.aspx", "rating": 5.0, "reviews": 9, "place_id": "ChIJwzJTWVWyy4cRvBrHAwK7bjw", "latitude": 35.35703549999999, "longitude": -94.3575068, "care_type": "OB-GYN"}, {"name": "Mercy Childbirth Center - Fort Smith", "address": "7001 Rogers Ave, Fort Smith, AR 72903", "city": "Fort Smith", "phone": "+1 479-314-6120", "website": "https://www.mercy.net/practice/mercy-childbirth-center-fort-smith%3Futm_source%3Dgoogle%26utm_medium%3Dorganic_search%26utm_campaign%3Dyext%26utm_term%3DCentral%26utm_content%3Dwebsite%26y_source%3D1_MTI5OTY2MzItNzE1LWxvY2F0aW9uLndlYnNpdGU%253D", "rating": 2.7, "reviews": 22, "place_id": "ChIJn8yvFgCzy4cRw4yzPn3mbI8", "latitude": 35.355829, "longitude": -94.354716, "care_type": "OB-GYN"}, {"name": "Thomas R. Wood", "address": "7001 Rogers Ave #502, Fort Smith, AR 72903", "city": "Fort Smith", "phone": "+1 479-484-5901", "website": "https://splinternetmarketing.com/local-pros/arkansas/fort-smith/thomas-r-wood/", "rating": 4.0, "reviews": 12, "place_id": "ChIJwzJTWVWyy4cRhjfSxnGKhIU", "latitude": 35.35703549999999, "longitude": -94.3575068, "care_type": "OB-GYN"}, {"name": "Don R. Phillips, MD", "address": "7001 Rogers Ave Suite 403, Fort Smith, AR 72903", "city": "Fort Smith", "phone": "+1 479-785-2229", "website": "https://www.mercy.net/doctor/don-r-phillips-md%3Futm_source%3Dgoogle%26utm_medium%3Dorganic_search%26utm_campaign%3Dyext%26utm_term%3DCentral%26utm_content%3Dwebsite%26y_source%3D1_MTMwMDAwNjgtNzE1LWxvY2F0aW9uLndlYnNpdGU%253D", "rating": 4.6, "reviews": 18, "place_id": "ChIJrRk4_1izy4cReXAEAU_cvO4", "latitude": 35.3555436, "longitude": -94.3559059, "care_type": "OB-GYN"}, {"name": "Center For Womens Health", "address": "3225 S 70th St, Fort Smith, AR 72903", "city": "Fort Smith", "phone": "+1 479-785-2229", "website": "http://www.mercy.net/", "rating": 5.0, "reviews": 2, "place_id": "ChIJV6eMElayy4cR-NEHI3dwbtI", "latitude": 35.3501831, "longitude": -94.3564327, "care_type": "OB-GYN"}, {"name": "Bell Timothy DO", "address": "7001 Rogers Ave #502, Fort Smith, AR 72903", "city": "Fort Smith", "phone": "+1 479-484-5901", "website": "http://www.eastsideobgynftsmith.com/", "rating": 3.9, "reviews": 16, "place_id": "ChIJwzJTWVWyy4cRoyZOf1oTQ9I", "latitude": 35.3570328, "longitude": -94.35750739999999, "care_type": "OB-GYN"}, {"name": "Dabney Paige Herrold, FNP", "address": "3222 S 70th St, Fort Smith, AR 72903", "city": "Fort Smith", "phone": "+1 479-573-3740", "website": "https://www.mercy.net/doctor/dabney-paige-herrold-fnp%3Futm_source%3Dgoogle%26utm_medium%3Dorganic_search%26utm_campaign%3Dyext%26utm_term%3DCentral%26utm_content%3Dwebsite%26y_source%3D1_MTM0NzU4ODItNzE1LWxvY2F0aW9uLndlYnNpdGU%253D", "rating": 1.8, "reviews": 5, "place_id": "ChIJNc3SWYezy4cRozF2JGSwXxI", "latitude": 35.3502882, "longitude": -94.3562182, "care_type": "OB-GYN"}, {"name": "Kathleen Suzan Street, DO", "address": "7001 Rogers Ave #502, Fort Smith, AR 72903", "city": "Fort Smith", "phone": "+1 479-484-5901", "website": "https://www.mercy.net/doctor/kathleen-suzan-street-do%3Futm_source%3Dgoogle%26utm_medium%3Dorganic_search%26utm_campaign%3Dyext%26utm_term%3D%26utm_content%3Dwebsite%26y_source%3D1_MjAxMTk4NjA1MS03MTUtbG9jYXRpb24ud2Vic2l0ZQ%253D%253D", "rating": 5.0, "reviews": 4, "place_id": "ChIJf82vFgCzy4cR0WC9l5bMd14", "latitude": 35.3570342, "longitude": -94.35750709999999, "care_type": "OB-GYN"}, {"name": "Sparks Obstetrics and Gynecology (Sparks Regional Medical Center)", "address": "1500 Dodson Ave Ste. 230, Fort Smith, AR 72901", "city": "Fort Smith", "phone": "+1 479-709-7490", "website": "", "rating": 1.0, "reviews": 1, "place_id": "ChIJ7Zn8IutMyocRmxXPmdnu1BU", "latitude": 35.3714865, "longitude": -94.4172526, "care_type": "OB-GYN"}, {"name": "Stuart D. Haraway, MD", "address": "3222 S 70th St, Fort Smith, AR 72903", "city": "Fort Smith", "phone": "+1 479-573-3740", "website": "https://www.mercy.net/doctor/stuart-d-haraway-md%3Futm_source%3Dgoogle%26utm_medium%3Dorganic_search%26utm_campaign%3Dyext%26utm_term%3DCentral%26utm_content%3Dwebsite%26y_source%3D1_MTI5OTk5MzctNzE1LWxvY2F0aW9uLndlYnNpdGU%253D", "rating": 4.4, "reviews": 8, "place_id": "ChIJwzJTWVWyy4cR8siKchx3bGw", "latitude": 35.3501514, "longitude": -94.3561916, "care_type": "OB-GYN"}, {"name": "Andrew Balford Riche, MD", "address": "7001 Rogers Ave Suite 403, Fort Smith, AR 72903", "city": "Fort Smith", "phone": "+1 479-785-2229", "website": "https://www.mercy.net/doctor/andrew-balford-riche-md%3Futm_source%3Dgoogle%26utm_medium%3Dorganic_search%26utm_campaign%3Dyext%26utm_term%3DCentral%26utm_content%3Dwebsite%26y_source%3D1_MTI5OTg2MDYtNzE1LWxvY2F0aW9uLndlYnNpdGU%253D", "rating": 3.8, "reviews": 10, "place_id": "ChIJoVbApPezy4cRCPVugDh7IbE", "latitude": 35.3555436, "longitude": -94.3559059, "care_type": "OB-GYN"}, {"name": "Jaimi Chrystene Elliott, MD", "address": "7001 Rogers Ave Suite 403, Fort Smith, AR 72903", "city": "Fort Smith", "phone": "+1 479-785-2229", "website": "https://www.mercy.net/doctor/jaimi-chrystene-elliott-md%3Futm_source%3Dgoogle%26utm_medium%3Dorganic_search%26utm_campaign%3Dyext%26utm_term%3D%26utm_content%3Dwebsite%26y_source%3D1_MjAyMjg4MzA2MS03MTUtbG9jYXRpb24ud2Vic2l0ZQ%253D%253D", "rating": null, "reviews": 0, "place_id": "ChIJs_2xZTazy4cRaU-tJibaEG0", "latitude": 35.3556818, "longitude": -94.3531565, "care_type": "OB-GYN"}, {"name": "Dr. Chad Hill", "address": "7001 Rogers Ave #502, Fort Smith, AR 72903", "city": "Fort Smith", "phone": "+1 479-484-5901", "website": "", "rating": 5.0, "reviews": 1, "place_id": "ChIJf82vFgCzy4cRvRcj0byg4i4", "latitude": 35.3570342, "longitude": -94.35750709999999, "care_type": "OB-GYN"}, {"name": "Dr. Michael E. Marvin, MD", "address": "7001 Rogers Ave, Fort Smith, AR 72903", "city": "Fort Smith", "phone": "+1 479-484-5901", "website": "http://www.eastsideobgynftsmith.com/", "rating": 5.0, "reviews": 2, "place_id": "ChIJwzJTWVWyy4cRfkAhDFrsRJg", "latitude": 35.3551603, "longitude": -94.35615759999999, "care_type": "OB-GYN"}, {"name": "Stephen Frank Lefler, MD", "address": "3222 S 70th St, Fort Smith, AR 72903", "city": "Fort Smith", "phone": "+1 479-573-3740", "website": "https://www.mercy.net/doctor/stephen-frank-lefler-md%3Futm_source%3Dgoogle%26utm_medium%3Dorganic_search%26utm_campaign%3Dyext%26utm_term%3DCentral%26utm_content%3Dwebsite%26y_source%3D1_MTMwMDAwNTQtNzE1LWxvY2F0aW9uLndlYnNpdGU%253D", "rating": 3.1, "reviews": 21, "place_id": "ChIJKfHpkTKzy4cR2jPt9Z9oqPY", "latitude": 35.3502882, "longitude": -94.3562182, "care_type": "OB-GYN"}, {"name": "John David McClanahan, MD", "address": "3222 S 70th St, Fort Smith, AR 72903", "city": "Fort Smith", "phone": "+1 479-573-3740", "website": "https://www.mercy.net/doctor/john-david-mcclanahan-md%3Futm_source%3Dgoogle%26utm_medium%3Dorganic_search%26utm_campaign%3Dyext%26utm_term%3DCentral%26utm_content%3Dwebsite%26y_source%3D1_MTI5OTk3ODUtNzE1LWxvY2F0aW9uLndlYnNpdGU%253D", "rating": 3.8, "reviews": 16, "place_id": "ChIJV6eMElayy4cRsVrTFNZerOI", "latitude": 35.3501514, "longitude": -94.3561916, "care_type": "OB-GYN"}, {"name": "Michael Colgrove, M.D.", "address": "1500 Dodson Ave Ste. 230, Fort Smith, AR 72901", "city": "Fort Smith", "phone": "+1 479-709-7490", "website": "https://www.baptist-health.org/find-care/provider/michael-w-colgrove-md", "rating": 5.0, "reviews": 4, "place_id": "ChIJxypGLClNyocRC4Ppra1S_yo", "latitude": 35.3717123, "longitude": -94.4175245, "care_type": "OB-GYN"}, {"name": "Samantha Sager, APRN", "address": "1500 Dodson Ave Ste. 230, Fort Smith, AR 72901", "city": "Fort Smith", "phone": "+1 479-709-7490", "website": "https://www.baptist-health.com/doctor/samantha-sager-aprn/", "rating": 5.0, "reviews": 1, "place_id": "ChIJ92lXPWlNyocRjYKNUJf0Pgc", "latitude": 35.3717123, "longitude": -94.4175245, "care_type": "OB-GYN"}, {"name": "James Robert Barber III, MD", "address": "7001 Rogers Ave Suite 403, Fort Smith, AR 72903", "city": "Fort Smith", "phone": "+1 479-785-2229", "website": "https://www.mercy.net/doctor/james-robert-barber-iii-md%3Futm_source%3Dgoogle%26utm_medium%3Dorganic_search%26utm_campaign%3Dyext%26utm_term%3D%26utm_content%3Dwebsite%26y_source%3D1_MTAxMjY2MjI1MS03MTUtbG9jYXRpb24ud2Vic2l0ZQ%253D%253D", "rating": 5.0, "reviews": 7, "place_id": "ChIJbSD9x2Wzy4cRR2uiurPIFzU", "latitude": 35.3557013, "longitude": -94.3531981, "care_type": "OB-GYN"}, {"name": "Mark J. Fowler MD", "address": "1500 Dodson Ave Ste. 230, Fort Smith, AR 72901", "city": "Fort Smith", "phone": "+1 479-709-7490", "website": "https://www.baptist-health.com/doctor/mark-j-fowler-md/", "rating": 2.2, "reviews": 14, "place_id": "ChIJ8aScwcFMyocRElXyqf1DTR8", "latitude": 35.3717123, "longitude": -94.4175245, "care_type": "OB-GYN"}, {"name": "Dr. Norma S. Basinger, MD", "address": "2713 S 74th St #204, Fort Smith, AR 72903", "city": "Fort Smith", "phone": "+1 479-484-7100", "website": "", "rating": 4.2, "reviews": 5, "place_id": "ChIJtdugpayzy4cRzD0aX8c_btM", "latitude": 35.3560369, "longitude": -94.3500703, "care_type": "OB-GYN"}, {"name": "Elizabeth Ann Bennett, APRN-CNP", "address": "7001 Rogers Ave Suite 403, Fort Smith, AR 72903", "city": "Fort Smith", "phone": "+1 479-785-2229", "website": "https://www.mercy.net/doctor/elizabeth-ann-bennett-aprn-cnp%3Futm_source%3Dgoogle%26utm_medium%3Dorganic_search%26utm_campaign%3Dyext%26utm_term%3D%26utm_content%3Dwebsite%26y_source%3D1_MTAxNTg0MjM4My03MTUtbG9jYXRpb24ud2Vic2l0ZQ%253D%253D", "rating": null, "reviews": 0, "place_id": "ChIJN18fEXqzy4cRvTq8u1TtQxU", "latitude": 35.3554869, "longitude": -94.35312479999999, "care_type": "OB-GYN"}, {"name": "Mrs. Amanda Spahn", "address": "8101 McClure Dr #100, Fort Smith, AR 72916", "city": "Fort Smith", "phone": "+1 479-459-6528", "website": "", "rating": 5.0, "reviews": 2, "place_id": "ChIJPUglNXayy4cRHDwSqyFAPYY", "latitude": 35.3139708, "longitude": -94.3436237, "care_type": "OB-GYN"}, {"name": "Dr. Duane A. Lukasek, DO", "address": "1500 Dodson Ave Suite 180, Fort Smith, AR 72901", "city": "Fort Smith", "phone": "+1 479-573-7870", "website": "", "rating": 3.7, "reviews": 3, "place_id": "ChIJUVKSz8FMyocRC2wKFB9D9VA", "latitude": 35.371796, "longitude": -94.41732619999999, "care_type": "OB-GYN"}, {"name": "Kradel R Paul MD", "address": "6801 Rogers Ave, Fort Smith, AR 72903", "city": "Fort Smith", "phone": "+1 479-274-3400", "website": "", "rating": 5.0, "reviews": 1, "place_id": "ChIJaZ8q5_-yy4cRAECweuwOeaI", "latitude": 35.3569524, "longitude": -94.3576174, "care_type": "OB-GYN"}, {"name": "McKenzie Alexandra Jackson, MD", "address": "7001 Rogers Ave Suite 403, Fort Smith, AR 72903", "city": "Fort Smith", "phone": "+1 479-785-2229", "website": "https://www.mercy.net/doctor/mckenzie-alexandra-jackson-md%3Futm_source%3Dgoogle%26utm_medium%3Dorganic_search%26utm_campaign%3Dyext%26utm_term%3D%26utm_content%3Dwebsite%26y_source%3D1_MjAyNjcwNDY5MC03MTUtbG9jYXRpb24ud2Vic2l0ZQ%253D%253D", "rating": null, "reviews": 0, "place_id": "ChIJPTQfdlSzy4cRDDb1AI2vQh4", "latitude": 35.3556571, "longitude": -94.3531909, "care_type": "OB-GYN"}, {"name": "Mercy Level III Neonatal Intensive Care - Fort Smith", "address": "7001 Rogers Ave, Fort Smith, AR 72903", "city": "Fort Smith", "phone": "+1 479-314-6123", "website": "https://www.mercy.net/practice/mercy-level-iii-neonatal-intensive-care-fort-smith%3Futm_source%3Dgoogle%26utm_medium%3Dorganic_search%26utm_campaign%3Dyext%26utm_term%3DCentral%26utm_content%3Dwebsite%26y_source%3D1_MTI5OTY1OTktNzE1LWxvY2F0aW9uLndlYnNpdGU%253D", "rating": 5.0, "reviews": 1, "place_id": "ChIJcW7gyVSyy4cR25PjPsmpJ50", "latitude": 35.3555144, "longitude": -94.3533016, "care_type": "OB-GYN"}, {"name": "Women's Group: Sexton Margaret L", "address": "1500 Dodson Ave Ste. 230, Fort Smith, AR 72901", "city": "Fort Smith", "phone": "+1 479-709-7490", "website": "http://www.sparksphysicians.com/", "rating": null, "reviews": 0, "place_id": "ChIJUVKSz8FMyocRKxh3dIatQZc", "latitude": 35.3720153, "longitude": -94.41772279999999, "care_type": "OB-GYN"}, {"name": "Rachel Farrell", "address": "7301 Rogers Ave, Fort Smith, AR 72903", "city": "Fort Smith", "phone": "+1 479-314-6000", "website": "", "rating": null, "reviews": 0, "place_id": "ChIJq6o6Mquzy4cRpMAy_ltR7A4", "latitude": 35.3565026, "longitude": -94.3531812, "care_type": "OB-GYN"}, {"name": "Mercy Breast Center - Fort Smith", "address": "7001 Rogers Ave, Fort Smith, AR 72903", "city": "Fort Smith", "phone": "+1 479-314-7855", "website": "https://www.mercy.net/practice/mercy-breast-center-fort-smith%3Futm_source%3Dgoogle%26utm_medium%3Dorganic_search%26utm_campaign%3Dyext%26utm_term%3D%26utm_content%3Dwebsite%26y_source%3D1_MjQxODc1NzItNzE1LWxvY2F0aW9uLndlYnNpdGU%253D", "rating": 4.8, "reviews": 4, "place_id": "ChIJcW7gyVSyy4cR0f3FcWxAbxE", "latitude": 35.3555797, "longitude": -94.3537887, "care_type": "OB-GYN"}, {"name": "Dr. William P. Phillips, MD", "address": "8208 Cleburne Ct, Fort Smith, AR 72903", "city": "Fort Smith", "phone": "+1 479-452-2862", "website": "https://splinternetmarketing.com/local-pros/arkansas/fort-smith/dr-william-p-phillips-md/", "rating": null, "reviews": 0, "place_id": "ChIJJUJr8bOzy4cRx91IisZb9PY", "latitude": 35.3614527, "longitude": -94.3405568, "care_type": "OB-GYN"}, {"name": "Dr. David B. Glover, MD", "address": "7303 Rogers Ave, Fort Smith, AR 72903", "city": "Fort Smith", "phone": "", "website": "https://splinternetmarketing.com/local-pros/arkansas/fort-smith/dr-david-b-glover-md/", "rating": null, "reviews": 0, "place_id": "ChIJa9aB9lSyy4cRPb1u0hVpUcM", "latitude": 35.3553303, "longitude": -94.3530138, "care_type": "OB-GYN"}, {"name": "Karen Kemp-Glock", "address": "7301 Rogers Ave, Fort Smith, AR 72903", "city": "Fort Smith", "phone": "+1 864-908-3530", "website": "", "rating": null, "reviews": 0, "place_id": "ChIJq6o6Mquzy4cRQP23ryCFCms", "latitude": 35.3565026, "longitude": -94.3531812, "care_type": "OB-GYN"}, {"name": "Grimsley Roslyn", "address": "7001 Rogers Ave, Fort Smith, AR 72903", "city": "Fort Smith", "phone": "+1 479-274-5000", "website": "", "rating": null, "reviews": 0, "place_id": "ChIJrdmsXlWyy4cRRV1EJf6MTFk", "latitude": 35.35703549999999, "longitude": -94.35750689999999, "care_type": "OB-GYN"}, {"name": "Dr. Clinton Hutchinson", "address": "7301 Rogers Ave, Fort Smith, AR 72903", "city": "Fort Smith", "phone": "+1 479-314-6000", "website": "", "rating": null, "reviews": 0, "place_id": "ChIJq6o6Mquzy4cRjb8FdjTWRf0", "latitude": 35.3565026, "longitude": -94.3531812, "care_type": "OB-GYN"}, {"name": "Dr. Estelle Rutledge", "address": "7001 Rogers Ave Suite 403, Fort Smith, AR 72903", "city": "Fort Smith", "phone": "+1 479-478-6745", "website": "", "rating": 1.0, "reviews": 1, "place_id": "ChIJa1Wwz1Syy4cRGCQkwtkeNHQ", "latitude": 35.3556571, "longitude": -94.3531909, "care_type": "OB-GYN"}, {"name": "Dr. David Deschamps", "address": "7301 Rogers Ave, Fort Smith, AR 72903", "city": "Fort Smith", "phone": "+1 479-314-6241", "website": "", "rating": null, "reviews": 0, "place_id": "ChIJq6o6Mquzy4cRvj9UOrJy2i8", "latitude": 35.3565026, "longitude": -94.3531812, "care_type": "OB-GYN"}, {"name": "Hoffman John MD", "address": "6801 Rogers Ave, Fort Smith, AR 72903", "city": "Fort Smith", "phone": "+1 479-274-3400", "website": "", "rating": null, "reviews": 0, "place_id": "ChIJaZ8q5_-yy4cRn-8ZzkwBsIs", "latitude": 35.35698259999999, "longitude": -94.3575237, "care_type": "OB-GYN"}, {"name": "Dr. Courtnye A. Walker, MD", "address": "1500 Dodson Ave # 260, Fort Smith, AR 72901", "city": "Fort Smith", "phone": "+1 479-573-7885", "website": "", "rating": null, "reviews": 0, "place_id": "ChIJUVKSz8FMyocRmBq9TYtgFJ0", "latitude": 35.371796, "longitude": -94.41732619999999, "care_type": "OB-GYN"}, {"name": "Dr. Kassandra Payne", "address": "4003 Massard Rd, Fort Smith, AR 72903", "city": "Fort Smith", "phone": "+1 479-434-4747", "website": "https://splinternetmarketing.com/local-pros/arkansas/fort-smith/dr-kassandra-payne/", "rating": 2.6, "reviews": 5, "place_id": "ChIJVVUFikayy4cRttFnzZxu8MA", "latitude": 35.3429195, "longitude": -94.34008759999999, "care_type": "OB-GYN"}, {"name": "Dr. Andrew Riche", "address": "3224 S 70th St, Fort Smith, AR 72903", "city": "Fort Smith", "phone": "+1 479-785-2229", "website": "https://www.mercy.net/doctor/andrew-balford-riche-md/", "rating": null, "reviews": 0, "place_id": "ChIJJ_xqAlayy4cRnRK10_IymhM", "latitude": 35.3501734, "longitude": -94.3564419, "care_type": "OB-GYN"}, {"name": "Reid G Pierce MD", "address": "1609 W 40th Ave suite 300, Pine Bluff, AR 71603", "city": "Pine Bluff", "phone": "+1 870-541-6045", "website": "", "rating": 4.6, "reviews": 21, "place_id": "ChIJUcFFAfs8LYYRDVS9zH_dcc4", "latitude": 34.1896632, "longitude": -92.0189015, "care_type": "OB-GYN"}, {"name": "Boast Cahill Amy MD", "address": "1609 W 40th Ave suite 300, Pine Bluff, AR 71603", "city": "Pine Bluff", "phone": "+1 870-541-6045", "website": "https://www.jrmc.org/find-a-doctor/amy-b-cahill-md-facog/", "rating": 4.1, "reviews": 32, "place_id": "ChIJp_GaGfs8LYYRw5Uo-RLcJVQ", "latitude": 34.1896632, "longitude": -92.0189015, "care_type": "OB-GYN"}, {"name": "Lambert Kenneth J MD", "address": "1609 W 40th Ave suite 300, Pine Bluff, AR 71603", "city": "Pine Bluff", "phone": "+1 870-541-6045", "website": "http://jrmc.org/", "rating": 3.5, "reviews": 8, "place_id": "ChIJp_GaGfs8LYYRdhjm8PHqNO8", "latitude": 34.1896632, "longitude": -92.0189015, "care_type": "OB-GYN"}, {"name": "Healthwise Wellness", "address": "4014 Old Warren Rd, Pine Bluff, AR 71603", "city": "Pine Bluff", "phone": "+1 870-454-4354", "website": "http://www.healthwisewellness.com/", "rating": 4.9, "reviews": 75, "place_id": "ChIJ9ZeDWcU9LYYR3K4hnc7_kzo", "latitude": 34.1879977, "longitude": -92.0378523, "care_type": "OB-GYN"}, {"name": "Tochi Amagwula", "address": "4014 Old Warren Rd, Pine Bluff, AR 71603", "city": "Pine Bluff", "phone": "+1 870-454-4354", "website": "http://www.healthwisewellness.com/", "rating": 5.0, "reviews": 2, "place_id": "ChIJVVVlIfo8LYYR9BK2HnNo5Nk", "latitude": 34.1880122, "longitude": -92.0378351, "care_type": "OB-GYN"}, {"name": "Affinity Healthcare For Women", "address": "1609 W 40th Ave #402, Pine Bluff, AR 71603", "city": "Pine Bluff", "phone": "+1 870-536-7400", "website": "", "rating": 1.7, "reviews": 3, "place_id": "ChIJp_GaGfs8LYYRYc4T77NnvrE", "latitude": 34.1897789, "longitude": -92.01871589999999, "care_type": "OB-GYN"}, {"name": "Genesis Center For Women", "address": "1609 W 40th Ave #204, Pine Bluff, AR 71603", "city": "Pine Bluff", "phone": "+1 870-534-3608", "website": "", "rating": 3.9, "reviews": 7, "place_id": "ChIJp_GaGfs8LYYRQUkLkQtKnn4", "latitude": 34.1897789, "longitude": -92.01871589999999, "care_type": "OB-GYN"}, {"name": "Dr. Girindra Raval, MD", "address": "1600 W 40th Ave, Pine Bluff, AR 71603", "city": "Pine Bluff", "phone": "+1 870-541-8767", "website": "", "rating": null, "reviews": 0, "place_id": "ChIJHWeSJfs8LYYRPOx0g1W2Rig", "latitude": 34.1889597, "longitude": -92.0180638, "care_type": "OB-GYN"}, {"name": "Pierce Ruston Y MD", "address": "1702 W 42nd Ave, Pine Bluff, AR 71603", "city": "Pine Bluff", "phone": "+1 870-535-3443", "website": "", "rating": 5.0, "reviews": 8, "place_id": "ChIJpShZpvw8LYYRhLADgLMp2wk", "latitude": 34.1859943, "longitude": -92.0189989, "care_type": "OB-GYN"}, {"name": "Lifespring Women's Healthcare", "address": "1200 SE 28th St, Bentonville, AR 72712", "city": "Bentonville", "phone": "+1 479-271-0005", "website": "http://www.lifespringhealthcare.com/", "rating": 4.6, "reviews": 576, "place_id": "ChIJ9WMDYWAQyYcRC1U5BT1Jd6U", "latitude": 36.342216, "longitude": -94.1945428, "care_type": "OB-GYN"}, {"name": "Amy Fry, M.D.", "address": "2900 Medical Center Pkwy #380, Bentonville, AR 72712", "city": "Bentonville", "phone": "+1 479-250-4258", "website": "", "rating": 4.7, "reviews": 307, "place_id": "ChIJ9WMDYWAQyYcRAXQKGgHcPhA", "latitude": 36.3410148, "longitude": -94.19052119999999, "care_type": "OB-GYN"}, {"name": "Amy Sarver, MD", "address": "500 SE Plaza Ave, Bentonville, AR 72712", "city": "Bentonville", "phone": "+1 479-876-8111", "website": "http://www.whanwa.com/", "rating": 3.9, "reviews": 40, "place_id": "ChIJ072PsQ4RyYcRW4_hwHGIf7A", "latitude": 36.3333991, "longitude": -94.204488, "care_type": "OB-GYN"}, {"name": "Parkhill The Clinic for Women", "address": "901 SE Plaza Ave Suite 1, Bentonville, AR 72712", "city": "Bentonville", "phone": "+1 479-521-4433", "website": "https://parkhillclinic.com/%3Futm_source%3Dsearch%26utm_medium%3Dgoogle-my-business%26utm_campaign%3Dlocal-listing%26utm_term%3Dwebsite-link%26utm_content%3Dbentonville", "rating": 3.1, "reviews": 43, "place_id": "ChIJTbS5xUQQyYcREf9UlW3Bq5o", "latitude": 36.3342971, "longitude": -94.1995391, "care_type": "OB-GYN"}, {"name": "Lisa A Bearden, MD", "address": "500 SE Plaza Ave, Bentonville, AR 72712", "city": "Bentonville", "phone": "+1 479-876-8111", "website": "http://www.whanwa.com/", "rating": 4.7, "reviews": 33, "place_id": "ChIJy0KAMPUQyYcRSyS6nMK2PQo", "latitude": 36.333436, "longitude": -94.2046438, "care_type": "OB-GYN"}, {"name": "Dr. James T. Hannah, MD", "address": "1200 SE 28th St, Bentonville, AR 72712", "city": "Bentonville", "phone": "+1 479-271-0005", "website": "https://www.lifespringhealthcare.com/", "rating": 3.9, "reviews": 12, "place_id": "ChIJ9WMDYWAQyYcRUTP54p3Cob0", "latitude": 36.3421798, "longitude": -94.1944686, "care_type": "OB-GYN"}, {"name": "Schmitz Lawrence E MD", "address": "1200 SE 28th St #2, Bentonville, AR 72712", "city": "Bentonville", "phone": "+1 479-271-0005", "website": "https://www.lifespringhealthcare.com/", "rating": 4.8, "reviews": 16, "place_id": "ChIJ9WMDYWAQyYcRgGrkGhvNE0Q", "latitude": 36.3421415, "longitude": -94.194481, "care_type": "OB-GYN"}, {"name": "Jennifer A. Schroeder, MD", "address": "1502 SE 28th St Suite 2, Bentonville, AR 72712", "city": "Bentonville", "phone": "+1 479-268-4774", "website": "http://embracedoc.com/", "rating": 3.6, "reviews": 18, "place_id": "ChIJ60dIRQURyYcRWofjFmZIOFA", "latitude": 36.3418036, "longitude": -94.19192319999999, "care_type": "OB-GYN"}, {"name": "Mercy Clinic OB/Gyn - Pinnacle Hills Suite 600", "address": "3333 S Pinnacle Hills Pkwy #600, Rogers, AR 72758", "city": "Rogers", "phone": "+1 479-338-4000", "website": "https://www.mercy.net/practice/mercy-clinic-obgyn-pinnacle-hills-suite-600%3Futm_source%3Dgoogle%26utm_medium%3Dorganic_search%26utm_campaign%3Dyext%26utm_term%3DCentral%26utm_content%3Dwebsite%26y_source%3D1_MTI5OTYxNzUtNzE1LWxvY2F0aW9uLndlYnNpdGU%253D", "rating": 4.0, "reviews": 90, "place_id": "ChIJWVSIsQ4RyYcR2_3etRZSxns", "latitude": 36.3046768, "longitude": -94.1866891, "care_type": "OB-GYN"}, {"name": "Audra Cole", "address": "1200 SE 28th St #2, Bentonville, AR 72712", "city": "Bentonville", "phone": "+1 479-271-0005", "website": "https://www.mercy.net/doctor/audra-lee-cole-do/", "rating": 3.7, "reviews": 6, "place_id": "ChIJVVWVZGAQyYcR3v_DDX6aK7I", "latitude": 36.3421798, "longitude": -94.1944686, "care_type": "OB-GYN"}, {"name": "Kelsey Gilley, APRN, CNM", "address": "2900 Medical Center Pkwy #240a, Bentonville, AR 72712", "city": "Bentonville", "phone": "+1 479-553-3340", "website": "https://www.nw-physicians.com/doctors-providers/gilley-kelsey-aprn-cnm-7009", "rating": 4.7, "reviews": 14, "place_id": "ChIJu1H0oSYRyYcR-_izm4MGD5Y", "latitude": 36.3403374, "longitude": -94.191289, "care_type": "OB-GYN"}, {"name": "Unity Health-Searcy Medical Center-OB/GYN", "address": "2900 Hawkins Dr, Searcy, AR 72143", "city": "Searcy", "phone": "+1 501-278-2800", "website": "https://www.unity-health.org/provider-directory/", "rating": 3.3, "reviews": 3, "place_id": "ChIJSQAYqVGp04cRJDum-HgDRc0", "latitude": 35.252259, "longitude": -91.7036418, "care_type": "OB-GYN"}, {"name": "Dr. William E. Williams, MD", "address": "2900 Hawkins Dr, Searcy, AR 72143", "city": "Searcy", "phone": "+1 501-278-2800", "website": "https://splinternetmarketing.com/local-pros/arkansas/searcy/dr-william-e-williams-md/", "rating": 4.3, "reviews": 11, "place_id": "ChIJYb_UMPeo04cRmUYylv8Aj1Y", "latitude": 35.252337, "longitude": -91.7036571, "care_type": "OB-GYN"}, {"name": "Kyle Citty, M.D.", "address": "2900 Hawkins Dr, Searcy, AR 72143", "city": "Searcy", "phone": "+1 501-278-2800", "website": "https://www.unity-health.org/provider-directory/", "rating": 4.5, "reviews": 15, "place_id": "ChIJ221LM_eo04cRxkc0ogn7qMw", "latitude": 35.252259, "longitude": -91.7036418, "care_type": "OB-GYN"}, {"name": "Kris Citty, M.D.", "address": "2900 Hawkins Dr, Searcy, AR 72143", "city": "Searcy", "phone": "+1 501-278-2800", "website": "https://www.unity-health.org/provider-directory/", "rating": 4.0, "reviews": 25, "place_id": "ChIJY_wnzfCo04cR56B3OYFHBes", "latitude": 35.2523899, "longitude": -91.7035641, "care_type": "OB-GYN"}, {"name": "Clouatre Michael P MD", "address": "5330 Willow Creek Dr, Springdale, AR 72762", "city": "Springdale", "phone": "+1 479-582-9268", "website": "https://stmaps.top/business/clouatre-michael-p-md-lad7k7", "rating": 5.0, "reviews": 461, "place_id": "ChIJsTCij1FsyYcRS6p6DHJbNq0", "latitude": 36.1378235, "longitude": -94.1867996, "care_type": "OB-GYN"}, {"name": "Greg Reiter, D.O., FACOOG", "address": "4301 Greathouse Springs Rd #100, Fayetteville, AR 72704", "city": "Fayetteville", "phone": "+1 479-582-9268", "website": "http://creeksideobgyn.com/", "rating": 5.0, "reviews": 508, "place_id": "ChIJsTCij1FsyYcRH7E6fToe8yU", "latitude": 36.1353994, "longitude": -94.1860974, "care_type": "OB-GYN"}, {"name": "Washington Regional HerHealth Clinic", "address": "3215 N Northhills Blvd B, Fayetteville, AR 72703", "city": "Fayetteville", "phone": "+1 479-463-5500", "website": "http://www.wregional.com/herhealth", "rating": 3.3, "reviews": 189, "place_id": "ChIJH8TdcQZsyYcRbIAEQka3axg", "latitude": 36.10920309999999, "longitude": -94.1595346, "care_type": "OB-GYN"}, {"name": "Kent A Mason, M.D., FACOG", "address": "5330 Willow Creek Dr, Springdale, AR 72762", "city": "Springdale", "phone": "+1 479-582-9268", "website": "", "rating": 5.0, "reviews": 286, "place_id": "ChIJsTCij1FsyYcRmLR58mjnQaQ", "latitude": 36.1378235, "longitude": -94.1867996, "care_type": "OB-GYN"}, {"name": "Renaissance Women's Health, a MANA Clinic", "address": "688 Millsap Rd Ste 101, Fayetteville, AR 72703", "city": "Fayetteville", "phone": "+1 479-582-3366", "website": "http://www.mana.md/clinics/renaissance-womens-healthcare/", "rating": 4.8, "reviews": 553, "place_id": "ChIJ0xBAxK5uyYcRxaEGKJZyen0", "latitude": 36.1150523, "longitude": -94.1478312, "care_type": "OB-GYN"}, {"name": "Anne Bowes, D.O.", "address": "1500 Dodson Ave Ste. 230, Fort Smith, AR 72901", "city": "Fort Smith", "phone": "+1 479-709-7490", "website": "https://www.baptist-health.com/news/baptist-health-womens-clinic-fort-smith-adds-physician", "rating": 5.0, "reviews": 1, "place_id": "ChIJEXMBwQRNyocRaIn1in72Fq8", "latitude": 35.3714092, "longitude": -94.4176907, "care_type": "OB-GYN"}, {"name": "Lisa Skinner Newton, MD", "address": "7001 Rogers Ave Suite 403, Fort Smith, AR 72903", "city": "Fort Smith", "phone": "+1 479-785-2229", "website": "https://www.mercy.net/doctor/lisa-skinner-newton-md%3Futm_source%3Dgoogle%26utm_medium%3Dorganic_search%26utm_campaign%3Dyext%26utm_term%3DCentral%26utm_content%3Dwebsite%26y_source%3D1_MTI5OTk5MTAtNzE1LWxvY2F0aW9uLndlYnNpdGU%253D", "rating": 4.1, "reviews": 9, "place_id": "ChIJb_m3fK-zy4cRlFhQHXtpqf4", "latitude": 35.3555436, "longitude": -94.3559059, "care_type": "OB-GYN"}, {"name": "Erin E. Large, MD", "address": "3215 N Northhills Blvd B, Fayetteville, AR 72703", "city": "Fayetteville", "phone": "+1 479-463-5500", "website": "https://www.wregional.com/main/physician-locator/large-erin-286.aspx", "rating": 5.0, "reviews": 5, "place_id": "ChIJoa8Gys9tyYcRXNTdflVGsxU", "latitude": 36.10920309999999, "longitude": -94.1595346, "care_type": "OB-GYN"}, {"name": "Bethany Morrison, M.D.", "address": "4301 Greathouse Springs Rd #100, Fayetteville, AR 72704", "city": "Fayetteville", "phone": "+1 479-757-1730", "website": "https://www.nw-physicians.com/doctors-providers/morrison-bethany-md-9457%3Futm_source%3Dgmb%26utm_medium%3Dhomepage%26utm_campaign%3Dbiz-listings", "rating": 4.7, "reviews": 93, "place_id": "ChIJzZ6rv7ZtyYcRxKiEbqPyY40", "latitude": 36.1353994, "longitude": -94.1860974, "care_type": "OB-GYN"}, {"name": "Thomas Wood", "address": "8101 McClure Dr #100, Fort Smith, AR 72916", "city": "Fort Smith", "phone": "+1 479-459-6528", "website": "", "rating": 3.0, "reviews": 4, "place_id": "ChIJPUglNXayy4cR11kfK82LBXw", "latitude": 35.3139708, "longitude": -94.3436237, "care_type": "OB-GYN"}, {"name": "Dr. Thomas Bradford", "address": "3000 N Market Ave # Sutie, 3000 N Market Ave # E, Fayetteville, AR 72703", "city": "Fayetteville", "phone": "+1 479-444-1440", "website": "https://accentwomenshealth.com/", "rating": 5.0, "reviews": 5, "place_id": "ChIJVVW5DP1ryYcRjUtFwML3i-A", "latitude": 36.1062669, "longitude": -94.14331949999999, "care_type": "OB-GYN"}, {"name": "Amy L. Scott, M.D.", "address": "3215 N Northhills Blvd B, Fayetteville, AR 72703", "city": "Fayetteville", "phone": "+1 479-463-5500", "website": "https://www.wregional.com/main/physician-locator/scott-amy-6.aspx", "rating": 3.9, "reviews": 10, "place_id": "ChIJd54bXgNsyYcRYagfyfbojpI", "latitude": 36.10920309999999, "longitude": -94.1595346, "care_type": "OB-GYN"}, {"name": "Sarah Russell, DNP, FNP-BC", "address": "5501 Willow Creek Dr # 203, Springdale, AR 72762", "city": "Springdale", "phone": "+1 479-757-5552", "website": "https://www.nw-physicians.com/doctors-providers/russell-sarah-dnp-fnpbc-10001%3Futm_source%3Dgmb%26utm_medium%3Dhomepage%26utm_campaign%3Dbiz-listings", "rating": 4.9, "reviews": 39, "place_id": "ChIJ46XAxD1tyYcR97zy1KlxEHg", "latitude": 36.136626, "longitude": -94.1844473, "care_type": "OB-GYN"}, {"name": "Northwest Ar Ob Gyn Associates", "address": "5330 Willow Creek Dr, Springdale, AR 72762", "city": "Springdale", "phone": "+1 479-582-9268", "website": "", "rating": 5.0, "reviews": 1, "place_id": "ChIJsTCij1FsyYcRG-ksTgEbSwg", "latitude": 36.1378235, "longitude": -94.1867996, "care_type": "OB-GYN"}, {"name": "Candy E. Birch, MD", "address": "3215 N Northhills Blvd B, Fayetteville, AR 72703", "city": "Fayetteville", "phone": "+1 479-463-5500", "website": "https://www.wregional.com/main/physician-locator/birch-candy-33", "rating": 3.9, "reviews": 11, "place_id": "ChIJ3WSEejBtyYcRyHrXCrdA8Ro", "latitude": 36.1098097, "longitude": -94.1607849, "care_type": "OB-GYN"}, {"name": "Mary Pat Hardman, MD", "address": "3215 N Northhills Blvd B, Fayetteville, AR 72703", "city": "Fayetteville", "phone": "+1 479-463-5500", "website": "https://www.wregional.com/main/physician-locator/hardman-mary-175.aspx", "rating": 4.0, "reviews": 12, "place_id": "ChIJH8TdcQZsyYcRO9mcWTDeizg", "latitude": 36.10920309999999, "longitude": -94.1595346, "care_type": "OB-GYN"}, {"name": "Dr. Julian Terry", "address": "3215 N Northhills Blvd #3, Fayetteville, AR 72703", "city": "Fayetteville", "phone": "+1 479-521-4433", "website": "https://parkhillclinic.com/dr-julian-terry/", "rating": 5.0, "reviews": 1, "place_id": "ChIJ7WpTZwNsyYcRzWRt8aJoZtM", "latitude": 36.1093401, "longitude": -94.1603099, "care_type": "OB-GYN"}, {"name": "Washington Regional Maternal Fetal Medicine Clinic", "address": "3215 N Northhills Blvd Ste. B150, Fayetteville, AR 72703", "city": "Fayetteville", "phone": "+1 479-463-2935", "website": "https://www.wregional.com/womens-health/maternal-fetal-medicine", "rating": 3.3, "reviews": 0, "place_id": "ChIJn2pd2IxtyYcRQ6QFUo8kxZo", "latitude": 36.10920309999999, "longitude": -94.1595346, "care_type": "OB-GYN"},