[{"name": "Ob-Gyn Of Fairfield County", "address": "1735 Post Rd, Fairfield, CT 06824", "city": "Fairfield", "phone": "+1 203-256-3990", "website": "http://obgynoffairfieldcounty.com/", "rating": 3.1, "reviews": 44, "place_id": "ChIJ5R-ZJm0Q6IkRvI_eNtmplmU", "latitude": 41.140907, "longitude": -73.26251359999999, "care_type": "OB-GYN"}, {"name": "Women's Health Connecticut", "address": "5000 Main St, Trumbull, CT 06611", "city": "Trumbull", "phone": "+1 203-374-0404", "website": "https://www.womenshealthct.com/", "rating": 4.4, "reviews": 434, "place_id": "ChIJGcmoEdAO6IkR-uh5DBdkoZs", "latitude": 41.2279299, "longitude": -73.2188267, "care_type": "OB-GYN"}, {"name": "Center for Women's Health at Mansfield", "address": "7A Ledgebrook Dr, Mansfield Center, CT 06250", "city": "Mansfield Center", "phone": "+1 860-456-7237", "website": "https://windhamhospital.org/services/womens-health", "rating": 5.0, "reviews": 5, "place_id": "ChIJD7E9TbJj5okR1dkt_dkVLec", "latitude": 41.7336827, "longitude": -72.20428609999999, "care_type": "OB-GYN"}, {"name": "Dr. Eugene Rozenshteyn", "address": "112 Mansfield Ave, Willimantic, CT 06226", "city": "Willimantic", "phone": "+1 860-456-0989", "website": "https://windhamhospital.org/find-a-doctor/physician-detail/EugeneRozenshteyn", "rating": 3.7, "reviews": 6, "place_id": "ChIJk0miFOZj5okRFAnZ5yCHEIo", "latitude": 41.71734319999999, "longitude": -72.2259329, "care_type": "OB-GYN"}, {"name": "Mansfield Ob/Gyn", "address": "21 Ledgebrook Dr, Mansfield Center, CT 06250", "city": "Mansfield Center", "phone": "+1 860-450-7227", "website": "https://www.mansfieldobgyn.com/", "rating": 3.6, "reviews": 65, "place_id": "ChIJ4drQs7Nj5okR8KIpB3SJNXQ", "latitude": 41.73354339999999, "longitude": -72.20526029999999, "care_type": "OB-GYN"}, {"name": "Women\u2019s Health CT Mansfield OB-GYN Associates", "address": "21 Ledgebrook Dr, Mansfield Center, CT 06250", "city": "Mansfield Center", "phone": "+1 860-450-7227", "website": "https://www.womenshealthct.com/mansfield_obgyn_associates", "rating": 3.0, "reviews": 6, "place_id": "ChIJ77cIrehj5okRJtgo4r2QIus", "latitude": 41.73354339999999, "longitude": -72.20526029999999, "care_type": "OB-GYN"}, {"name": "Dr. Veronica J. Helgans, MD", "address": "21 Ledgebrook Dr, Mansfield Center, CT 06250", "city": "Mansfield Center", "phone": "+1 860-450-7227", "website": "http://www.mansfieldobgyn.com/", "rating": 4.9, "reviews": 302, "place_id": "ChIJ4drQs7Nj5okRmkVmc2saAis", "latitude": 41.73354339999999, "longitude": -72.20526029999999, "care_type": "OB-GYN"}, {"name": "Dr. Yvette Martas, MD", "address": "21 Ledgebrook Dr, Mansfield Center, CT 06250", "city": "Mansfield Center", "phone": "+1 860-450-7227", "website": "https://womenshealthct.com/practices/obgyn-and-midwifery-of-connecticut/providers/yvette-martas-md", "rating": 4.9, "reviews": 448, "place_id": "ChIJ4drQs7Nj5okRh_k3QmtnGNE", "latitude": 41.73354339999999, "longitude": -72.20526029999999, "care_type": "OB-GYN"}, {"name": "Physicians for Women \u2013 A Women's Health Connecticut Practice", "address": "90 Locust Ave, Danbury, CT 06810", "city": "Danbury", "phone": "+1 203-792-5005", "website": "https://www.womenshealthct.com/practices/physicians-for-women/", "rating": 3.5, "reviews": 112, "place_id": "ChIJ28C-6EH_54kRwGwkjmkqm-M", "latitude": 41.4043775, "longitude": -73.4464411, "care_type": "OB-GYN"}, {"name": "Roa Alammari, MD", "address": "21 Ledgebrook Dr, Mansfield Center, CT 06250", "city": "Mansfield Center", "phone": "+1 860-450-7227", "website": "https://womenshealthct.com/practices/obgyn-and-midwifery-of-connecticut/providers/roa-alammari-md", "rating": 4.9, "reviews": 201, "place_id": "ChIJhbNX_V1j5okRyGWr38Mk16Q", "latitude": 41.73354339999999, "longitude": -72.20526029999999, "care_type": "OB-GYN"}, {"name": "Stephanie Welsh, CNM, MSN", "address": "21 Ledgebrook Dr, Mansfield Center, CT 06250", "city": "Mansfield Center", "phone": "+1 860-450-7227", "website": "https://womenshealthct.com/practices/obgyn-and-midwifery-of-connecticut/providers/stephanie-welsh-cnm-msn", "rating": 4.9, "reviews": 195, "place_id": "ChIJ4-eKK0Fj5okRoykDn9vMm14", "latitude": 41.73354339999999, "longitude": -72.20526029999999, "care_type": "OB-GYN"}, {"name": "Lesley V. Gumbs, MD", "address": "21 Ledgebrook Dr, Mansfield Center, CT 06250", "city": "Mansfield Center", "phone": "+1 860-450-7227", "website": "https://womenshealthct.com/practices/mansfield-ob-gyn-associates/providers/lesley-v-gumbs-md/", "rating": 5.0, "reviews": 276, "place_id": "ChIJ4drQs7Nj5okRgih5Tqgg8xc", "latitude": 41.7335736, "longitude": -72.2046962, "care_type": "OB-GYN"}, {"name": "Robert K. Gildersleeve, MD", "address": "21 Ledgebrook Dr, Mansfield Center, CT 06250", "city": "Mansfield Center", "phone": "+1 860-450-7227", "website": "https://mansfieldobgyn.com/robert-k-gildersleeve-md-facog/", "rating": 4.9, "reviews": 288, "place_id": "ChIJ4drQs7Nj5okR1dmaX0qrcnY", "latitude": 41.73354339999999, "longitude": -72.2052602, "care_type": "OB-GYN"}, {"name": "ChloeCare at the Women's Center of Eastern Connecticut", "address": "37 Ivan Hill St, Willimantic, CT 06226", "city": "Willimantic", "phone": "+1 860-576-8072", "website": "http://www.chloe-care.org/", "rating": 3.9, "reviews": 18, "place_id": "ChIJNaPZNOxj5okRydj-LygJYes", "latitude": 41.714719, "longitude": -72.2234546, "care_type": "OB-GYN"}, {"name": "OBGYN Group of Eastern Connecticut, P.C.", "address": "2600 Tamarack Ave Suite 200, South Windsor, CT 06074", "city": "South Windsor", "phone": "+1 860-646-1157", "website": "https://obgyneasternct.com/%3Futm_source%3DGMBSocialClimb%26utm_medium%3DOBGYNGroupofEasternConnecticut%252CP.C.", "rating": 4.7, "reviews": 1762, "place_id": "ChIJMc11n_VX5okRDM7YcYG5pHg", "latitude": 41.81974719999999, "longitude": -72.55458829999999, "care_type": "OB-GYN"}, {"name": "OBGYN Services", "address": "17 Case St, Norwich, CT 06360", "city": "Norwich", "phone": "+1 860-886-2461", "website": "http://obgynct.com/", "rating": 2.6, "reviews": 114, "place_id": "ChIJvTJHlqRx5okRUizMamEGpoI", "latitude": 41.5530434, "longitude": -72.1022984, "care_type": "OB-GYN"}, {"name": "Day Kimball Medical Group OB/GYN", "address": "320 Pomfret St, Putnam, CT 06260", "city": "Putnam", "phone": "+1 860-963-6486", "website": "https://www.daykimball.org/obgyn", "rating": 3.1, "reviews": 30, "place_id": "ChIJa98snrkn5IkRlSausYfhkqU", "latitude": 41.9062878, "longitude": -71.9133339, "care_type": "OB-GYN"}, {"name": "Dr. Andrew P. MacKenzie, MD, FACOG", "address": "320 Pomfret St, Putnam, CT 06260", "city": "Putnam", "phone": "+1 860-963-3836", "website": "http://www.daykimball.org/about-day-kimball/medical-staff/andrew-p-mackenzie-md-facog/", "rating": 4.7, "reviews": 22, "place_id": "ChIJW_9l8bAn5IkRgK_B-yG4GMU", "latitude": 41.9066407, "longitude": -71.9140091, "care_type": "OB-GYN"}, {"name": "Manchester OB-GYN Associates", "address": "388 W Center St, Manchester, CT 06040", "city": "Manchester", "phone": "+1 860-649-1120", "website": "https://womenshealthct.com/practices/manchester-ob-gyn-associates/", "rating": 3.7, "reviews": 156, "place_id": "ChIJD2VGizxX5okRVFlRZLJH-2o", "latitude": 41.7692919, "longitude": -72.5533679, "care_type": "OB-GYN"}, {"name": "OBGYN and Midwifery of Connecticut", "address": "388 W Center St, Manchester, CT 06040", "city": "Manchester", "phone": "+1 860-649-1120", "website": "https://womenshealthct.com/practices/obgyn-and-midwifery-of-connecticut", "rating": 1.0, "reviews": 1, "place_id": "ChIJF4Z3JtNX5okRn47rxJ6kBXk", "latitude": 41.7693146, "longitude": -72.553427, "care_type": "OB-GYN"}, {"name": "Dr. Lydia Lormand, DO", "address": "121 Broadway, Colchester, CT 06415", "city": "Colchester", "phone": "+1 860-649-1120", "website": "https://womenshealthct.com/practices/manchester-ob-gyn-associates/providers/lydia-lormand-do-facog/", "rating": 4.9, "reviews": 66, "place_id": "ChIJH1Xv7SpD5okRkK1Or95eumg", "latitude": 41.57724959999999, "longitude": -72.33506729999999, "care_type": "OB-GYN"}, {"name": "Connecticut Women OB/GYN", "address": "1050 Sullivan Ave #4a, South Windsor, CT 06074", "city": "South Windsor", "phone": "+1 860-648-2748", "website": "https://womenshealthct.com/practices/connecticut-women-ob-gyn", "rating": 3.4, "reviews": 51, "place_id": "ChIJw-mFRWT45okR1rA_3c7YObs", "latitude": 41.844505, "longitude": -72.55905349999999, "care_type": "OB-GYN"}, {"name": "Dr. Richard S. Ruben, MD", "address": "90 Locust Ave # 1, Danbury, CT 06810", "city": "Danbury", "phone": "+1 203-792-5005", "website": "http://www.womenshealthct.com/practices/physicians-for-women", "rating": 5.0, "reviews": 465, "place_id": "ChIJXXy-6EH_54kR1YW9puDyD3k", "latitude": 41.4043764, "longitude": -73.4464526, "care_type": "OB-GYN"}, {"name": "Dr. Daniel Welling, MD", "address": "388 W Center St, Manchester, CT 06040", "city": "Manchester", "phone": "+1 860-649-1120", "website": "", "rating": 4.9, "reviews": 256, "place_id": "ChIJGwdHizxX5okRvSgxK2Cl-nI", "latitude": 41.769294, "longitude": -72.55340819999999, "care_type": "OB-GYN"}, {"name": "Devon Root, CNM", "address": "21 Ledgebrook Dr, Mansfield Center, CT 06250", "city": "Mansfield Center", "phone": "+1 860-450-7227", "website": "https://www.womenshealthct.com/practices/mansfield-ob-gyn-associates", "rating": 5.0, "reviews": 73, "place_id": "ChIJAz-KpWxj5okR3_qlAColYY8", "latitude": 41.73354339999999, "longitude": -72.20526029999999, "care_type": "OB-GYN"}, {"name": "Francis Mayeda, M.D. MAYEDA GYNECOLOGY PLLC", "address": "914 Hartford Turnpike Suite 206, Waterford, CT 06385", "city": "Waterford", "phone": "+1 860-442-1177", "website": "https://www.mayedagynecology.com/", "rating": 4.7, "reviews": 307, "place_id": "ChIJM2vX0FsO5okRCEANWy1w4Q0", "latitude": 41.380434, "longitude": -72.1526805, "care_type": "OB-GYN"}, {"name": "Candlewood Center for Women's Health \u2013 A Women's Health Connecticut Practice", "address": "103 Newtown Rd, Danbury, CT 06810", "city": "Danbury", "phone": "+1 203-730-8789", "website": "https://www.womenshealthct.com/practices/candlewood-center-for-womens-health/", "rating": 3.4, "reviews": 176, "place_id": "ChIJUSBzI9L-54kRbyxLkfzHEw0", "latitude": 41.413141, "longitude": -73.4079454, "care_type": "OB-GYN"}, {"name": "Dr. Sarah Graceffa, MD", "address": "2600 Tamarack Ave Suite 200, South Windsor, CT 06074", "city": "South Windsor", "phone": "+1 860-646-1157", "website": "https://www.obgyneasternct.com/staff/graceffa/%3Futm_source%3DGMBSocialClimb%26utm_medium%3DDr.SarahGraceffa%252CMD", "rating": 4.9, "reviews": 218, "place_id": "ChIJMc11n_VX5okRrVjWSbXNDZA", "latitude": 41.8197635, "longitude": -72.5545915, "care_type": "OB-GYN"}, {"name": "Robyn Martin", "address": "320 Pomfret St, Putnam, CT 062601836", "city": "Putnam", "phone": "+1 860-928-6541", "website": "https://www.daykimball.org/about-day-kimball/medical-staff/Robyn-Martin-APRN/", "rating": 5.0, "reviews": 3, "place_id": "ChIJAQDAKLcn5IkR_lz4anSRp1I", "latitude": 41.9065432, "longitude": -71.9137355, "care_type": "OB-GYN"}, {"name": "Dr. Lon Manfredi, MD", "address": "388 W Center St, Manchester, CT 06040", "city": "Manchester", "phone": "+1 860-649-1120", "website": "http://www.womenshealthct.com/", "rating": 4.9, "reviews": 250, "place_id": "ChIJGwdHizxX5okRTxTBsAEAKMM", "latitude": 41.7692919, "longitude": -72.5533679, "care_type": "OB-GYN"}, {"name": "Carla Gunn, M.D.", "address": "388 W Center St, Manchester, CT 06040", "city": "Manchester", "phone": "+1 860-649-1120", "website": "http://www.womenshealthct.com/", "rating": 4.9, "reviews": 376, "place_id": "ChIJGwdHizxX5okRtWcr8C9osLc", "latitude": 41.7692919, "longitude": -72.5533679, "care_type": "OB-GYN"}, {"name": "Gynecology and Obstetrics \u2013 A Women's Health Connecticut Practice", "address": "148 Eastern Blvd STE 100, Glastonbury, CT 06033", "city": "Glastonbury", "phone": "+1 860-246-8568", "website": "https://www.womenshealthct.com/practices/gynecology-and-obstetrics/", "rating": 5.0, "reviews": 9, "place_id": "ChIJp14E8wlR5okR1bRNrzD-Kok", "latitude": 41.7210124, "longitude": -72.5851462, "care_type": "OB-GYN"}, {"name": "Maura Graham, DO", "address": "330 Western Blvd #102, Glastonbury, CT 06033", "city": "Glastonbury", "phone": "", "website": "", "rating": 5.0, "reviews": 116, "place_id": "ChIJDyZC_zNR5okRL72ghGucP8E", "latitude": 41.7211101, "longitude": -72.58657769999999, "care_type": "OB-GYN"}, {"name": "Dr. Deborah Vuillemot", "address": "320 Pomfret St, Putnam, CT 06260", "city": "Putnam", "phone": "+1 860-963-6699", "website": "http://www.daykimball.org/", "rating": 5.0, "reviews": 1, "place_id": "ChIJW_9l8bAn5IkRIj2zcIJEWf0", "latitude": 41.915135, "longitude": -71.910474, "care_type": "OB-GYN"}, {"name": "OBGYN Group of Eastern CT", "address": "622 Hebron Ave #104a, Glastonbury, CT 06033", "city": "Glastonbury", "phone": "+1 860-646-1157", "website": "https://obgyneasternct.com/", "rating": 2.0, "reviews": 1, "place_id": "ChIJa8XcagBR5okRnBHTPGIlJDs", "latitude": 41.7138163, "longitude": -72.5893095, "care_type": "OB-GYN"}, {"name": "Omrani Aziza MD", "address": "388 W Center St, Manchester, CT 06040", "city": "Manchester", "phone": "+1 860-649-1120", "website": "https://womenshealthct.com/practices/manchester-ob-gyn-associates/providers/aziza-omrani-md/", "rating": 4.7, "reviews": 293, "place_id": "ChIJGwdHizxX5okRpbptemH-2v0", "latitude": 41.769294, "longitude": -72.55340819999999, "care_type": "OB-GYN"}, {"name": "Shannon M. Morgan, CNM", "address": "21 Ledgebrook Dr, Mansfield Center, CT 06250", "city": "Mansfield Center", "phone": "+1 860-450-7227", "website": "https://womenshealthct.com/practices/obgyn-and-midwifery-of-connecticut/providers/shannon-morgan-cnm", "rating": 4.9, "reviews": 19, "place_id": "ChIJ69AZcDFj5okRVQvgVlvsI90", "latitude": 41.73354339999999, "longitude": -72.20526029999999, "care_type": "OB-GYN"}, {"name": "Yanbin Wang, MD, PhD", "address": "428 Hartford Turnpike #201, Vernon, CT 06066", "city": "Vernon", "phone": "+1 860-714-4440", "website": "https://www.trinityhealthofne.org/provider/yanbin-wang-md-phd-obstetrics-gynecology", "rating": 5.0, "reviews": 28, "place_id": "ChIJJU5ZIfz35okRCrPj_OvBKQ8", "latitude": 41.8285525, "longitude": -72.4818611, "care_type": "OB-GYN"}, {"name": "Women\u2019s Health CT Shoreline OB&GYN", "address": "4 Shaws Cove UNIT 204, New London, CT 06320", "city": "New London", "phone": "+1 860-447-2377", "website": "https://www.womenshealthct.com/shoreline_ob_gyn", "rating": 3.1, "reviews": 95, "place_id": "ChIJY1qj0VsO5okRmNMVilQloYM", "latitude": 41.3470306, "longitude": -72.1010513, "care_type": "OB-GYN"}, {"name": "Amna Aziz", "address": "320 Pomfret St, Putnam, CT 06260", "city": "Putnam", "phone": "+1 860-928-6541", "website": "https://www.daykimball.org/about-day-kimball/medical-staff/Amna-Aziz-MD/", "rating": 5.0, "reviews": 3, "place_id": "ChIJAQDAKLcn5IkReaShMhlHTaI", "latitude": 41.9065432, "longitude": -71.9137355, "care_type": "OB-GYN"}, {"name": "Dr. Devon Jacobson", "address": "320 Pomfret St, Putnam, CT 06260", "city": "Putnam", "phone": "+1 860-928-6541", "website": "https://www.daykimball.org/about-day-kimball/medical-staff/Devon-Jacobson-MD/", "rating": 5.0, "reviews": 1, "place_id": "ChIJAQDAKLcn5IkROWFvABJ09ww", "latitude": 41.9065432, "longitude": -71.9137355, "care_type": "OB-GYN"}, {"name": "Dr. Lenora Williams", "address": "1 Royce Cir, Storrs, CT 06268", "city": "Storrs", "phone": "+1 860-487-9200", "website": "", "rating": 3.7, "reviews": 6, "place_id": "ChIJuZ-M3SOK5okRbzlK1IGynxA", "latitude": 41.8047001, "longitude": -72.2418474, "care_type": "OB-GYN"}, {"name": "Southern Connecticut Women's Health Care Associates (SCWHCA)", "address": "247 Broad St, Milford, CT 06460", "city": "Milford", "phone": "+1 203-783-0543", "website": "https://www.scwhca.com/%3Futm_source%3Dgmb_auth", "rating": 4.7, "reviews": 286, "place_id": "ChIJiyus630d6IkR-zJdj17NmjA", "latitude": 41.218747, "longitude": -73.06387099999999, "care_type": "OB-GYN"}, {"name": "Dr. Lawrence M. Arky, MD", "address": "388 W Center St, Manchester, CT 06040", "city": "Manchester", "phone": "+1 860-649-1120", "website": "https://womenshealthct.com/practices/manchester-ob-gyn-associates/providers/lawrence-m-arky-md/", "rating": 4.9, "reviews": 242, "place_id": "ChIJGwdHizxX5okR4ZYkVdYuG3I", "latitude": 41.769199, "longitude": -72.553314, "care_type": "OB-GYN"}, {"name": "Women\u2019s Health CT Greater Hartford Women's Health Associates", "address": "704 Hebron Ave STE 202, Glastonbury, CT 06033", "city": "Glastonbury", "phone": "+1 860-561-7222", "website": "https://www.womenshealthct.com/greater_hartford_womens_health_associates", "rating": 3.7, "reviews": 15, "place_id": "ChIJdy-VwaNR5okR8U3C0b0nVTY", "latitude": 41.714809, "longitude": -72.586152, "care_type": "OB-GYN"}, {"name": "Dr. Erica J. Kesselman, MD", "address": "320 Pomfret St, Putnam, CT 06260", "city": "Putnam", "phone": "+1 860-963-6486", "website": "http://www.daykimball.org/", "rating": 3.9, "reviews": 8, "place_id": "ChIJa98snrkn5IkRqtlnAxn5Qp4", "latitude": 41.9065432, "longitude": -71.9137355, "care_type": "OB-GYN"}, {"name": "Michelle E. Killingsworth, CNM", "address": "192 E Center St, Manchester, CT 06040", "city": "Manchester", "phone": "+1 888-607-0046", "website": "http://www.withwomenwellness.com/", "rating": 5.0, "reviews": 175, "place_id": "ChIJ2_XxBKRW5okRGtXeuXfqa6Y", "latitude": 41.7768267, "longitude": -72.5147817, "care_type": "OB-GYN"}, {"name": "Dr. Melissa J. Welch, MD", "address": "17 Case St, Norwich, CT 06360", "city": "Norwich", "phone": "+1 860-886-2461", "website": "", "rating": 5.0, "reviews": 7, "place_id": "ChIJvTJHlqRx5okR6Cz4B7E8W4A", "latitude": 41.5530615, "longitude": -72.102313, "care_type": "OB-GYN"}, {"name": "Lindsay Collins, CNM", "address": "21 Ledgebrook Dr, Mansfield Center, CT 06250", "city": "Mansfield Center", "phone": "+1 860-450-7227", "website": "https://www.womenshealthct.com/practices/mansfield-ob-gyn-associates/", "rating": 5.0, "reviews": 24, "place_id": "ChIJA28iQvhj5okRf27quG7Md68", "latitude": 41.73354339999999, "longitude": -72.20526029999999, "care_type": "OB-GYN"}, {"name": "Dr. Claudia L. Grogean, MD", "address": "134 Grandview Ave, Waterbury, CT 06708", "city": "Waterbury", "phone": "+1 203-754-2535", "website": "https://www.womenshealthct.com/", "rating": 4.9, "reviews": 520, "place_id": "ChIJq5viLbXB54kRlx8qa5d8VAE", "latitude": 41.5601506, "longitude": -73.0609477, "care_type": "OB-GYN"}, {"name": "Associates-Women's Wellness", "address": "72 W Stafford Rd # 3, Stafford Springs, CT 06076", "city": "Stafford Springs", "phone": "+1 860-684-5770", "website": "", "rating": 5.0, "reviews": 2, "place_id": "ChIJp-Bk_LSS5okRnncgytQem8U", "latitude": 41.965795, "longitude": -72.3295067, "care_type": "OB-GYN"}, {"name": "Dr. Cynthia H. Mccraven, MD", "address": "863 N Main Street Ext Suite 301, Wallingford, CT 06492", "city": "Wallingford", "phone": "+1 203-269-0885", "website": "", "rating": 5.0, "reviews": 379, "place_id": "ChIJ0Z4fqqvO54kRDuozdAzJrTY", "latitude": 41.4814825, "longitude": -72.80726829999999, "care_type": "OB-GYN"}, {"name": "Women\u2019s Health CT S.H.E. Medical Associates", "address": "435 Buckland Rd, South Windsor, CT 06074", "city": "South Windsor", "phone": "+1 860-236-5431", "website": "http://www.womenshealthct.com/she_medical_associates/appointments_and_locations", "rating": 4.0, "reviews": 1, "place_id": "ChIJDTNY4NpX5okRFRiN2eQYoP4", "latitude": 41.8223641, "longitude": -72.55330359999999, "care_type": "OB-GYN"}, {"name": "Dr. Kellen Sikora", "address": "17 Case St, Norwich, CT 06360", "city": "Norwich", "phone": "+1 860-886-2461", "website": "", "rating": 5.0, "reviews": 3, "place_id": "ChIJ__9vQ6Rx5okRpNilmwCBzU4", "latitude": 41.5531053, "longitude": -72.1022216, "care_type": "OB-GYN"}, {"name": "Morosky Michael MD", "address": "200 Merrow Rd, Tolland, CT 06084", "city": "Tolland", "phone": "+1 860-749-7000", "website": "http://www.starlingphysicians.com/", "rating": 5.0, "reviews": 1, "place_id": "ChIJi49xwMn05okR3mCMAMHjv_U", "latitude": 41.85984029999999, "longitude": -72.3552539, "care_type": "OB-GYN"}, {"name": "Fischer Janet M", "address": "428 Hartford Turnpike #201, Vernon, CT 06066", "city": "Vernon", "phone": "+1 860-871-7374", "website": "", "rating": 5.0, "reviews": 3, "place_id": "ChIJsXG8EtD35okRa2FEvUWCRfE", "latitude": 41.8285525, "longitude": -72.4818611, "care_type": "OB-GYN"}, {"name": "Joan Tankou, MD", "address": "428 Hartford Turnpike #201, Vernon, CT 06066", "city": "Vernon", "phone": "+1 860-871-7374", "website": "https://www.trinityhealthofne.org/provider/joan-isabelle-tankou-md-obstetrics-gynecology", "rating": 5.0, "reviews": 37, "place_id": "ChIJVXKMoX1T5okR_z9V3NIJvZQ", "latitude": 41.8285525, "longitude": -72.4818611, "care_type": "OB-GYN"}, {"name": "Dr. Stephen T. Briggs, MD", "address": "17 Case St, Norwich, CT 06360", "city": "Norwich", "phone": "+1 860-886-2461", "website": "", "rating": 5.0, "reviews": 2, "place_id": "ChIJvTJHlqRx5okRIIjCY3b_huc", "latitude": 41.5530225, "longitude": -72.1023689, "care_type": "OB-GYN"}, {"name": "Women's Health Center", "address": "Plainfield, CT 06374", "city": "Plainfield", "phone": "+1 860-457-9200", "website": "http://www.daykimball.org/", "rating": 5.0, "reviews": 1, "place_id": "ChIJ_____8_V5YkRsayiloThQWA", "latitude": 41.6618495, "longitude": -71.9164217, "care_type": "OB-GYN"}, {"name": "Eva M. Carignan, M.D.", "address": "863 N Main Street Ext #301, Wallingford, CT 06492", "city": "Wallingford", "phone": "+1 203-269-0885", "website": "https://womenshealthct.com/providers/eva-m-carignan-md/", "rating": 4.9, "reviews": 301, "place_id": "ChIJgTIy0UOr54kRC5aPSJSvbbM", "latitude": 41.4823074, "longitude": -72.8081681, "care_type": "OB-GYN"}, {"name": "With Women Wellness LLC", "address": "192 E Center St, Manchester, CT 06040", "city": "Manchester", "phone": "+1 860-643-4121", "website": "http://withwomenwellness.com/", "rating": 4.6, "reviews": 47, "place_id": "ChIJsVwVBKRW5okRSL-rLBG7F6I", "latitude": 41.7768267, "longitude": -72.5147817, "care_type": "OB-GYN"}, {"name": "Women\u2019s Health CT Women's Center of Southern New England", "address": "863 N Main Street Ext #301, Wallingford, CT 06492", "city": "Wallingford", "phone": "+1 203-269-0885", "website": "https://www.womenshealthct.com/womens_center_of_southern_new_england", "rating": 3.5, "reviews": 47, "place_id": "ChIJrZU82arO54kR77m0F2BWOgM", "latitude": 41.4823532, "longitude": -72.8081359, "care_type": "OB-GYN"}, {"name": "Gumbs Lesley V MD", "address": "112 Mansfield Ave, Willimantic, CT 06226", "city": "Willimantic", "phone": "+1 860-456-6989", "website": "", "rating": null, "reviews": 0, "place_id": "ChIJUdz8rOhj5okROYACyuV8WUE", "latitude": 41.71734319999999, "longitude": -72.2259329, "care_type": "OB-GYN"}, {"name": "Dr. Carla R. Gunn, MD", "address": "6 Fieldstone Cmns, Tolland, CT 06084", "city": "Tolland", "phone": "+1 860-872-3535", "website": "http://www.womenshealthct.com/", "rating": 5.0, "reviews": 1, "place_id": "ChIJf9UPzT705okRTAb8yNxG0mo", "latitude": 41.8611779, "longitude": -72.3589535, "care_type": "OB-GYN"}, {"name": "Hartford Ob/Gyn", "address": "330 Western Blvd, Glastonbury, CT 06033", "city": "Glastonbury", "phone": "+1 860-547-0306", "website": "https://hartfordhospital.org/health-professionals/medical-staff-services/departments/obstetrics-gynecology", "rating": 4.0, "reviews": 1, "place_id": "ChIJQ1xwCwpR5okRpg97xwcVjp8", "latitude": 41.7203842, "longitude": -72.5868777, "care_type": "OB-GYN"}, {"name": "Comprehensive Gynecology of CT", "address": "60 Washington Ave Suite 201 & 206, Hamden, CT 06518", "city": "Hamden", "phone": "+1 203-230-2939", "website": "https://womenshealthct.com/practices/comprehensive-gynecology-of-ct-formerly-fine-and-gillette", "rating": 4.3, "reviews": 29, "place_id": "ChIJk6GmVX_Q54kR02X9b7Fltjs", "latitude": 41.38468839999999, "longitude": -72.8992938, "care_type": "OB-GYN"}, {"name": "Dr. David A. Kalla, MD", "address": "17 Case St, Norwich, CT 06360", "city": "Norwich", "phone": "+1 860-886-2461", "website": "", "rating": 4.0, "reviews": 8, "place_id": "ChIJvTJHlqRx5okRHntMppjzPKY", "latitude": 41.5530225, "longitude": -72.1023689, "care_type": "OB-GYN"}, {"name": "Ob Gyn Services: Belcher Julie Z MD", "address": "330 Washington St STE 340, Norwich, CT 06360", "city": "Norwich", "phone": "+1 860-887-4198", "website": "", "rating": 3.9, "reviews": 7, "place_id": "ChIJ-1iqn3Rx5okRTqCr6TyKhJc", "latitude": 41.5432233, "longitude": -72.0884767, "care_type": "OB-GYN"}, {"name": "Dr. Michelle R. Taylor, MD", "address": "Middletown, CT 06457", "city": "Middletown", "phone": "+1 203-269-0885", "website": "https://womenshealthct.com/practices/womens-center-of-southern-new-england/providers/michelle-r-taylor-md-facog/", "rating": 5.0, "reviews": 552, "place_id": "ChIJ0Z4fqqvO54kRmGcg4qn_1-U", "latitude": 41.5623209, "longitude": -72.6506488, "care_type": "OB-GYN"}, {"name": "Poloukhine Elena MD", "address": "12 Lathrop Rd, Plainfield, CT 06374", "city": "Plainfield", "phone": "+1 860-457-9200", "website": "https://www.daykimball.org/about-day-kimball/medical-staff/Elena-Poloukhine-MD-FACOG/", "rating": 4.0, "reviews": 4, "place_id": "ChIJRymyHc_V5YkRnrwjDw2YzQ8", "latitude": 41.6678745, "longitude": -71.9136867, "care_type": "OB-GYN"}, {"name": "Mansfield Obstetrics: Gildersleeve Robert K MD", "address": "112 Mansfield Ave, Willimantic, CT 06226", "city": "Willimantic", "phone": "+1 860-456-6902", "website": "", "rating": null, "reviews": 0, "place_id": "ChIJUdz8rOhj5okRHZEiPSuocuc", "latitude": 41.71734319999999, "longitude": -72.2259329, "care_type": "OB-GYN"}, {"name": "Specialists in Women\u2019s Healthcare, PC", "address": "134 Grandview Ave, Waterbury, CT 06708", "city": "Waterbury", "phone": "+1 203-754-2535", "website": "http://www.womenshealthct.com/practices/specialists-in-womens-healthcare", "rating": 3.5, "reviews": 99, "place_id": "ChIJIbJQ1LTB54kRRvxw6m2JZz0", "latitude": 41.5601695, "longitude": -73.0609609, "care_type": "OB-GYN"}, {"name": "Tidwell Natalie Y MD", "address": "320 Pomfret St # 44, Putnam, CT 06260", "city": "Putnam", "phone": "+1 860-928-6541", "website": "http://www.daykimball.org/", "rating": null, "reviews": 0, "place_id": "ChIJa98snrkn5IkR-yvZD1L_PCE", "latitude": 41.9092044, "longitude": -71.914523, "care_type": "OB-GYN"}, {"name": "Women's Comprehensive Health Care", "address": "100 Retreat Ave STE 700, Hartford, CT 06106", "city": "Hartford", "phone": "+1 860-547-0306", "website": "https://www.womenshealthct.com/womens_comprehensive_health_care", "rating": 4.0, "reviews": 31, "place_id": "ChIJJ1R2ZxNT5okRRfvysy5sc0M", "latitude": 41.7530572, "longitude": -72.6786547, "care_type": "OB-GYN"}, {"name": "Greater Hartford Women's Health", "address": "345 N Main St Suite 201, West Hartford, CT 06117", "city": "West Hartford", "phone": "+1 860-561-7222", "website": "http://www.womenshealthct.com/practices/greater-hartford-womens-health-associates", "rating": 3.4, "reviews": 76, "place_id": "ChIJhyPeXq-y54kR5asswGFU9xA", "latitude": 41.785189, "longitude": -72.7479087, "care_type": "OB-GYN"}, {"name": "Yeager David L MD", "address": "346 Pomfret St, Putnam, CT 06260", "city": "Putnam", "phone": "+1 860-928-0815", "website": "", "rating": null, "reviews": 0, "place_id": "ChIJ1fLnDrkn5IkRiXhsm9TcP5Q", "latitude": 41.9071343, "longitude": -71.91546869999999, "care_type": "OB-GYN"}, {"name": "Dr. Pamela L. Lewis, MD", "address": "360 Tolland Turnpike, Manchester, CT 06042", "city": "Manchester", "phone": "+1 860-646-1157", "website": "http://www.obgyneasternct.com/", "rating": 2.3, "reviews": 3, "place_id": "ChIJMc11n_VX5okRxclnnMOilBg", "latitude": 41.8101022, "longitude": -72.52184, "care_type": "OB-GYN"}, {"name": "Dr. Patrice M. Marchand, MD", "address": "17 Case St, Norwich, CT 06360", "city": "Norwich", "phone": "+1 860-886-2461", "website": "", "rating": 3.5, "reviews": 2, "place_id": "ChIJvTJHlqRx5okRogEuw2kQkjU", "latitude": 41.5530615, "longitude": -72.102313, "care_type": "OB-GYN"}, {"name": "Women's Health Connecticut Obstetrics & Gynecology", "address": "Riverview Plaza, 501 Kings Hwy E UNIT 202, Fairfield, CT 06825", "city": "Fairfield", "phone": "+1 203-374-0404", "website": "https://womenshealthct.com/practices/womens-health-ct-obstetrics-and-gynecology", "rating": null, "reviews": 0, "place_id": "ChIJx348XAAP6IkRxNVbpqGG_O4", "latitude": 41.1720554, "longitude": -73.2280462, "care_type": "OB-GYN"}, {"name": "Apostol Radu DO", "address": "47 Town St, Norwich, CT 06360", "city": "Norwich", "phone": "+1 860-822-4911", "website": "", "rating": null, "reviews": 0, "place_id": "ChIJ8SEv8Apx5okRmCiMY46NBZY", "latitude": 41.5477838, "longitude": -72.0915563, "care_type": "OB-GYN"}, {"name": "Primal Roots Midwifery", "address": "566 Devotion Rd, Baltic, CT 06330", "city": "Baltic", "phone": "+1 860-973-9173", "website": "http://www.primalrootsmidwifery.com/", "rating": 5.0, "reviews": 4, "place_id": "ChIJeZKwDph75okRfCrOo6VdhbM", "latitude": 41.6611127, "longitude": -72.08711339999999, "care_type": "OB-GYN"}, {"name": "Dr. Ana Margarita Hernandez Silen, MD", "address": "320 Pomfret St, Putnam, CT 06260", "city": "Putnam", "phone": "+1 860-963-6699", "website": "", "rating": null, "reviews": 0, "place_id": "ChIJW_9l8bAn5IkRrVUYHoP7k7o", "latitude": 41.9092044, "longitude": -71.914523, "care_type": "OB-GYN"}, {"name": "Day Kimball Ob/Gyn Center: Thomas Lynn MD", "address": "320 Pomfret St, Putnam, CT 06260", "city": "Putnam", "phone": "+1 860-963-6483", "website": "https://www.daykimball.org/", "rating": 5.0, "reviews": 1, "place_id": "ChIJa98snrkn5IkRI0EZRyBoHU0", "latitude": 41.9092044, "longitude": -71.914523, "care_type": "OB-GYN"}, {"name": "Women\u2019s Health CT Vasectomy & Male Infertility Center of Connecticut", "address": "300 Hebron Ave STE 202, Glastonbury, CT 06033", "city": "Glastonbury", "phone": "+1 860-430-5773", "website": "", "rating": null, "reviews": 0, "place_id": "ChIJqw0ynJpR5okR8aFV6ogjpyY", "latitude": 41.712883, "longitude": -72.601393, "care_type": "OB-GYN"}, {"name": "Women's Healthcare of New Milford", "address": "120 Park Lane Rd Unit B202, New Milford, CT 06776", "city": "New Milford", "phone": "+1 860-210-0082", "website": "https://www.womenshealthct.com/womens_healthcare_new_milford", "rating": 3.7, "reviews": 47, "place_id": "ChIJBawj0lv054kRC60mfbgL48Q", "latitude": 41.606413, "longitude": -73.40268879999999, "care_type": "OB-GYN"}, {"name": "Nuvance Health Medical Practice - Obstetrics and Gynecology New Milford", "address": "120 Park Lane Rd # A202, New Milford, CT 06776", "city": "New Milford", "phone": "+1 860-354-9321", "website": "https://www.nuvancehealth.org/locations/nuvance-health-medical-practices-obstetrics-and-gynecology-new-milford%3Futm_source%3Dlistings%26utm_medium%3Dorganic%26utm_campaign%3DYext%26y_source%3D1_MTEyNjg2MTEtNzE1LWxvY2F0aW9uLndlYnNpdGU%253D", "rating": 4.8, "reviews": 0, "place_id": "ChIJwUdYFVf154kRTMTxL8Hq1oo", "latitude": 41.60611919999999, "longitude": -73.4030111, "care_type": "OB-GYN"}, {"name": "Dr. Carol S. Papov, MD, FACOG", "address": "120 Park Lane Rd, New Milford, CT 06776", "city": "New Milford", "phone": "+1 860-210-0082", "website": "https://womenshealthct.com/practices/womens-healthcare-of-new-milford/providers/carol-s-papov-md-facog/", "rating": 5.0, "reviews": 330, "place_id": "ChIJaTfM1lv054kReyH5bJlpi8E", "latitude": 41.60611919999999, "longitude": -73.4030111, "care_type": "OB-GYN"}, {"name": "OBGYN Physicians", "address": "1 New Haven Ave #101, Milford, CT 06460", "city": "Milford", "phone": "+1 203-877-5634", "website": "https://www.womenshealthct.com/practices/obgyn-physicians", "rating": 3.5, "reviews": 36, "place_id": "ChIJN1_LeKJ06IkRGnr_R7azz0k", "latitude": 41.2221176, "longitude": -73.0560965, "care_type": "OB-GYN"}, {"name": "Dr. Claudia Baxter, MD, FACOG", "address": "120 Park Lane Rd Unit B202, New Milford, CT 06776", "city": "New Milford", "phone": "+1 860-210-0082", "website": "https://womenshealthct.com/practices/womens-healthcare-of-new-milford/providers/claudia-baxter-md-facog/", "rating": 4.9, "reviews": 313, "place_id": "ChIJaTfM1lv054kR1iv0Ruq2jDc", "latitude": 41.606413, "longitude": -73.40268879999999, "care_type": "OB-GYN"}, {"name": "Milford OB-GYN Physicians, PC", "address": "309 Seaside Ave Ste 203-204, Milford, CT 06460", "city": "Milford", "phone": "", "website": "", "rating": 4.8, "reviews": 37, "place_id": "ChIJN1_LeKJ06IkRMLlSvaIt0rc", "latitude": 41.2172135, "longitude": -73.0640243, "care_type": "OB-GYN"}, {"name": "Karen M. Wunderlich, RNC, MSN, WHCNMP", "address": "120 Park Lane Rd Unit B202, New Milford, CT 06776", "city": "New Milford", "phone": "+1 860-210-0082", "website": "https://womenshealthct.com/practices/womens-healthcare-of-new-milford/providers/karen-m-wunderlich-rnc-msn-whcnp/", "rating": 5.0, "reviews": 0, "place_id": "ChIJaTfM1lv054kRi2v5ScWBly4", "latitude": 41.606413, "longitude": -73.40268879999999, "care_type": "OB-GYN"}, {"name": "Connecticut Coastal OB/GYN", "address": "326 W Main St, Milford, CT 06460", "city": "Milford", "phone": "+1 203-877-6652", "website": "https://ctcoastalobgyn.com/%3Futm_source%3Dgoogle%26utm_medium%3Dorganic%26utm_campaign%3Dgbp-milford", "rating": 3.3, "reviews": 19, "place_id": "ChIJgbhAkLt06IkR66tMwE00Eo4", "latitude": 41.2240342, "longitude": -73.0707302, "care_type": "OB-GYN"}, {"name": "Amanda M. Finnerty, PA-C", "address": "120 Park Lane Rd # A202, New Milford, CT 06776", "city": "New Milford", "phone": "+1 860-354-9321", "website": "https://findcare.nuvancehealth.org/provider/amanda-m-finnerty/2680278%3Fy_source%3D1_MTAyODMyNjI1OC03MTUtbG9jYXRpb24ud2Vic2l0ZQ%253D%253D", "rating": 5.0, "reviews": 1, "place_id": "ChIJyRkBSqX154kRSYNw1lIArQI", "latitude": 41.6061743, "longitude": -73.40280179999999, "care_type": "OB-GYN"}, {"name": "Southern Connecticut Women's Health Care Associates", "address": "251 Main St, Westport, CT 06880", "city": "Westport", "phone": "+1 203-783-0543", "website": "https://www.scwhca.com/", "rating": 5.0, "reviews": 7, "place_id": "ChIJdzrLgn8c6IkRDHY2aY19M1A", "latitude": 41.146573, "longitude": -73.3613598, "care_type": "OB-GYN"}, {"name": "Dr. Leslie M. Goldstone-Orly, M.D.", "address": "251 Main St, Westport, CT 06880", "city": "Westport", "phone": "+1 203-783-0543", "website": "https://www.scwhca.com/", "rating": 5.0, "reviews": 399, "place_id": "ChIJy725dzAP6IkRMJuxwyg1gUQ", "latitude": 41.1466009, "longitude": -73.361362, "care_type": "OB-GYN"}, {"name": "Dr. Andrew P. Metzger, MD", "address": "863 N Main Street Ext #301, Wallingford, CT 06492", "city": "Wallingford", "phone": "+1 203-269-0885", "website": "http://www.womenshealthct.com/practices/womens-center-of-southern-new-england", "rating": 4.9, "reviews": 331, "place_id": "ChIJ0Z4fqqvO54kRImY74rA7mFE", "latitude": 41.4822617, "longitude": -72.8082711, "care_type": "OB-GYN"}, {"name": "Dr. Danielle M Grieco, MD", "address": "2600 Tamarack Ave Suite 200, South Windsor, CT 06074", "city": "South Windsor", "phone": "+1 860-850-2919", "website": "https://obgyneasternct.com/staff/grieco/%3Futm_source%3DGMBSocialClimb%26utm_medium%3DDr.DanielleMGriecoMD", "rating": 4.5, "reviews": 126, "place_id": "ChIJhxtbXcVX5okR1KLXik8Vpuw", "latitude": 41.819463, "longitude": -72.554808, "care_type": "OB-GYN"}, {"name": "Middlesex Obstetrical & Gynecological Associates", "address": "440 Saybrook Rd, Middletown, CT 06457", "city": "Middletown", "phone": "+1 860-347-7491", "website": "http://www.womenshealthct.com/middlesex_obstetrical_and_gynecological_associates/appointments_and_locations", "rating": 3.9, "reviews": 44, "place_id": "ChIJtezoOGhK5okRf8zTDacAsoo", "latitude": 41.5444921, "longitude": -72.6269521, "care_type": "OB-GYN"}, {"name": "County OB/GYN Group, P.C.", "address": "103 N Main St, Branford, CT 06405", "city": "Branford", "phone": "+1 203-488-8306", "website": "http://www.countyob.com/", "rating": 4.8, "reviews": 440, "place_id": "ChIJCUewAnDW54kRKqJqV0Zd-Lc", "latitude": 41.2849232, "longitude": -72.8183423, "care_type": "OB-GYN"}, {"name": "Dr. Katerina M. Michaels-Bogdan, MD", "address": "2600 Tamarack Ave Suite 200, South Windsor, CT 06074", "city": "South Windsor", "phone": "+1 860-407-5862", "website": "https://obgyneasternct.com/staff/bogdan/%3Futm_source%3DGMBSocialClimb%26utm_medium%3DDr.KaterinaM.Michaels-Bogdan%252CMD", "rating": 5.0, "reviews": 210, "place_id": "ChIJc--VbMVX5okRjtluDMcMpiA", "latitude": 41.8198892, "longitude": -72.55478049999999, "care_type": "OB-GYN"}, {"name": "Sarah Kleven, MD", "address": "863 N Main Street Ext #301, Wallingford, CT 06492", "city": "Wallingford", "phone": "+1 203-269-0885", "website": "https://womenshealthct.com/practices/womens-center-of-southern-new-england/providers/sarah-kleven-md", "rating": 4.3, "reviews": 6, "place_id": "ChIJBwPgj4HP54kRwQHgqtzuTyg", "latitude": 41.4823074, "longitude": -72.8081681, "care_type": "OB-GYN"}, {"name": "Middlesex Health Crescent Street OB/GYN - Middletown", "address": "49 Crescent St, Middletown, CT 06457", "city": "Middletown", "phone": "+1 860-358-3360", "website": "http://middlesexhealth.org/location-finder/middlesex-health-crescent-street-ob/gyn-middletown", "rating": 3.5, "reviews": 123, "place_id": "ChIJf6RCuR9L5okRTMtR4lRdL0Y", "latitude": 41.5554896, "longitude": -72.64739999999999, "care_type": "OB-GYN"}, {"name": "Craig E. McKnight, MD", "address": "929 Boston Post Rd, Old Saybrook, CT 06475", "city": "Old Saybrook", "phone": "+1 959-746-2000", "website": "", "rating": 4.1, "reviews": 20, "place_id": "ChIJXxxRDlMO5okRLZzayGenRTs", "latitude": 41.2897489, "longitude": -72.3876697, "care_type": "OB-GYN"}, {"name": "Hartford GYN Center", "address": "701 Cottage Grove Rd # C110, Bloomfield, CT 06002", "city": "Bloomfield", "phone": "+1 860-525-1900", "website": "https://thewomenscenters.com/hartfordgyncenter/%3Futm_source%3DGoogle%26utm_medium%3DGMB%26utm_campaign%3DHartford", "rating": 3.8, "reviews": 38, "place_id": "ChIJ56tHD21T5okRYivCLCGhijo", "latitude": 41.8164321, "longitude": -72.7344013, "care_type": "OB-GYN"}, {"name": "Middlesex Health Crescent Street OB/GYN - Marlborough", "address": "3 E Hampton Rd, Marlborough, CT 06447", "city": "Marlborough", "phone": "+1 860-295-1291", "website": "https://middlesexhealth.org/middlesex-health-crescent-street-obstetrics-and-gynecology", "rating": 5.0, "reviews": 5, "place_id": "ChIJ7b7FW_BE5okRd3eqHz-LZIE", "latitude": 41.6308119, "longitude": -72.4595587, "care_type": "OB-GYN"}, {"name": "Generations OB/GYN", "address": "2446 Whitney Ave, Hamden, CT 06518", "city": "Hamden", "phone": "+1 203-248-4461", "website": "https://generationsobgynct.com/", "rating": 2.8, "reviews": 23, "place_id": "ChIJN6qH-VTY54kRSqPpTQNiOjc", "latitude": 41.3863222, "longitude": -72.9011168, "care_type": "OB-GYN"}, {"name": "Starling Physicians OB/GYN", "address": "100 Retreat Ave STE 400, Hartford, CT 06106", "city": "Hartford", "phone": "+1 860-246-4029", "website": "https://www.starlingphysicians.com/specialty/obgyn/", "rating": 4.0, "reviews": 8, "place_id": "ChIJv0klT2tT5okRjXjb3ydzK94", "latitude": 41.7531754, "longitude": -72.6787196, "care_type": "OB-GYN"}, {"name": "Generations OB/GYN", "address": "46 Prince St STE 105, New Haven, CT 06519", "city": "New Haven", "phone": "+1 203-562-6741", "website": "https://generationsobgynct.com/", "rating": 2.7, "reviews": 7, "place_id": "ChIJ58melE7Y54kR6ILzb60fTys", "latitude": 41.3009396, "longitude": -72.9301634, "care_type": "OB-GYN"}, {"name": "Starling Physicians Bloomfield OB/GYN", "address": "533 Cottage Grove Rd #3, Bloomfield, CT 06002", "city": "Bloomfield", "phone": "+1 860-246-4029", "website": "https://www.starlingphysicians.com/specialty/obgyn/", "rating": 3.7, "reviews": 38, "place_id": "ChIJWTLfIier54kRmmq3gstrjqs", "latitude": 41.816811, "longitude": -72.724773, "care_type": "OB-GYN"}, {"name": "Starling Physicians Wethersfield OB/GYN", "address": "1210 Silas Deane Hwy #106, Wethersfield, CT 06109", "city": "Wethersfield", "phone": "+1 860-246-4029", "website": "https://www.starlingphysicians.com/specialty/obgyn/", "rating": 3.3, "reviews": 15, "place_id": "ChIJQ5vTwxlN5okRvXvMWVUjHDg", "latitude": 41.6881348, "longitude": -72.6522373, "care_type": "OB-GYN"}, {"name": "Molly Brown, APRN, MSN, FNP-C", "address": "2600 Tamarack Ave Suite 200, South Windsor, CT 06074", "city": "South Windsor", "phone": "+1 860-646-1157", "website": "https://obgyneasternct.com/", "rating": null, "reviews": 0, "place_id": "ChIJ3wxAB0ZX5okRCia-YXwlJSM", "latitude": 41.8198181, "longitude": -72.5546842, "care_type": "OB-GYN"}, {"name": "Dr. Grace Bundens", "address": "1210 Silas Deane Hwy #106, Wethersfield, CT 06109", "city": "Wethersfield", "phone": "+1 860-246-4029", "website": "https://www.starlingphysicians.com/physician/grace-d-bundens-md/", "rating": 5.0, "reviews": 181, "place_id": "ChIJVf1q8mtN5okREAqKuq4rBuk", "latitude": 41.6881348, "longitude": -72.6522373, "care_type": "OB-GYN"}, {"name": "Woodland Women's Health Associates \u2013 A Women's Health Connecticut Practice", "address": "1178 Silas Deane Hwy Suite 3, Wethersfield, CT 06109", "city": "Wethersfield", "phone": "+1 860-633-8550", "website": "https://www.womenshealthct.com/practices/woodland-womens-health-associates/", "rating": 4.6, "reviews": 20, "place_id": "ChIJ6YjUc5pR5okRZ_9-JtpvGEI", "latitude": 41.6894582, "longitude": -72.65502599999999, "care_type": "OB-GYN"}, {"name": "Jessica Lovesky, MD", "address": "1210 Silas Deane Hwy, Wethersfield, CT 06109", "city": "Wethersfield", "phone": "+1 860-246-4029", "website": "https://www.starlingphysicians.com/physician/jessica-lovesky-md/", "rating": 4.9, "reviews": 299, "place_id": "ChIJj-8uYzpN5okR05m3possKWU", "latitude": 41.6881348, "longitude": -72.6522373, "care_type": "OB-GYN"}, {"name": "Gynecology and Obstetrics \u2013 A Women's Health Connecticut Practice", "address": "1084 Cromwell Ave, Rocky Hill, CT 06067", "city": "Rocky Hill", "phone": "+1 860-246-8568", "website": "https://www.womenshealthct.com/practices/gynecology-and-obstetrics/", "rating": 4.6, "reviews": 139, "place_id": "ChIJD7n9uO1M5okR-0OObfQI29I", "latitude": 41.6409598, "longitude": -72.67634679999999, "care_type": "OB-GYN"}, {"name": "Starling Physicians: Renee Cortland , MD", "address": "85 Seymour St STE 1019, Hartford, CT 06106", "city": "Hartford", "phone": "+1 860-246-4029", "website": "https://www.starlingphysicians.com/", "rating": 4.9, "reviews": 295, "place_id": "ChIJZ6_-S2tT5okR9WNbtliBuX0", "latitude": 41.7544767, "longitude": -72.6820975, "care_type": "OB-GYN"}, {"name": "Dr. Ellen Lamb", "address": "100 Retreat Ave STE 201, Hartford, CT 06106", "city": "Hartford", "phone": "+1 860-246-8568", "website": "https://womenshealthct.com/practices/gynecology-and-obstetrics/providers/ellen-a-lamb-md-facog/", "rating": 5.0, "reviews": 504, "place_id": "ChIJfYp-Mn5T5okRF32xPjM031U", "latitude": 41.7531477, "longitude": -72.6786695, "care_type": "OB-GYN"}, {"name": "Starling Physicians: Jeannine Maytan, CNM", "address": "85 Seymour St, Hartford, CT 06106", "city": "Hartford", "phone": "+1 860-246-4029", "website": "https://www.starlingphysicians.com/", "rating": 4.9, "reviews": 188, "place_id": "ChIJ7zE0xnlT5okR9ebYBkY3K3Q", "latitude": 41.7544767, "longitude": -72.6820975, "care_type": "OB-GYN"}, {"name": "Starling Physicians: Lawrence Lazor, MD", "address": "85 Seymour St STE 1019, Hartford, CT 06106", "city": "Hartford", "phone": "+1 860-246-4029", "website": "https://www.starlingphysicians.com/", "rating": 4.9, "reviews": 332, "place_id": "ChIJZ6_-S2tT5okRw99yLkRur0Y", "latitude": 41.7544767, "longitude": -72.6820975, "care_type": "OB-GYN"}, {"name": "Anna Manetta, MD", "address": "1210 Silas Deane Hwy, Wethersfield, CT 06109", "city": "Wethersfield", "phone": "+1 860-246-4029", "website": "https://www.starlingphysicians.com/physician/anna-manetta-md/", "rating": 5.0, "reviews": 39, "place_id": "ChIJo6fyjspN5okR6sxgfLtZpi0", "latitude": 41.6881545, "longitude": -72.6523703, "care_type": "OB-GYN"}, {"name": "Tracy Levine, MD", "address": "1210 Silas Deane Hwy, Wethersfield, CT 06109", "city": "Wethersfield", "phone": "+1 860-246-4029", "website": "https://www.starlingphysicians.com/physician/tracy-levine-md/", "rating": 5.0, "reviews": 40, "place_id": "ChIJf2QsKVlN5okRG8wqYvWllc8", "latitude": 41.6882714, "longitude": -72.6525846, "care_type": "OB-GYN"}, {"name": "Jeffrey Mihalek, MD", "address": "375 Willard Ave, Newington, CT 06111", "city": "Newington", "phone": "+1 860-666-5111", "website": "https://www.starlingphysicians.com/physician/jeffrey-j-mihalek-md/", "rating": 4.9, "reviews": 293, "place_id": "ChIJP_QP1mat54kR0-Y9r7GoUKQ", "latitude": 41.7073791, "longitude": -72.7366452, "care_type": "OB-GYN"}, {"name": "Dr. Kelley L. Sturrock, MD, FACOG", "address": "100 Retreat Ave #201, Hartford, CT 06106", "city": "Hartford", "phone": "+1 860-246-8568", "website": "https://womenshealthct.com/practices/gynecology-and-obstetrics/providers/kelley-l-sturrock-md-facog/", "rating": 5.0, "reviews": 433, "place_id": "ChIJeVFaZxNT5okRspHgdX9rCv8", "latitude": 41.7530723, "longitude": -72.67866599999999, "care_type": "OB-GYN"}, {"name": "Lisa Mack, MD", "address": "1210 Silas Deane Hwy, Wethersfield, CT 06109", "city": "Wethersfield", "phone": "+1 860-246-4029", "website": "https://www.starlingphysicians.com/physician/lisa-mack-md/", "rating": 4.8, "reviews": 42, "place_id": "ChIJhZ3mJ4RN5okR_Vtw0CT6pFM", "latitude": 41.6882714, "longitude": -72.6525846, "care_type": "OB-GYN"}, {"name": "Starling Physicians: Peter Doelger, MD", "address": "85 Seymour St STE 1019, Hartford, CT 06106", "city": "Hartford", "phone": "+1 860-246-4029", "website": "https://www.starlingphysicians.com/", "rating": 5.0, "reviews": 539, "place_id": "ChIJZ6_-S2tT5okRSalRs13WK7c", "latitude": 41.7544767, "longitude": -72.6820975, "care_type": "OB-GYN"}, {"name": "Natalie C. Webb, MD", "address": "330 Western Blvd #102, Glastonbury, CT 06033", "city": "Glastonbury", "phone": "+1 860-856-1490", "website": "https://womenshealthct.com/practices/womens-comprehensive-health-care/providers/natalie-c-webb-md/", "rating": 5.0, "reviews": 417, "place_id": "ChIJQ1xwCwpR5okR9IR0mR2gvhg", "latitude": 41.7203842, "longitude": -72.5868777, "care_type": "OB-GYN"}, {"name": "Dr. Erin K. Pickett, MD, FACOG", "address": "100 Retreat Ave #201, Hartford, CT 06106", "city": "Hartford", "phone": "+1 860-246-8568", "website": "https://womenshealthct.com/practices/gynecology-and-obstetrics/providers/erin-k-pickett-md-facog/", "rating": 5.0, "reviews": 343, "place_id": "ChIJeVFaZxNT5okRHIiY9ckF1ho", "latitude": 41.7530505, "longitude": -72.67866959999999, "care_type": "OB-GYN"}, {"name": "Women\u2019s Health Connecticut - Women's Health Group", "address": "2301 Silas Deane Hwy, Rocky Hill, CT 06067", "city": "Rocky Hill", "phone": "+1 860-721-1052", "website": "https://www.womenshealthct.com/womens_health_group", "rating": 3.7, "reviews": 22, "place_id": "ChIJO1cwNL9N5okRlDw-rqPqHTQ", "latitude": 41.6661493, "longitude": -72.6407462, "care_type": "OB-GYN"}, {"name": "Dr. Kerrie M. Henry, MD, FACOG", "address": "100 Retreat Ave #201, Hartford, CT 06106", "city": "Hartford", "phone": "+1 860-246-8568", "website": "http://www.womenshealthct.com/practices/gynecology-and-obstetrics/our-team/kerrie-m-henry-m-d-facog", "rating": 4.9, "reviews": 553, "place_id": "ChIJeVFaZxNT5okReU3RZB5W74M", "latitude": 41.7530765, "longitude": -72.67866699999999, "care_type": "OB-GYN"}, {"name": "Deepali Mathur, MD", "address": "476 Cromwell Ave, Rocky Hill, CT 06067", "city": "Rocky Hill", "phone": "+1 860-714-4440", "website": "https://www.trinityhealthofne.org/provider/deepali-mathur-md-obstetrics-gynecology", "rating": 4.7, "reviews": 48, "place_id": "ChIJ7aDE_VlT5okRnAf3ovwvrYg", "latitude": 41.6570281, "longitude": -72.6782425, "care_type": "OB-GYN"}, {"name": "Starling Physicians: Samantha Neville, MSN, CNM, WHNP-BC", "address": "1210 Silas Deane Hwy, Wethersfield, CT 06109", "city": "Wethersfield", "phone": "+1 860-246-4029", "website": "https://www.starlingphysicians.com/physician/samantha-neville-msn-cnm-whnp-bc/", "rating": 5.0, "reviews": 6, "place_id": "ChIJcaZIIhZN5okRYOHvFaGepnE", "latitude": 41.6881348, "longitude": -72.6522373, "care_type": "OB-GYN"}, {"name": "Rosemary Quinlan, MD", "address": "100 Retreat Ave, Hartford, CT 06106", "city": "Hartford", "phone": "+1 860-547-0306", "website": "https://www.womenshealthct.com/practices/womens-comprehensive-health-care/our-team/rosemary-quinlan-m-d", "rating": 4.9, "reviews": 371, "place_id": "ChIJeVFaZxNT5okRxFDseOKI98k", "latitude": 41.7530717, "longitude": -72.6786334, "care_type": "OB-GYN"}, {"name": "Graziani Catherine C DO", "address": "100 Retreat Ave #201, Hartford, CT 06106", "city": "Hartford", "phone": "+1 860-246-8568", "website": "https://womenshealthct.com/practices/gynecology-and-obstetrics/providers/catherine-c-graziani-do-facog", "rating": 4.9, "reviews": 528, "place_id": "ChIJeVFaZxNT5okRF1O_ojzQHs0", "latitude": 41.7530552, "longitude": -72.6786688, "care_type": "OB-GYN"}, {"name": "Marlaine Jean-Miller, MD, FACOG", "address": "100 Retreat Ave #201, Hartford, CT 06106", "city": "Hartford", "phone": "+1 860-246-8568", "website": "https://womenshealthct.com/practices/gynecology-and-obstetrics/providers/marlaine-jean-miller-md-facog/", "rating": 4.9, "reviews": 387, "place_id": "ChIJN1daZxNT5okRGLMwtLev4sU", "latitude": 41.7530765, "longitude": -72.6786669, "care_type": "OB-GYN"}, {"name": "Emily J. Rosenbush, M.D., FACOG", "address": "100 Retreat Ave #201, Hartford, CT 06106", "city": "Hartford", "phone": "+1 860-246-8568", "website": "http://www.womenshealthct.com/", "rating": 5.0, "reviews": 291, "place_id": "ChIJeVFaZxNT5okRHjWrZkAmLdI", "latitude": 41.7530765, "longitude": -72.67866699999999, "care_type": "OB-GYN"}, {"name": "Dr. Ashley Young", "address": "100 Retreat Ave #201, Hartford, CT 06106", "city": "Hartford", "phone": "+1 860-246-8568", "website": "https://womenshealthct.com/practices/gynecology-and-obstetrics/providers/ashley-e-young-md-facog/", "rating": 4.9, "reviews": 426, "place_id": "ChIJ_-2pyntT5okRUqlSEsAJ-zg", "latitude": 41.7530881, "longitude": -72.6787816, "care_type": "OB-GYN"}, {"name": "Patricia L. Fagan, MD", "address": "100 Retreat Ave STE 700, Hartford, CT 06106", "city": "Hartford", "phone": "+1 860-547-0306", "website": "", "rating": 5.0, "reviews": 506, "place_id": "ChIJeVFaZxNT5okRaxVGQztNQ3Q", "latitude": 41.7530898, "longitude": -72.67864229999999, "care_type": "OB-GYN"}, {"name": "Mary Farwell, MD", "address": "330 Western Blvd #102, Glastonbury, CT 06033", "city": "Glastonbury", "phone": "+1 860-673-4670", "website": "http://www.womenshealthct.com/practices/womens-comprehensive-health-care/our-team/mary-e-farwell-m-d", "rating": 4.9, "reviews": 378, "place_id": "ChIJw858aMSo54kRSkhOK-KC9Lc", "latitude": 41.720384, "longitude": -72.586878, "care_type": "OB-GYN"}, {"name": "Jennifer H. Grant, MD", "address": "100 Retreat Ave, Hartford, CT 06106", "city": "Hartford", "phone": "+1 860-547-0306", "website": "https://www.womenshealthct.com/practices/womens-comprehensive-health-care/our-team/jennifer-h-grant-m-d", "rating": 4.9, "reviews": 270, "place_id": "ChIJeVFaZxNT5okRKs8ZmWEy3uo", "latitude": 41.7530717, "longitude": -72.6786334, "care_type": "OB-GYN"}, {"name": "Gynecology and Obstetrics \u2013 A Women's Health Connecticut Practice", "address": "100 Retreat Ave #201, Hartford, CT 06106", "city": "Hartford", "phone": "+1 860-246-8568", "website": "https://www.womenshealthct.com/practices/gynecology-and-obstetrics/", "rating": 2.7, "reviews": 41, "place_id": "ChIJ2x-dZxNT5okRZFWzhjRPu6g", "latitude": 41.7530729, "longitude": -72.67867489999999, "care_type": "OB-GYN"}, {"name": "Connecticut Women OB/GYN", "address": "345 N Main St #242, West Hartford, CT 06117", "city": "West Hartford", "phone": "+1 860-231-1644", "website": "http://www.womenshealthct.com/practices/connecticut-women-ob-gyn", "rating": 4.8, "reviews": 16, "place_id": "ChIJp0m2oH2r54kROcw8vedw8Pc", "latitude": 41.7852359, "longitude": -72.7480657, "care_type": "OB-GYN"}, {"name": "Peggy Ku, DO, FACOG", "address": "345 N Main St #242, West Hartford, CT 06117", "city": "West Hartford", "phone": "+1 860-840-2537", "website": "https://www.trinityhealthofne.org/provider/peggy-ku-do-obstetrics-gynecology", "rating": 4.9, "reviews": 374, "place_id": "ChIJR3mpooKs54kRoTOkrgaWYX4", "latitude": 41.785189, "longitude": -72.7479087, "care_type": "OB-GYN"}, {"name": "Gayle Harris, MD, FACOG", "address": "345 N Main St #242, West Hartford, CT 06117", "city": "West Hartford", "phone": "+1 860-231-1644", "website": "https://www.womenshealthct.com/practices/connecticut-women-ob-gyn/", "rating": 4.8, "reviews": 224, "place_id": "ChIJR3mpooKs54kRnGX7Y5PjnFk", "latitude": 41.785189, "longitude": -72.7479087, "care_type": "OB-GYN"}, {"name": "Dr Kristine P. Macomber", "address": "345 N Main St Suite 201, West Hartford, CT 06117", "city": "West Hartford", "phone": "+1 860-561-7222", "website": "http://www.womenshealthct.com/practices/greater-hartford-womens-health-associates/our-team/kristine-p-macomber-m-d", "rating": 5.0, "reviews": 278, "place_id": "ChIJv3RgsFWr54kRukt_SGzP_hQ", "latitude": 41.785189, "longitude": -72.7479087, "care_type": "OB-GYN"}, {"name": "Rachel Nelson, MD", "address": "345 N Main St Suite 201, West Hartford, CT 06117", "city": "West Hartford", "phone": "+1 860-561-7222", "website": "http://www.womenshealthct.com/practices/greater-hartford-womens-health-associates/our-team/rachel-b-nelson-m-d", "rating": 4.9, "reviews": 342, "place_id": "ChIJu0Zdl2ir54kRjYbBDNaqvak", "latitude": 41.785189, "longitude": -72.7479087, "care_type": "OB-GYN"}, {"name": "Dr. Marine Torosyan-Sahakyan, MD", "address": "345 N Main St #201, West Hartford, CT 06117", "city": "West Hartford", "phone": "+1 860-561-7222", "website": "https://womenshealthct.com/practices/greater-hartford-womens-health-associates/providers/marine-torosyan-sahakyan-md", "rating": 4.9, "reviews": 531, "place_id": "ChIJR3mpooKs54kRabIYvSLxg_c", "latitude": 41.785189, "longitude": -72.7479087, "care_type": "OB-GYN"}, {"name": "Michael P. Hemphill, M.D.", "address": "345 N Main St #201, West Hartford, CT 06117", "city": "West Hartford", "phone": "+1 860-561-7222", "website": "http://www.womenshealthct.com/practices/greater-hartford-womens-health-associates/our-team/michael-p-hemphill-m-d", "rating": 4.9, "reviews": 534, "place_id": "ChIJR3mpooKs54kRJhveDkABNXI", "latitude": 41.785189, "longitude": -72.7479087, "care_type": "OB-GYN"}, {"name": "Ewa Jacunski, M.D.", "address": "345 N Main St #201, West Hartford, CT 06117", "city": "West Hartford", "phone": "+1 860-561-7222", "website": "http://www.womenshealthct.com/", "rating": 4.9, "reviews": 283, "place_id": "ChIJR3mpooKs54kRr7g2SwKjqQ4", "latitude": 41.785189, "longitude": -72.7479087, "care_type": "OB-GYN"}, {"name": "Emily J. Mills, M.D.", "address": "345 N Main St Suite 201, West Hartford, CT 06117", "city": "West Hartford", "phone": "+1 860-561-7222", "website": "http://www.womenshealthct.com/practices/greater-hartford-womens-health-associates/our-team/emily-j-mills-m-d", "rating": 5.0, "reviews": 356, "place_id": "ChIJHa2BDnCr54kRU4pKReRDSnM", "latitude": 41.785189, "longitude": -72.7479087, "care_type": "OB-GYN"}, {"name": "Amanda Silverman, A.P.R.N.", "address": "345 N Main St Suite 201, West Hartford, CT 06117", "city": "West Hartford", "phone": "+1 860-651-7222", "website": "http://www.womenshealthct.com/practices/greater-hartford-womens-health-associates/our-team/amanda-silverman-a-p-r-n", "rating": 4.7, "reviews": 13, "place_id": "ChIJ9Uhen1qr54kRlkYPOITiidg", "latitude": 41.785189, "longitude": -72.7479087, "care_type": "OB-GYN"}, {"name": "Rachel LaMonica, DO", "address": "1000 Asylum Ave # 1026, Hartford, CT 06105", "city": "Hartford", "phone": "+1 860-714-4440", "website": "https://www.trinityhealthofne.org/provider/rachel-lamonica-do-obstetrics-gynecology", "rating": 5.0, "reviews": 401, "place_id": "ChIJIUJXjOKt54kRHTtkzlzBUsM", "latitude": 41.7728367, "longitude": -72.6986953, "care_type": "OB-GYN"}, {"name": "Giana Craig, MD", "address": "345 N Main St Suite 201, West Hartford, CT 06117", "city": "West Hartford", "phone": "+1 860-561-7222", "website": "https://womenshealthct.com/practices/greater-hartford-womens-health-associates/providers/giana-craig-md/", "rating": 5.0, "reviews": 266, "place_id": "ChIJF9hWxCer54kRFz_K69WBpTM", "latitude": 41.785189, "longitude": -72.7479087, "care_type": "OB-GYN"}, {"name": "Janice Hartnett, MD", "address": "111 Park St, Hartford, CT 06106", "city": "Hartford", "phone": "+1 860-972-2780", "website": "https://hartfordhealthcaremedicalgroup.org/JaniceHartnett", "rating": 5.0, "reviews": 89, "place_id": "ChIJ2c6NXRNT5okR5LIdIUMcCtM", "latitude": 41.757155, "longitude": -72.6779722, "care_type": "OB-GYN"}, {"name": "Dr. Molly Shipman, DO", "address": "19 Woodland St STE 31, Hartford, CT 06105", "city": "Hartford", "phone": "+1 860-409-1540", "website": "https://womenshealthct.com/practices/woodland-womens-health-associates/providers/molly-shipman-do/", "rating": 5.0, "reviews": 409, "place_id": "ChIJQQ9uU7XB54kRLw-fMjM5E8w", "latitude": 41.7686098, "longitude": -72.7024701, "care_type": "OB-GYN"}, {"name": "Dr. Helen F. Trymbulak, MD", "address": "345 N Main St #201, West Hartford, CT 06117", "city": "West Hartford", "phone": "+1 860-561-7222", "website": "http://www.womenshealthct.com/practices/greater-hartford-womens-health-associates/our-team/helen-f-trymbulak-m-d", "rating": 4.9, "reviews": 485, "place_id": "ChIJR3mpooKs54kR5LgJxstyvKw", "latitude": 41.785189, "longitude": -72.7479087, "care_type": "OB-GYN"}, {"name": "Dr. Kathleen M. Gabriel, DO", "address": "19 Woodland St, Hartford, CT 06105", "city": "Hartford", "phone": "+1 860-728-1212", "website": "https://womenshealthct.com/practices/woodland-womens-health-associates/providers/kathleen-gabriele-do/", "rating": 5.0, "reviews": 375, "place_id": "ChIJk64mllFT5okRksAgzanDG7w", "latitude": 41.7686098, "longitude": -72.7024701, "care_type": "OB-GYN"}, {"name": "Dr. Felice Colliton, MD", "address": "19 Woodland St STE 31, Hartford, CT 06105", "city": "Hartford", "phone": "+1 860-728-1212", "website": "https://womenshealthct.com/practices/woodland-womens-health-associates/providers/felice-colliton-md/", "rating": 5.0, "reviews": 575, "place_id": "ChIJk64mllFT5okRTkCQEXg4VeU", "latitude": 41.7687111, "longitude": -72.7028283, "care_type": "OB-GYN"}, {"name": "Greater Hartford Women's Health Associates", "address": "100 Retreat Ave Suite 305, Hartford, CT 06106", "city": "Hartford", "phone": "+1 860-561-7222", "website": "https://womenshealthct.com/practices/greater-hartford-womens-health-associates/", "rating": 3.0, "reviews": 12, "place_id": "ChIJ99xnZxNT5okRxmdeUxSVM_k", "latitude": 41.7544695, "longitude": -72.6816584, "care_type": "OB-GYN"}, {"name": "Trinity Health Of New England - OB/GYN & Nurse Midwifery", "address": "1000 Asylum Ave # 1026, Hartford, CT 06105", "city": "Hartford", "phone": "+1 860-714-4440", "website": "https://www.trinityhealthofne.org/location/trinity-health-of-new-england-medical-group-obgyn-nurse-midwifery", "rating": 4.7, "reviews": 130, "place_id": "ChIJwUEvHhRT5okReqyBg-knVdI", "latitude": 41.7728367, "longitude": -72.6986953, "care_type": "OB-GYN"}, {"name": "Bonnie Campbell, DO, FACOG", "address": "19 Woodland St STE 31, Hartford, CT 06105", "city": "Hartford", "phone": "+1 860-728-1212", "website": "https://www.womenshealthct.com/practices/woodland-womens-health-associates/", "rating": 4.9, "reviews": 142, "place_id": "ChIJgXMBi_RT5okR_U6efNlB-yI", "latitude": 41.76866709999999, "longitude": -72.7026492, "care_type": "OB-GYN"}, {"name": "Dr. Lakshmi Magavi, MD", "address": "19 Woodland St STE 31, Hartford, CT 06105", "city": "Hartford", "phone": "+1 860-728-1212", "website": "https://womenshealthct.com/practices/woodland-womens-health-associates/providers/lakshmi-magavi-md/", "rating": 5.0, "reviews": 384, "place_id": "ChIJCfgwxrRT5okR7f4-MFuy3Sc", "latitude": 41.7686098, "longitude": -72.7024701, "care_type": "OB-GYN"}, {"name": "Dr. Stephen Fishman, MD", "address": "19 Woodland St STE 31, Hartford, CT 06105", "city": "Hartford", "phone": "+1 860-728-1212", "website": "https://womenshealthct.com/practices/woodland-womens-health-associates/providers/stephen-fishman-md", "rating": 4.8, "reviews": 307, "place_id": "ChIJk64mllFT5okRrM1IoGOzs9E", "latitude": 41.7687192, "longitude": -72.70283409999999, "care_type": "OB-GYN"}, {"name": "Woodland Women's Health Associates \u2013 A Women's Health Connecticut Practice", "address": "19 Woodland St STE 31, Hartford, CT 06105", "city": "Hartford", "phone": "+1 860-728-1212", "website": "https://www.womenshealthct.com/practices/woodland-womens-health-associates/", "rating": 3.3, "reviews": 26, "place_id": "ChIJiX0mllFT5okROeHcvrbdoU0", "latitude": 41.7687245, "longitude": -72.70285779999999, "care_type": "OB-GYN"}, {"name": "Trinity Health of New England Medical Group - Gynecologic Oncology", "address": "114 Woodland St CWHC, Hartford, CT 06105", "city": "Hartford", "phone": "+1 860-714-7945", "website": "https://www.trinityhealthofne.org/location/trinity-health-of-new-england-medical-group-gynecologic-oncology", "rating": 4.9, "reviews": 54, "place_id": "ChIJATR0AyhT5okRljLvoQySbWk", "latitude": 41.77402379999999, "longitude": -72.6985621, "care_type": "OB-GYN"}, {"name": "Dr. Meghan Malentacchi, MD", "address": "19 Woodland St STE 31, Hartford, CT 06105", "city": "Hartford", "phone": "+1 860-728-1212", "website": "https://womenshealthct.com/practices/woodland-womens-health-associates/providers/meghan-malentacchi-md/", "rating": 5.0, "reviews": 126, "place_id": "ChIJV9AycVRT5okRL0Z5IPcJDok", "latitude": 41.76866709999999, "longitude": -72.7026492, "care_type": "OB-GYN"}, {"name": "Erin Hartnett, MD", "address": "114 Woodland St CWHC, Hartford, CT 06105", "city": "Hartford", "phone": "+1 860-714-7945", "website": "https://www.trinityhealthofne.org/provider/erin-greenberg-hartnett-md-obstetrics-gynecology", "rating": 4.9, "reviews": 46, "place_id": "ChIJV_cvi71T5okRj8Kiyd21TIQ", "latitude": 41.77402379999999, "longitude": -72.6985621, "care_type": "OB-GYN"}, {"name": "Jamie L. Benway, MD", "address": "100 Retreat Ave STE 700, Hartford, CT 06106", "city": "Hartford", "phone": "+1 860-547-0306", "website": "https://www.womenshealthct.com/practices/womens-comprehensive-health-care/providers/jamie-l-benway-md/", "rating": 4.9, "reviews": 122, "place_id": "ChIJg8VJCAVT5okR5k-1lUnR4l0", "latitude": 41.7530735, "longitude": -72.67865789999999, "care_type": "OB-GYN"}, {"name": "St Francis Hospital : Obstetrics & Gynecology", "address": "1000 Asylum Ave # 1026, Hartford, CT 06105", "city": "Hartford", "phone": "+1 860-714-4440", "website": "", "rating": 2.9, "reviews": 11, "place_id": "ChIJgcsFwFdT5okRDcFu1EjK4-I", "latitude": 41.7727849, "longitude": -72.6986783, "care_type": "OB-GYN"}, {"name": "Women\u2019s Health CT", "address": "21 Woodland St # 112, Hartford, CT 06105", "city": "Hartford", "phone": "+1 860-763-4001", "website": "https://www.womenshealthct.com/womens_health_group", "rating": 5.0, "reviews": 1, "place_id": "ChIJpcX89Hr_5okRaVBCpa-ojQc", "latitude": 41.769016, "longitude": -72.7023928, "care_type": "OB-GYN"}, {"name": "Hoffman Deborah MD", "address": "345 N Main St #201, West Hartford, CT 06117", "city": "West Hartford", "phone": "+1 860-561-7222", "website": "https://www.womenshealthct.com/greater_hartford_womens_health_associates/appointments_and_locations", "rating": 5.0, "reviews": 1, "place_id": "ChIJR3mpooKs54kRSTRXpFemnwY", "latitude": 41.785189, "longitude": -72.7479087, "care_type": "OB-GYN"}, {"name": "Amy Johnson, MD", "address": "111 Park St, Hartford, CT 06106", "city": "Hartford", "phone": "+1 860-972-2780", "website": "https://hartfordhealthcaremedicalgroup.org/AmyJohnson", "rating": 5.0, "reviews": 20, "place_id": "ChIJo8ltdWBT5okRciaazYz0c2U", "latitude": 41.757155, "longitude": -72.6779722, "care_type": "OB-GYN"}, {"name": "Bourque Michael R MD", "address": "19 Woodland St STE 31, Hartford, CT 06105", "city": "Hartford", "phone": "+1 860-728-1212", "website": "http://www.womenshealthct.com/practices/woodland-womens-health-associates", "rating": 5.0, "reviews": 234, "place_id": "ChIJk64mllFT5okR3G1TOFPBEhk", "latitude": 41.7687192, "longitude": -72.7028342, "care_type": "OB-GYN"}, {"name": "Purcell Elizabeth O MD", "address": "100 Retreat Ave, Hartford, CT 06106", "city": "Hartford", "phone": "+1 860-246-8568", "website": "", "rating": 4.9, "reviews": 461, "place_id": "ChIJeVFaZxNT5okRh36GrQ8qJk8", "latitude": 41.7530765, "longitude": -72.67866699999999, "care_type": "OB-GYN"}, {"name": "Anastasia Marie Hallisey, CNM", "address": "114 Woodland St, Hartford, CT 06105", "city": "Hartford", "phone": "+1 860-714-4440", "website": "https://www.trinityhealthofne.org/provider/anastasia-marie-hallisey-cnm-midwife-certified-nurse", "rating": 5.0, "reviews": 113, "place_id": "ChIJfYmHQ41T5okRvnBhuHDjplU", "latitude": 41.7745877, "longitude": -72.6984919, "care_type": "OB-GYN"}, {"name": "Women's After-Hours Care in Farmington", "address": "8 Two Mile Rd Suite 204, Farmington, CT 06032", "city": "Farmington", "phone": "+1 860-507-1550", "website": "https://www.womenshealthct.com/practices/women-s-after-hours-care/", "rating": 4.7, "reviews": 245, "place_id": "ChIJc5lqrpCv54kR68lHiSKwvXk", "latitude": 41.7214727, "longitude": -72.78923879999999, "care_type": "OB-GYN"}, {"name": "Stephanie Chung, MD", "address": "100 Retreat Ave STE 700, Hartford, CT 06106", "city": "Hartford", "phone": "+1 860-547-0306", "website": "https://womenshealthct.com/practices/womens-comprehensive-health-care/providers/stephanie-chung-md/", "rating": 4.9, "reviews": 119, "place_id": "ChIJU4j5vypT5okR_m3CxVxvqCk", "latitude": 41.7530735, "longitude": -72.67865789999999, "care_type": "OB-GYN"}, {"name": "Randy D. Berke, M.D.", "address": "449 Farmington Ave, Hartford, CT 06105", "city": "Hartford", "phone": "+1 860-236-5431", "website": "https://womenshealthct.com/practices/s-h-e-medical-associates/providers/randy-d-berke-md", "rating": 4.9, "reviews": 207, "place_id": "ChIJT6Kdl01T5okRc_a9HrHgOnk", "latitude": 41.7665462, "longitude": -72.7059618, "care_type": "OB-GYN"}, {"name": "Cohen Mario MD", "address": "345 N Main St #201, West Hartford, CT 06117", "city": "West Hartford", "phone": "+1 860-561-7222", "website": "", "rating": 4.9, "reviews": 56, "place_id": "ChIJR3mpooKs54kRRTyyb7Jhfcg", "latitude": 41.785189, "longitude": -72.7479087, "care_type": "OB-GYN"}, {"name": "Meaghan Goode, PA-C", "address": "345 N Main St Suite 201, West Hartford, CT 06117", "city": "West Hartford", "phone": "+1 860-561-7222", "website": "https://www.womenshealthct.com/practices/greater-hartford-womens-health-associates/", "rating": 4.8, "reviews": 27, "place_id": "ChIJJ04pL3qr54kReghgdGkAN2s", "latitude": 41.785189, "longitude": -72.7479087, "care_type": "OB-GYN"}, {"name": "Woodland Women's Health Associates \u2013 A Women's Health Connecticut Practice", "address": "35 Nod Rd # 203, Avon, CT 06001", "city": "Avon", "phone": "+1 860-409-1540", "website": "https://www.womenshealthct.com/practices/woodland-womens-health-associates/", "rating": 4.2, "reviews": 26, "place_id": "ChIJWRt0z0Sp54kRDJGHve6yEoc", "latitude": 41.8073473, "longitude": -72.8175536, "care_type": "OB-GYN"}, {"name": "Breast Health Center at the Comprehensive Women's Health Center", "address": "114 Woodland St, Hartford, CT 06105", "city": "Hartford", "phone": "+1 860-714-4000", "website": "", "rating": 4.3, "reviews": 15, "place_id": "ChIJgcsFwFdT5okRMQshpn6R0V4", "latitude": 41.7747019, "longitude": -72.6991819, "care_type": "OB-GYN"}, {"name": "Kathryn Pascucci, DO, FACOG", "address": "345 N Main St #242, West Hartford, CT 06117", "city": "West Hartford", "phone": "+1 860-840-2537", "website": "", "rating": 5.0, "reviews": 3, "place_id": "ChIJDw7IC32r54kRnKeUepkEgwE", "latitude": 41.7852359, "longitude": -72.7480657, "care_type": "OB-GYN"}, {"name": "Karyn Hansen, MD", "address": "114 Woodland St CWHC, Hartford, CT 06105", "city": "Hartford", "phone": "+1 860-714-7945", "website": "https://www.trinityhealthofne.org/provider/karyn-j-hansen-md-obstetrics-gynecology", "rating": 4.9, "reviews": 55, "place_id": "ChIJbckKYQJT5okRhyMgh7VqHQ4", "latitude": 41.77402379999999, "longitude": -72.6985621, "care_type": "OB-GYN"}, {"name": "Karl J. Krapek, Sr. Comprehensive Women's Health Center at Saint Francis Hospital", "address": "114 Woodland St, Hartford, CT 06105", "city": "Hartford", "phone": "+1 860-714-1333", "website": "https://www.trinityhealthofne.org/location/karl-j-krapek-sr-comprehensive-womens-health-center-at-saint-francis-hospital", "rating": 4.4, "reviews": 13, "place_id": "ChIJIZ_YlVdT5okRhsZcmMv749o", "latitude": 41.7746705, "longitude": -72.6990909, "care_type": "OB-GYN"}, {"name": "Mark Wolf, MD", "address": "1000 Asylum Ave # 1026, Hartford, CT 06105", "city": "Hartford", "phone": "+1 860-714-4378", "website": "https://www.trinityhealthofne.org/provider/mark-g-wolf-md-obstetrics-gynecology", "rating": 4.3, "reviews": 7, "place_id": "ChIJuXtq8ndT5okRKN0DKBaN5-A", "latitude": 41.7728367, "longitude": -72.6986953, "care_type": "OB-GYN"}, {"name": "Marguerite Palisoul, MD", "address": "85 Seymour St STE 705, Hartford, CT 06106", "city": "Hartford", "phone": "+1 860-972-4341", "website": "https://hartfordhealthcaremedicalgroup.org/MargueritePalisoul", "rating": 5.0, "reviews": 77, "place_id": "ChIJAdR13cpT5okR9qYj2FszBCs", "latitude": 41.7544767, "longitude": -72.6820975, "care_type": "OB-GYN"}, {"name": "Lauren Lewis, MD", "address": "1000 Asylum Ave # 1026, Hartford, CT 06105", "city": "Hartford", "phone": "+1 860-714-4440", "website": "https://www.trinityhealthofne.org/provider/lauren-m-lewis-md-obstetrics-gynecology", "rating": 5.0, "reviews": 57, "place_id": "ChIJh4OL_wVT5okRIYCc6zGT3Yg", "latitude": 41.7728367, "longitude": -72.6986953, "care_type": "OB-GYN"}, {"name": "Hoffman Deborah S MD", "address": "100 Retreat Ave, Hartford, CT 06106", "city": "Hartford", "phone": "+1 860-561-7222", "website": "http://www.womenshealthct.com/", "rating": 4.9, "reviews": 67, "place_id": "ChIJeVFaZxNT5okRMcC1iOhyf0M", "latitude": 41.7530717, "longitude": -72.6786334, "care_type": "OB-GYN"}, {"name": "Elizabeth Deckers, MD", "address": "111 Park St, Hartford, CT 06106", "city": "Hartford", "phone": "+1 860-972-2780", "website": "https://hartfordhealthcaremedicalgroup.org/ElizabethDeckers", "rating": 5.0, "reviews": 1, "place_id": "ChIJGf-GsWxT5okRU8NMq2tPlhM", "latitude": 41.757155, "longitude": -72.6779722, "care_type": "OB-GYN"}, {"name": "Dr. Marian F. Kellner, MD", "address": "8 Ellsworth Rd #2, West Hartford, CT 06107", "city": "West Hartford", "phone": "+1 860-233-8523", "website": "", "rating": null, "reviews": 0, "place_id": "ChIJceqtbe6s54kRSshTTQB40Tk", "latitude": 41.75842309999999, "longitude": -72.7435065, "care_type": "OB-GYN"}, {"name": "Anna Natenzon, MD", "address": "114 Woodland St 4th Floor, Hartford, CT 06105", "city": "Hartford", "phone": "+1 860-714-4378", "website": "https://www.trinityhealthofne.org/provider/anna-natenzon-md-obstetrics-gynecology", "rating": 1.0, "reviews": 1, "place_id": "ChIJYaNLq-NT5okRexNzRFKQcgQ", "latitude": 41.7745877, "longitude": -72.6984919, "care_type": "OB-GYN"}, {"name": "Dr. Beth E. Nelson, MD", "address": "1000 Asylum Ave # 2110, Hartford, CT 06105", "city": "Hartford", "phone": "+1 860-714-7945", "website": "", "rating": 5.0, "reviews": 1, "place_id": "ChIJ92EVVldT5okRcleNIGn9fug", "latitude": 41.77288859999999, "longitude": -72.6987123, "care_type": "OB-GYN"}, {"name": "Adam Frank Borgida, MD", "address": "65 Memorial Rd #430, West Hartford, CT 06107", "city": "West Hartford", "phone": "+1 860-545-2884", "website": "", "rating": null, "reviews": 0, "place_id": "ChIJ__8_c-ys54kRjZjCxYFqA9g", "latitude": 41.7595854, "longitude": -72.7400392, "care_type": "OB-GYN"}, {"name": "Stephanie Bakaysa", "address": "65 Memorial Rd, West Hartford, CT 06107", "city": "West Hartford", "phone": "+1 860-545-3621", "website": "https://hartfordhospital.org/StephanieBakaysa", "rating": null, "reviews": 0, "place_id": "ChIJ__8_c-ys54kRFGCw6b-so0c", "latitude": 41.7596134, "longitude": -72.73973289999999, "care_type": "OB-GYN"}, {"name": "Janice Hartnett", "address": "65 Memorial Rd, West Hartford, CT 06107", "city": "West Hartford", "phone": "+1 860-872-2780", "website": "", "rating": null, "reviews": 0, "place_id": "ChIJ__8_c-ys54kRojtFhSsnp0o", "latitude": 41.7596134, "longitude": -72.73973289999999, "care_type": "OB-GYN"}, {"name": "Dr. Shannon C. Peterson, DO", "address": "21 Woodland St # 112, Hartford, CT 06105", "city": "Hartford", "phone": "+1 860-278-4141", "website": "https://womenshealthct.com/practices/womens-health-group/providers/shannon-c-peterson-do", "rating": 5.0, "reviews": 1, "place_id": "ChIJyYDvolFT5okRFW6Y9wyfNHU", "latitude": 41.769016, "longitude": -72.7023928, "care_type": "OB-GYN"}, {"name": "Griswold Pamela C, MD", "address": "8 Ellsworth Rd #2, West Hartford, CT 06107", "city": "West Hartford", "phone": "+1 860-233-8523", "website": "", "rating": null, "reviews": 0, "place_id": "ChIJceqtbe6s54kRJXm0rtzZDgM", "latitude": 41.75842309999999, "longitude": -72.7435065, "care_type": "OB-GYN"}, {"name": "Christina Bonnet, CNM", "address": "1000 Asylum Ave # 1026, Hartford, CT 06105", "city": "Hartford", "phone": "+1 860-528-1359", "website": "https://www.trinityhealthofne.org/provider/christina-marie-bonnet-cnm-midwife-certified-nurse", "rating": 4.5, "reviews": 8, "place_id": "ChIJrxH36kNT5okRX31dl0N_UbM", "latitude": 41.7728367, "longitude": -72.6986953, "care_type": "OB-GYN"}, {"name": "Brian Riley, DO", "address": "1000 Asylum Ave # 1026, Hartford, CT 06105", "city": "Hartford", "phone": "+1 860-714-4440", "website": "https://www.trinityhealthofne.org/provider/brian-james-riley-do-obstetrics-gynecology", "rating": 5.0, "reviews": 8, "place_id": "ChIJRQH3FbtT5okR6z9piJHOHjs", "latitude": 41.7728367, "longitude": -72.6986953, "care_type": "OB-GYN"}, {"name": "Farwell Mary E MD", "address": "100 Retreat Ave STE 700, Hartford, CT 06106", "city": "Hartford", "phone": "+1 860-547-0306", "website": "https://womenshealthct.com/practices/womens-comprehensive-health-care/providers/mary-e-farwell-md/", "rating": 4.6, "reviews": 10, "place_id": "ChIJeVFaZxNT5okRP8Bc6GDJXGg", "latitude": 41.7530717, "longitude": -72.6786334, "care_type": "OB-GYN"}, {"name": "Had Women\u2019s Health", "address": "345 N Main St, West Hartford, CT 06117", "city": "West Hartford", "phone": "", "website": "", "rating": null, "reviews": 0, "place_id": "ChIJK06zG9mr54kRi-lUNIHwkAU", "latitude": 41.785189, "longitude": -72.7479087, "care_type": "OB-GYN"}, {"name": "Veronica Maria Pimentel, MD", "address": "114 Woodland St 4th Floor, Hartford, CT 06105", "city": "Hartford", "phone": "+1 860-714-4378", "website": "https://www.trinityhealthofne.org/provider/veronica-maria-pimentel-md-obstetrics-gynecology", "rating": 4.3, "reviews": 6, "place_id": "ChIJ3ZMXy6hT5okR6uQMU0IbKXw", "latitude": 41.7741739, "longitude": -72.6982897, "care_type": "OB-GYN"}, {"name": "Miwako Ohta-Agresta, CNM", "address": "449 Farmington Ave, Hartford, CT 06105", "city": "Hartford", "phone": "+1 860-236-5431", "website": "https://womenshealthct.com/practices/s-h-e-medical-associates/providers/miwako-ohta-agresta-cnm", "rating": 4.8, "reviews": 104, "place_id": "ChIJKXn_2Te654kRCS5B7wrMn3Y", "latitude": 41.7665166, "longitude": -72.7059781, "care_type": "OB-GYN"}, {"name": "Shanna Gannon", "address": "65 Memorial Rd #430, West Hartford, CT 06107", "city": "West Hartford", "phone": "+1 860-547-0616", "website": "", "rating": null, "reviews": 0, "place_id": "ChIJ__8_c-ys54kRffU3iQOmWrs", "latitude": 41.7596232, "longitude": -72.7398813, "care_type": "OB-GYN"}, {"name": "Wellness Center at Blue Back Square", "address": "65 Memorial Rd #410, West Hartford, CT 06107", "city": "West Hartford", "phone": "+1 860-696-2870", "website": "https://hartfordhealthcaremedicalgroup.org/locations/location-details%3Fid%3Da1P0a000005lteDEAQ", "rating": 1.0, "reviews": 1, "place_id": "ChIJqXPIVlWt54kRNjgKdszzT2U", "latitude": 41.7596232, "longitude": -72.7398813, "care_type": "OB-GYN"}, {"name": "Dr. Vinay R. Ranade, MD", "address": "345 N Main St #201, West Hartford, CT 06117", "city": "West Hartford", "phone": "+1 860-561-7222", "website": "", "rating": null, "reviews": 0, "place_id": "ChIJR3mpooKs54kRuNNUdMFlFzQ", "latitude": 41.785189, "longitude": -72.7479087, "care_type": "OB-GYN"}, {"name": "Timothy Machon", "address": "21 Woodland St # 112, Hartford, CT 06105", "city": "Hartford", "phone": "+1 860-278-4141", "website": "", "rating": 5.0, "reviews": 1, "place_id": "ChIJ8xBimFFT5okRJ7B3X-2XF8c", "latitude": 41.769016, "longitude": -72.7023928, "care_type": "OB-GYN"}, {"name": "Trinity Health Of New England Medical Group - Maternal Fetal Medicine", "address": "114 Woodland St 4th Floor, Hartford, CT 06105", "city": "Hartford", "phone": "+1 860-714-4378", "website": "https://www.trinityhealthofne.org/location/trinity-health-of-new-england-medical-group-maternal-fetal-medicine", "rating": 5.0, "reviews": 1, "place_id": "ChIJ5wNisPNT5okR84lIT4V1aAE", "latitude": 41.7741842, "longitude": -72.69835429999999, "care_type": "OB-GYN"}, {"name": "Dr. Christine Lasala", "address": "85 Seymour St MOB525, Hartford, CT 06106", "city": "Hartford", "phone": "+1 860-545-1900", "website": "https://www.hartfordhospital.org/ChristineLasala", "rating": 5.0, "reviews": 2, "place_id": "ChIJq6rqM2tT5okRmFeoS4NHPZg", "latitude": 41.7544767, "longitude": -72.6820975, "care_type": "OB-GYN"}, {"name": "Conway Xu, MD", "address": "85 Seymour St STE 705, Hartford, CT 06106", "city": "Hartford", "phone": "+1 860-972-4341", "website": "https://hartfordhealthcaremedicalgroup.org/ConwayXu", "rating": null, "reviews": 0, "place_id": "ChIJMX8wsqVT5okRQessfICwivQ", "latitude": 41.7544767, "longitude": -72.6820975, "care_type": "OB-GYN"}, {"name": "Dr. Phillip Y. Roland, MD", "address": "1000 Asylum Ave # 3200, Hartford, CT 06105", "city": "Hartford", "phone": "+1 860-714-4995", "website": "http://www.stfranciscare.org/", "rating": 5.0, "reviews": 1, "place_id": "ChIJ92EVVldT5okRUfm8JHnaElw", "latitude": 41.7724808, "longitude": -72.698422, "care_type": "OB-GYN"}, {"name": "Saidel Matthew L MD", "address": "100 Retreat Ave STE 506, Hartford, CT 06106", "city": "Hartford", "phone": "+1 860-522-9947", "website": "", "rating": 4.3, "reviews": 4, "place_id": "ChIJeVFaZxNT5okR5ACQHxnr504", "latitude": 41.7530765, "longitude": -72.67866699999999, "care_type": "OB-GYN"}, {"name": "AMANDA ULRICH", "address": "263 Farmington Ave, Farmington, CT 060300001", "city": "Farmington", "phone": "+1 860-679-7503", "website": "", "rating": 4.0, "reviews": 8, "place_id": "ChIJq6qOz8Ot54kRtH9Pwq_TVc8", "latitude": 41.7348386, "longitude": -72.7874059, "care_type": "OB-GYN"}, {"name": "Northeast Medical Group Obstetrics and Gynecology - Greenwich", "address": "500 West Putnam Avenue Suite 300, Greenwich, CT 06830", "city": "Greenwich", "phone": "+1 475-240-8222", "website": "https://www.northeastmedicalgroup.org/locations/greenwich-500-west-putnam-avenue-obgyn.aspx", "rating": 3.0, "reviews": 2, "place_id": "ChIJE0-6wwOZwokRpTg-TCg99O8", "latitude": 41.0179263, "longitude": -73.64525069999999, "care_type": "OB-GYN"}, {"name": "Dr. Lealani Rodriguez, MD", "address": "500 West Putnam Avenue, Greenwich, CT 06830", "city": "Greenwich", "phone": "+1 475-240-8222", "website": "http://www.northeastmedicalgroup.org/", "rating": 4.5, "reviews": 74, "place_id": "ChIJoVewzzQI6IkRl4GDAzqgWC0", "latitude": 41.0179263, "longitude": -73.64525069999999, "care_type": "OB-GYN"}, {"name": "Janice Christine Teixeira, DO - Ob/Gyn - Northeast Medical Group", "address": "500 West Putnam Avenue Suite 300, Greenwich, CT 06830", "city": "Greenwich", "phone": "+1 475-240-8222", "website": "https://www.northeastmedicalgroup.org/physicians/janice-teixeira", "rating": 3.6, "reviews": 17, "place_id": "ChIJxX_IrLbBwokR5M2hdJE21N0", "latitude": 41.0179263, "longitude": -73.64525069999999, "care_type": "OB-GYN"}, {"name": "Donna Hagberg, MD", "address": "31 River Rd UNIT 102, Cos Cob, CT 06807", "city": "Cos Cob", "phone": "+1 203-742-1150", "website": "https://www.donnahagbergmd.com/", "rating": 5.0, "reviews": 158, "place_id": "ChIJkyXbYo2YwokRFZeKVarKFMk", "latitude": 41.0358469, "longitude": -73.59481439999999, "care_type": "OB-GYN"}, {"name": "Dzwinka K. Carroll, MD", "address": "644 West Putnam Avenue, Greenwich, CT 06830", "city": "Greenwich", "phone": "+1 203-210-2880", "website": "https://www.summithealth.com/doctors/provider/1841325248", "rating": 3.5, "reviews": 16, "place_id": "ChIJw2Ms8dKZwokRdVwpuex3sBs", "latitude": 41.01689229999999, "longitude": -73.64764219999999, "care_type": "OB-GYN"}, {"name": "Dr. Leila J. Garrett, MD", "address": "31 River Rd UNIT 102, Cos Cob, CT 06807", "city": "Cos Cob", "phone": "+1 203-742-1150", "website": "http://www.donnahagbergmd.com/", "rating": 5.0, "reviews": 3, "place_id": "ChIJ4V8IRkeYwokRLbMtOqiTWDY", "latitude": 41.0358563, "longitude": -73.5948031, "care_type": "OB-GYN"}, {"name": "Brookside Gynecology Associates, PC", "address": "75 Holly Hill Ln Suite 305, Greenwich, CT 06830", "city": "Greenwich", "phone": "+1 203-869-7080", "website": "https://brooksidegynecology.com/", "rating": 4.0, "reviews": 2, "place_id": "ChIJCdirNjaYwokRdfqjL4jKXiA", "latitude": 41.0159425, "longitude": -73.64747849999999, "care_type": "OB-GYN"}, {"name": "Greenwich Gynecology & Obstrcs", "address": "15 Valley Dr #202, Greenwich, CT 06831", "city": "Greenwich", "phone": "+1 203-869-5170", "website": "", "rating": null, "reviews": 0, "place_id": "ChIJpY79ANOZwokRAZvWCYpC0mI", "latitude": 41.0196873, "longitude": -73.6449528, "care_type": "OB-GYN"}, {"name": "ESSE Care (Greenwich, Connecticut)", "address": "779 North Street, Greenwich, CT 06831", "city": "Greenwich", "phone": "+1 646-844-9602", "website": "https://esse.care/", "rating": 5.0, "reviews": 12, "place_id": "ChIJ4VLxQ6-jwokRdJTtgLUbQEQ", "latitude": 41.1112079, "longitude": -73.6313807, "care_type": "OB-GYN"}, {"name": "Elizabeth Molinelli, MD", "address": "644 West Putnam Avenue, Greenwich, CT 06830", "city": "Greenwich", "phone": "+1 203-210-2800", "website": "https://www.summithealth.com/doctors/provider/1861419400", "rating": 4.0, "reviews": 4, "place_id": "ChIJw2Ms8dKZwokRbAmOifC4hV8", "latitude": 41.0168812, "longitude": -73.6476313, "care_type": "OB-GYN"}, {"name": "Caterina Violi", "address": "2 1/2 Dearfield Dr, Greenwich, CT 06831", "city": "Greenwich", "phone": "+1 203-861-9586", "website": "https://www.greenwichhospital.org/physicians/caterina-violi", "rating": 3.9, "reviews": 7, "place_id": "ChIJAQCQuDeYwokRT6Wa4ULgCDY", "latitude": 41.0280276, "longitude": -73.6315908, "care_type": "OB-GYN"}, {"name": "Catherine E. Berzolla, MD", "address": "644 West Putnam Avenue, Greenwich, CT 06830", "city": "Greenwich", "phone": "+1 203-210-2800", "website": "https://www.summithealth.com/doctors/provider/1760698872", "rating": 4.0, "reviews": 4, "place_id": "ChIJh2Ms8dKZwokRX-zaO30Ed9Q", "latitude": 41.0168812, "longitude": -73.6476313, "care_type": "OB-GYN"}, {"name": "Beth J. Simon, MD", "address": "500 West Putnam Avenue Suite 300, Greenwich, CT 06830", "city": "Greenwich", "phone": "+1 475-240-8222", "website": "https://www.northeastmedicalgroup.org/physicians/Beth-J-Simon.aspx", "rating": 4.4, "reviews": 7, "place_id": "ChIJw6ajyj32wokRiUKk98WbjDY", "latitude": 41.0179263, "longitude": -73.64525069999999, "care_type": "OB-GYN"}, {"name": "Julianne R. Biroschak, MD", "address": "644 West Putnam Avenue, Greenwich, CT 06830", "city": "Greenwich", "phone": "+1 203-210-2880", "website": "https://www.summithealth.com/doctors/provider/1689800104", "rating": 5.0, "reviews": 7, "place_id": "ChIJ5yuGCOpbwokRVZP92dXJ3J4", "latitude": 41.01689229999999, "longitude": -73.64764219999999, "care_type": "OB-GYN"}, {"name": "Linda Reid, MD", "address": "644 West Putnam Avenue, Greenwich, CT 06830", "city": "Greenwich", "phone": "+1 203-210-2890", "website": "https://www.summithealth.com/doctors/provider/1043237688", "rating": 3.3, "reviews": 12, "place_id": "ChIJw2Ms8dKZwokRmb-8NMBWEmo", "latitude": 41.01689229999999, "longitude": -73.6476421, "care_type": "OB-GYN"}, {"name": "Michele L. Rohr, MD, FACOG", "address": "159 West Putnam Avenue, Greenwich, CT 06830", "city": "Greenwich", "phone": "+1 203-869-7080", "website": "http://brooksidegynecology.com/", "rating": null, "reviews": 0, "place_id": "ChIJCdirNjaYwokRWdqf1rOCZrA", "latitude": 41.0271582, "longitude": -73.6316645, "care_type": "OB-GYN"}, {"name": "Dr. Eleanor A. Berry, MD", "address": "134 Grandview Ave Suite 210, Waterbury, CT 06708", "city": "Waterbury", "phone": "+1 203-754-2535", "website": "https://womenshealthct.com/practices/specialists-in-womens-healthcare/providers/eleanor-a-berry-md", "rating": 4.9, "reviews": 539, "place_id": "ChIJq5viLbXB54kRNmo_vAT7TC8", "latitude": 41.5601695, "longitude": -73.0609609, "care_type": "OB-GYN"}, {"name": "Dr. Marcia L. Tejeda, MD", "address": "60 Westwood Ave #200, Waterbury, CT 06708", "city": "Waterbury", "phone": "+1 203-574-5501", "website": "https://womenshealthct.com/providers/marcia-tejeda-md/", "rating": 4.9, "reviews": 561, "place_id": "ChIJTQluU7XB54kRTEZ_v_fCO64", "latitude": 41.5613421, "longitude": -73.0638168, "care_type": "OB-GYN"}, {"name": "Dr. Elisa Benzoni, DO", "address": "134 Grandview Ave Suite 210, Waterbury, CT 06708", "city": "Waterbury", "phone": "+1 203-754-2535", "website": "http://www.womenshealthct.com/practices/specialists-in-womens-healthcare/our-team/elisa-benzoni-d-o", "rating": 4.9, "reviews": 571, "place_id": "ChIJSYyALbXB54kRNJ5gQnp5R9U", "latitude": 41.5601506, "longitude": -73.0609477, "care_type": "OB-GYN"}, {"name": "Mary Zozulin, M.D.", "address": "60 Westwood Ave #200, Waterbury, CT 06708", "city": "Waterbury", "phone": "+1 203-574-5501", "website": "", "rating": 4.8, "reviews": 349, "place_id": "ChIJTQluU7XB54kRCGoQ78PZCts", "latitude": 41.5613722, "longitude": -73.0637978, "care_type": "OB-GYN"}, {"name": "Dr. John C. Kaczmarek, MD", "address": "134 Grandview Ave, Waterbury, CT 06708", "city": "Waterbury", "phone": "+1 203-754-2535", "website": "https://womenshealthct.com/practices/specialists-in-womens-healthcare/providers/john-c-kaczmarek-md/", "rating": 5.0, "reviews": 757, "place_id": "ChIJq5viLbXB54kRb2t2L0i7qAg", "latitude": 41.5601506, "longitude": -73.0609477, "care_type": "OB-GYN"}, {"name": "Dr. Meghan M. Slemmens, MD", "address": "134 Grandview Ave, Waterbury, CT 06708", "city": "Waterbury", "phone": "+1 203-754-2535", "website": "https://www.womenshealthct.com/", "rating": 4.9, "reviews": 434, "place_id": "ChIJLUMaQEvA54kRiDOHYaIppGk", "latitude": 41.5601506, "longitude": -73.0609477, "care_type": "OB-GYN"}, {"name": "Dr. Melissa M. Pearlstone, MD", "address": "60 Westwood Ave #200, Waterbury, CT 06708", "city": "Waterbury", "phone": "+1 203-574-5501", "website": "https://womenshealthct.com/practices/westwood-womens-health/providers/melissa-m-pearlstone-md/", "rating": 4.8, "reviews": 360, "place_id": "ChIJTQluU7XB54kRWOVj19mmP8s", "latitude": 41.5607189, "longitude": -73.0636682, "care_type": "OB-GYN"}, {"name": "Westwood Women's Health", "address": "60 Westwood Ave #200, Waterbury, CT 06708", "city": "Waterbury", "phone": "+1 203-574-5501", "website": "http://www.womenshealthct.com/practices/westwood-womens-health", "rating": 4.5, "reviews": 91, "place_id": "ChIJoROqqErA54kR6fHA-z2EfkI", "latitude": 41.5613341, "longitude": -73.0638061, "care_type": "OB-GYN"}, {"name": "J. David Millerick, MD", "address": "134 Grandview Ave, Waterbury, CT 06708", "city": "Waterbury", "phone": "+1 203-754-2535", "website": "http://www.womenshealthct.com/practices/specialists-in-womens-healthcare/our-team/j-david-millerick-m-d", "rating": 4.9, "reviews": 469, "place_id": "ChIJTQluU7XB54kR4JLrW_LC5gQ", "latitude": 41.5613726, "longitude": -73.0637887, "care_type": "OB-GYN"}, {"name": "Naugatuck Valley Ob-Gyn Associates", "address": "133 Scovill St #206, Waterbury, CT 06706", "city": "Waterbury", "phone": "+1 203-709-8700", "website": "https://www.trinityhealthofne.org/location/naugatuck-valley-womens-health-specialists-pc", "rating": 2.7, "reviews": 15, "place_id": "ChIJzRVZbAHB54kReP0K8iRQ7rk", "latitude": 41.5536318, "longitude": -73.0364231, "care_type": "OB-GYN"}, {"name": "Naugatuck Valley Women\u2019s Health Specialists", "address": "486 Straits Turnpike, Watertown, CT 06795", "city": "Watertown", "phone": "+1 203-709-8700", "website": "https://www.trinityhealthofne.org/location/naugatuck-valley-womens-health-specialists-0", "rating": 4.4, "reviews": 151, "place_id": "ChIJ6cqg9v7B54kRsjoxKwo40Do", "latitude": 41.5776316, "longitude": -73.1016063, "care_type": "OB-GYN"}, {"name": "Associated Women's Health of Alliance Medical Group", "address": "140 Grandview Ave #202, Waterbury, CT 06708", "city": "Waterbury", "phone": "+1 203-755-2344", "website": "http://www.alliancemedicalgroup.com/", "rating": 3.4, "reviews": 44, "place_id": "ChIJSYyALbXB54kRA-31dr5zD6I", "latitude": 41.5608289, "longitude": -73.0611905, "care_type": "OB-GYN"}, {"name": "Jonathan Foster, M.D.", "address": "60 Westwood Ave #100, Waterbury, CT 06708", "city": "Waterbury", "phone": "+1 203-578-4609", "website": "https://womenshealthct.com/practices/the-center-for-obstetrics-and-gynecology-in-connecticut/providers/jonathan-foster-md/", "rating": 4.9, "reviews": 527, "place_id": "ChIJTQluU7XB54kRpf5-Il5im9o", "latitude": 41.5613412, "longitude": -73.0638482, "care_type": "OB-GYN"}, {"name": "Naugatuck Valley Womens Health Specialists PC MOB", "address": "133 Scovill St #206, Waterbury, CT 06706", "city": "Waterbury", "phone": "+1 203-575-1811", "website": "https://www.trinityhealthofne.org/location/naugatuck-valley-womens-health-specialists-pc-mob", "rating": 4.6, "reviews": 47, "place_id": "ChIJ88cb5ufB54kRXUwOy56rpuQ", "latitude": 41.5536318, "longitude": -73.0364231, "care_type": "OB-GYN"}, {"name": "Barbara Rymer, APRN", "address": "134 Grandview Ave, Waterbury, CT 06708", "city": "Waterbury", "phone": "+1 203-754-2535", "website": "https://www.womenshealthct.com/practices/specialists-in-womens-healthcare/providers/barbara-rymer-aprn-fnp-bc/", "rating": 5.0, "reviews": 37, "place_id": "ChIJjdNa1LTB54kRWaLWevK0xkI", "latitude": 41.5601506, "longitude": -73.0609477, "care_type": "OB-GYN"}, {"name": "Associated Women's Health Specialists", "address": "140 Grandview Ave, Waterbury, CT 06708", "city": "Waterbury", "phone": "+1 203-755-2344", "website": "", "rating": 2.3, "reviews": 29, "place_id": "ChIJzRVZbAHB54kRW0iqEMFSJuA", "latitude": 41.5607712, "longitude": -73.0610669, "care_type": "OB-GYN"}, {"name": "Rachel Leonardi, DO", "address": "486 Straits Turnpike, Watertown, CT 06795", "city": "Watertown", "phone": "+1 203-709-8700", "website": "https://www.trinityhealthofne.org/provider/rachel-l-leonardi-do-obstetrics-gynecology", "rating": 4.9, "reviews": 158, "place_id": "ChIJr9lYrKzB54kRbuQ7R9FJz5c", "latitude": 41.5776316, "longitude": -73.1016063, "care_type": "OB-GYN"}, {"name": "Dr. Ian M. Cohen, MD", "address": "140 Grandview Ave # 202, Waterbury, CT 06708", "city": "Waterbury", "phone": "+1 203-755-2344", "website": "", "rating": 4.6, "reviews": 10, "place_id": "ChIJSYyALbXB54kR5ASrJOk0OOc", "latitude": 41.5602809, "longitude": -73.0611508, "care_type": "OB-GYN"}, {"name": "Alyssa Pilkington, PA", "address": "134 Grandview Ave, Waterbury, CT 06708", "city": "Waterbury", "phone": "+1 203-754-2535", "website": "https://womenshealthct.com/practices/specialists-in-womens-healthcare/providers/alyssa-pilkington-pa/", "rating": 5.0, "reviews": 11, "place_id": "ChIJ5RtEAC_B54kRPwcCaHJDx8I", "latitude": 41.5601506, "longitude": -73.0609477, "care_type": "OB-GYN"}, {"name": "Irina Magidina, MD", "address": "486 Straits Turnpike, Watertown, CT 06795", "city": "Watertown", "phone": "+1 203-709-8700", "website": "https://www.trinityhealthofne.org/provider/irina-magidina-md-obstetrics-gynecology", "rating": 4.9, "reviews": 154, "place_id": "ChIJPfZSjv7B54kRGcGbeSLQe7Y", "latitude": 41.5776316, "longitude": -73.1016063, "care_type": "OB-GYN"}, {"name": "The Modern Woman Health and Wellness Center", "address": "504 Wolcott Rd Suite C, Wolcott, CT 06716", "city": "Wolcott", "phone": "+1 203-441-6676", "website": "https://www.tmw-health.com/", "rating": 5.0, "reviews": 512, "place_id": "ChIJp065JnbB54kRtMGvq7tbEd0", "latitude": 41.5928181, "longitude": -72.9882196, "care_type": "OB-GYN"}, {"name": "Lakeside Women's Health", "address": "18 Merrill St, Waterbury, CT 06708", "city": "Waterbury", "phone": "+1 855-573-4127", "website": "", "rating": 3.0, "reviews": 2, "place_id": "ChIJj_zyzbXB54kR6nzUSBB393g", "latitude": 41.5563005, "longitude": -73.06136719999999, "care_type": "OB-GYN"}, {"name": "Trinity Health Of New England Medical Group - Urogynecology", "address": "133 Scovill St STE 201, Waterbury, CT 06706", "city": "Waterbury", "phone": "+1 860-286-2996", "website": "https://www.trinityhealthofne.org/location/trinity-health-of-new-england-medical-group-urogynecology-4", "rating": 5.0, "reviews": 7, "place_id": "ChIJkc8E6ILB54kRT_-hM3JiEP0", "latitude": 41.5535296, "longitude": -73.0362632, "care_type": "OB-GYN"}, {"name": "Carrie Ann Costa, MSN, CNM, WHNP", "address": "60 Westwood Ave #100, Waterbury, CT 06708", "city": "Waterbury", "phone": "+1 203-578-4609", "website": "https://womenshealthct.com/practices/the-center-for-obstetrics-and-gynecology-in-connecticut/providers/carrie-ann-costa-msn-cnm-whnp", "rating": 5.0, "reviews": 5, "place_id": "ChIJl5qXZgDB54kRTXCmeJen_E4", "latitude": 41.56131269999999, "longitude": -73.06399669999999, "care_type": "OB-GYN"}, {"name": "Alena Eastman, MD", "address": "134 Grandview Ave, Waterbury, CT 06708", "city": "Waterbury", "phone": "+1 203-754-2535", "website": "https://womenshealthct.com/practices/specialists-in-womens-healthcare/providers/alena-eastman-md", "rating": 5.0, "reviews": 5, "place_id": "ChIJHfQ9sNXB54kR7pWbjPJFQW0", "latitude": 41.5601612, "longitude": -73.0609485, "care_type": "OB-GYN"}, {"name": "S. Mark Albini, MD", "address": "133 Scovill St #206, Waterbury, CT 06706", "city": "Waterbury", "phone": "+1 203-709-8700", "website": "https://www.trinityhealthofne.org/provider/s-mark-albini-md-obstetrics-gynecology%3Futm_source%3DTHONE-google%26utm_medium%3Dgmb%26utm_campaign%3Dwomens%26utm_id%3Dreputation", "rating": 5.0, "reviews": 7, "place_id": "ChIJzRVZbAHB54kRcxjwlW_WDfI", "latitude": 41.5536318, "longitude": -73.0364231, "care_type": "OB-GYN"}, {"name": "Hakim Gabriel G MD", "address": "18 Merrill St, Waterbury, CT 06708", "city": "Waterbury", "phone": "+1 203-574-2229", "website": "", "rating": 5.0, "reviews": 12, "place_id": "ChIJj_zyzbXB54kRLL9yNNCY2C4", "latitude": 41.5563005, "longitude": -73.06136719999999, "care_type": "OB-GYN"}, {"name": "David Polke, MD", "address": "486 Straits Turnpike, Watertown, CT 06795", "city": "Watertown", "phone": "+1 203-709-8700", "website": "https://www.trinityhealthofne.org/provider/david-r-polke-md-obstetrics-gynecology", "rating": 4.9, "reviews": 331, "place_id": "ChIJK8mDdFvC54kR45Qdpw9ps94", "latitude": 41.5776316, "longitude": -73.1016063, "care_type": "OB-GYN"}, {"name": "David Polke, MD", "address": "133 Scovill St #206, Waterbury, CT 06706", "city": "Waterbury", "phone": "+1 203-709-8700", "website": "https://www.trinityhealthofne.org/provider/david-r-polke-md-obstetrics-gynecology", "rating": 3.1, "reviews": 14, "place_id": "ChIJzRVZbAHB54kRciao-9HQXsk", "latitude": 41.5536318, "longitude": -73.0364231, "care_type": "OB-GYN"}, {"name": "S Albini, MD", "address": "486 Straits Turnpike, Watertown, CT 06795", "city": "Watertown", "phone": "+1 203-709-8700", "website": "https://www.trinityhealthofne.org/provider/s-mark-albini-md-obstetrics-gynecology", "rating": 5.0, "reviews": 148, "place_id": "ChIJr79XsqbB54kREEDSf9lGUWM", "latitude": 41.5776316, "longitude": -73.1016063, "care_type": "OB-GYN"}, {"name": "Elena S. Ratner, MD", "address": "1075 Chase Pkwy, Waterbury, CT 06708", "city": "Waterbury", "phone": "+1 203-200-4176", "website": "https://www.yalemedicine.org/specialists/elena-ratner%3Futm_source%3DGMBSocialClimb%26utm_medium%3DElenaS.Ratner%252CMD", "rating": 4.8, "reviews": 19, "place_id": "ChIJPbL2i1HY54kRoNjB_bslU5k", "latitude": 41.541546, "longitude": -73.080338, "care_type": "OB-GYN"}, {"name": "Connecticut Center", "address": "1579 Straits Turnpike, Waterbury, CT 06702", "city": "Waterbury", "phone": "+1 203-236-0118", "website": "", "rating": null, "reviews": 0, "place_id": "ChIJX90q6Xbq54kRjfUhqPNj640", "latitude": 41.5519495, "longitude": -73.0950513, "care_type": "OB-GYN"}, {"name": "Monica Modi MD", "address": "140 Grandview Ave #202, Waterbury, CT 06708", "city": "Waterbury", "phone": "+1 203-755-2344", "website": "http://www.awhs.yourmd.com/index.cfm/fuseaction/site.physicians/action/dtl/phys/99909486.cfm", "rating": 5.0, "reviews": 1, "place_id": "ChIJLUMaQEvA54kRSoBmL9cP5lY", "latitude": 41.5583097, "longitude": -73.06119029999999, "care_type": "OB-GYN"}, {"name": "Dr. Richard C. Holden, MD", "address": "140 Grandview Ave #202, Waterbury, CT 06708", "city": "Waterbury", "phone": "+1 203-755-2344", "website": "", "rating": 5.0, "reviews": 5, "place_id": "ChIJSYyALbXB54kRCup2EmDQ6R8", "latitude": 41.5583162, "longitude": -73.0611935, "care_type": "OB-GYN"}, {"name": "Victoria Biondi, MD", "address": "122 Maple St, Bristol, CT 06010", "city": "Bristol", "phone": "+1 860-583-1800", "website": "https://womenshealthct.com/practices/briar-rose-network/providers/victoria-biondi-md/", "rating": 4.9, "reviews": 204, "place_id": "ChIJh2HfNkq654kRVRFJMgVtJMw", "latitude": 41.6800342, "longitude": -72.94118089999999, "care_type": "OB-GYN"}, {"name": "Rupalini Rawal-Dhingra, MD", "address": "15 Riverside Ave, Bristol, CT 06010", "city": "Bristol", "phone": "+1 860-585-3295", "website": "https://healow.com/apps/provider/rupalini-rawaldhingra-314753", "rating": 4.4, "reviews": 36, "place_id": "ChIJBy2r2ze654kRcPpRzO8P8rc", "latitude": 41.67157599999999, "longitude": -72.943433, "care_type": "OB-GYN"}, {"name": "Maria Munoz", "address": "140 Grandview Ave #202, Waterbury, CT 06708", "city": "Waterbury", "phone": "+1 561-499-2015", "website": "", "rating": 4.0, "reviews": 4, "place_id": "ChIJfaUq1krA54kR6DcOYuY0FoY", "latitude": 41.5608289, "longitude": -73.0611905, "care_type": "OB-GYN"}, {"name": "Jessica Bursell, PA-C", "address": "486 Straits Turnpike, Watertown, CT 06795", "city": "Watertown", "phone": "+1 203-709-8700", "website": "https://www.trinityhealthofne.org/provider/jessica-leigh-bursell-pa-c-physician-assistant", "rating": 4.9, "reviews": 150, "place_id": "ChIJqxxD12rB54kRSPlBKnO3vWE", "latitude": 41.5776316, "longitude": -73.1016063, "care_type": "OB-GYN"}, {"name": "Dr. Carmelina Luongo, MD", "address": "1131 West St Building 2, Southington, CT 06489", "city": "Southington", "phone": "+1 860-276-6800", "website": "https://womenshealthct.com/practices/ccog-womens-health-group/providers/carmelina-luongo-md/", "rating": 4.9, "reviews": 436, "place_id": "ChIJhWQHGda554kRT7bgMesTVZM", "latitude": 41.6191609, "longitude": -72.89887259999999, "care_type": "OB-GYN"},