[{"name": "Wahine Health", "address": "34 Wailea Gateway Pl A-203, Kihei, HI 96753", "city": "Kihei", "phone": "+1 808-879-1859", "website": "https://wahinehealth.com/", "rating": 3.2, "reviews": 11, "place_id": "ChIJHdI_jqXbVHkRVg3bI7-Fix4", "latitude": 20.6889002, "longitude": -156.4312884, "care_type": "OB-GYN"}, {"name": "Dr. Carrie Giordano", "address": "34 Wailea Gateway Pl Suite 203, Kihei, HI 96753", "city": "Kihei", "phone": "+1 808-879-1859", "website": "http://www.wahinehealth.com/", "rating": 4.3, "reviews": 6, "place_id": "ChIJVVWFfmnTVHkRmEZqrg7VBJY", "latitude": 20.6889002, "longitude": -156.4312884, "care_type": "OB-GYN"}, {"name": "Tiffinie R Mercado", "address": "1279 S Kihei Rd #120, Kihei, HI 96753", "city": "Kihei", "phone": "+1 808-243-6000", "website": "https://healthy.kaiserpermanente.org/hawaii/provider/tiffinie-mercado-5533723", "rating": null, "reviews": 0, "place_id": "ChIJ5Xq90UHQVHkRL4TFofhTN5o", "latitude": 20.7495789, "longitude": -156.454402, "care_type": "OB-GYN"}, {"name": "Maui Lani Physicians and Surgeons LLC", "address": "165 Ma'a St, Kahului, HI 96732", "city": "Kahului", "phone": "+1 808-446-7120", "website": "http://www.mauilanigynecology.com/", "rating": 3.8, "reviews": 39, "place_id": "ChIJi-0ygKDTVHkRn-gM35clpJw", "latitude": 20.8667135, "longitude": -156.4954628, "care_type": "OB-GYN"}, {"name": "Dr. Jennifer Mathieu", "address": "165 Maa St, Kahului, HI 96732", "city": "Kahului", "phone": "+1 808-446-7120", "website": "", "rating": 5.0, "reviews": 1, "place_id": "ChIJ__9PgKDTVHkR9sts8hVT5Cw", "latitude": 20.8667135, "longitude": -156.4954628, "care_type": "OB-GYN"}, {"name": "Maui Gynecology Associates", "address": "1931 E Vineyard St, Wailuku, HI 96793", "city": "Wailuku", "phone": "+1 808-244-0377", "website": "http://www.lakhani-obgyn.com/", "rating": null, "reviews": 0, "place_id": "ChIJY6PNKUDTVHkR8VBqdwDeo_A", "latitude": 20.8898758, "longitude": -156.5009738, "care_type": "OB-GYN"}, {"name": "Zena Monji", "address": "1881 Nani St Maui, Wailuku, HI 96793", "city": "Wailuku", "phone": "+1 808-871-7772", "website": "", "rating": 1.0, "reviews": 4, "place_id": "ChIJq6rquWrTVHkRCJDfviOw7SQ", "latitude": 20.8886664, "longitude": -156.4994158, "care_type": "OB-GYN"}, {"name": "Aaron M. Altura, MD", "address": "1881 Nani St Maui, Wailuku, HI 96793", "city": "Wailuku", "phone": "+1 808-871-7772", "website": "http://ccmaui.org/", "rating": null, "reviews": 0, "place_id": "ChIJA9J3jt7SVHkRAHK9HRZ1h0k", "latitude": 20.8886962, "longitude": -156.4993517, "care_type": "OB-GYN"}, {"name": "Dr. Christy A. Takemoto, MD", "address": "2180 Main St #100x, Wailuku, HI 96793", "city": "Wailuku", "phone": "+1 808-242-6464", "website": "http://www.mauilaniphysicians.com/", "rating": null, "reviews": 0, "place_id": "ChIJ1ywYfmnTVHkRZIQdZ7j3ZVQ", "latitude": 20.8874065, "longitude": -156.504733, "care_type": "OB-GYN"}, {"name": "Dr. Nancy D. Rogers, MD", "address": "80 Mahalani St, Wailuku, HI 96793", "city": "Wailuku", "phone": "+1 808-243-6000", "website": "", "rating": null, "reviews": 0, "place_id": "ChIJt4QnrCLTVHkRRZbxL9bK-X4", "latitude": 20.8874523, "longitude": -156.4868806, "care_type": "OB-GYN"}, {"name": "Colleen F Inouye Inc", "address": "200 Kalepa Pl # 101, Kahului, HI 96732", "city": "Kahului", "phone": "+1 808-871-7122", "website": "", "rating": 5.0, "reviews": 1, "place_id": "ChIJfYL5H8PSVHkR0-M33JThPB0", "latitude": 20.8871296, "longitude": -156.4613473, "care_type": "OB-GYN"}, {"name": "Maui Lani Physicians and Surgeons LLC", "address": "44 Ho'okele St #910, Kahului, HI 96732", "city": "Kahului", "phone": "+1 808-446-7120", "website": "https://mauilaniphysicians.com/", "rating": null, "reviews": 0, "place_id": "ChIJv09DruvTVHkRfDlRV6SebkA", "latitude": 20.8733984, "longitude": -156.4568728, "care_type": "OB-GYN"}, {"name": "Dr. Michael Carney", "address": "227 Mahalani St, Wailuku, HI 96793", "city": "Wailuku", "phone": "+1 808-242-2600", "website": "", "rating": null, "reviews": 0, "place_id": "ChIJAQDAHhfTVHkRBh0TM9Pms3A", "latitude": 20.8844128, "longitude": -156.4893706, "care_type": "OB-GYN"}, {"name": "Oahu OBGYN", "address": "1020 Kakala St APT 903, Kapolei, HI 96707", "city": "Kapolei", "phone": "+1 808-532-2020", "website": "http://www.oahuobgyn.com/", "rating": 4.5, "reviews": 8, "place_id": "ChIJa0wXw19jAHwRVUflV-HQWQA", "latitude": 21.3263473, "longitude": -158.076828, "care_type": "OB-GYN"}, {"name": "Adventist Health Castle Pali Women's Group", "address": "711 Kamokila Blvd #103, Kapolei, HI 96707", "city": "Kapolei", "phone": "+1 808-263-5033", "website": "https://www.adventisthealth.org/castle/locations/adventist-health-castle-pali-womens-group-4655", "rating": 4.6, "reviews": 77, "place_id": "ChIJzxPHByVjAHwRR8_8fzHUuY0", "latitude": 21.3321165, "longitude": -158.0835374, "care_type": "OB-GYN"}, {"name": "Lau Melanie M MD", "address": "91-5431 Kapolei Pkwy Suite 1706, Kapolei, HI 96707", "city": "Kapolei", "phone": "+1 808-426-9300", "website": "https://www.hawaiipacifichealth.org/find-a-physician/search-results/Melanie-Lau/362", "rating": 4.6, "reviews": 7, "place_id": "ChIJXfHBbN5tAHwR4DjUXQ4soj4", "latitude": 21.3333432, "longitude": -158.0542759, "care_type": "OB-GYN"}, {"name": "Dr. Roxanne Kawelo", "address": "91-5431 Kapolei Pkwy Ste 1706, Kapolei, HI 96707", "city": "Kapolei", "phone": "+1 808-426-9300", "website": "https://www.hawaiipacifichealth.org/find-a-physician/search-results/Roxanne-Kawelo/995", "rating": 5.0, "reviews": 3, "place_id": "ChIJvRHnqWBjAHwRpoOWU5IvK0A", "latitude": 21.3334569, "longitude": -158.0528881, "care_type": "OB-GYN"}, {"name": "OB-GYN Hawaii", "address": "1380 Lusitana St Suite 405, Honolulu, HI 96813", "city": "Honolulu", "phone": "+1 808-486-8630", "website": "https://www.hawaiipacifichealth.org/kapiolani/services/obstetrics-gynecology-ob-gyn/", "rating": 5.0, "reviews": 16, "place_id": "ChIJ1Xs_FLxtAHwRa81NkYzwv9M", "latitude": 21.3079573, "longitude": -157.8528568, "care_type": "OB-GYN"}, {"name": "Emmakate Friedlander, MD", "address": "711 Kamokila Blvd #103, Kapolei, HI 96707", "city": "Kapolei", "phone": "+1 808-218-6677", "website": "https://doctors.adventisthealth.org/provider/emma-kate-b-friedlander/1341816", "rating": 4.7, "reviews": 14, "place_id": "ChIJr8oiqzxjAHwRuMDUHMorpfk", "latitude": 21.3320001, "longitude": -158.0834349, "care_type": "OB-GYN"}, {"name": "Oahu OB/GYN", "address": "50 S Beretania St. Suite C211c, Honolulu, HI 96813", "city": "Honolulu", "phone": "+1 808-532-2020", "website": "https://www.oahuobgyn.com/", "rating": 4.4, "reviews": 39, "place_id": "ChIJYe5b0HVuAHwRlqUaiN3vne4", "latitude": 21.3118575, "longitude": -157.8593703, "care_type": "OB-GYN"}, {"name": "Susan H. Chapman, MD", "address": "711 Kamokila Blvd #103, Kapolei, HI 96707", "city": "Kapolei", "phone": "+1 808-218-6677", "website": "", "rating": 5.0, "reviews": 2, "place_id": "ChIJr8oiqzxjAHwROw-QQPG8bss", "latitude": 21.3320001, "longitude": -158.0834349, "care_type": "OB-GYN"}, {"name": "Lynette Tsai, MD", "address": "1020 Kakala St APT 903, Kapolei, HI 96707", "city": "Kapolei", "phone": "+1 808-532-2020", "website": "https://www.oahuobgyn.com/", "rating": 3.0, "reviews": 4, "place_id": "ChIJxWXJFQ9nAHwRYJMfLWGWo_4", "latitude": 21.3263473, "longitude": -158.076828, "care_type": "OB-GYN"}, {"name": "Dr. Tricia Song", "address": "711 Kamokila Blvd #103, Kapolei, HI 96707", "city": "Kapolei", "phone": "+1 808-218-6677", "website": "", "rating": null, "reviews": 0, "place_id": "ChIJnSdCqzxjAHwRIBlUDthEHp0", "latitude": 21.3320669, "longitude": -158.083437, "care_type": "OB-GYN"}, {"name": "Ko'olau Women's Healthcare", "address": "642 Ulukahiki St Suite 209, Kailua, HI 96734", "city": "Kailua", "phone": "+1 808-230-8500", "website": "https://www.koolauwomenshealthcare.com/", "rating": 5.0, "reviews": 415, "place_id": "ChIJOXXgs7UUAHwRCPMG6-qMflE", "latitude": 21.3803823, "longitude": -157.7575928, "care_type": "OB-GYN"}, {"name": "Alisha A. Wallace, PA-C", "address": "711 Kamokila Blvd #103, Kapolei, HI 96707", "city": "Kapolei", "phone": "+1 808-218-6677", "website": "", "rating": null, "reviews": 0, "place_id": "ChIJr8oiqzxjAHwRMMgPTd2btek", "latitude": 21.3320001, "longitude": -158.0834349, "care_type": "OB-GYN"}, {"name": "Hawaii OBGYN Cares", "address": "98-211 Pali Momi St #830, Aiea, HI 96701", "city": "Aiea", "phone": "+1 808-951-6006", "website": "https://www.hawaiiobgyncares.com/", "rating": null, "reviews": 0, "place_id": "ChIJmY0EBE1vAHwRUeQ8bjiV5sM", "latitude": 21.3827731, "longitude": -157.937869, "care_type": "OB-GYN"}, {"name": "TTNYD&D OBGYN Inc.", "address": "91-2139 HI-76, Ewa Beach, HI 96706", "city": "Ewa Beach", "phone": "+1 808-678-0878", "website": "https://www.hawaiiobgyninc.com/", "rating": null, "reviews": 0, "place_id": "ChIJGwV5MwBlAHwRQEO6_W9Gi68", "latitude": 21.3722635, "longitude": -158.0269407, "care_type": "OB-GYN"}, {"name": "Ko'olau Women's Healthcare, Inc", "address": "1329 Lusitana St Suite 508, Honolulu, HI 96813", "city": "Honolulu", "phone": "+1 808-888-3449", "website": "http://www.koolauwomenshealthcare.com/", "rating": 4.8, "reviews": 237, "place_id": "ChIJ2Xaxbt5tAHwR8w3h8N_ymqU", "latitude": 21.3076091, "longitude": -157.8520883, "care_type": "OB-GYN"}, {"name": "Honu Women's Health", "address": "900 Fort Street Mall #1040, Honolulu, HI 96813", "city": "Honolulu", "phone": "+1 808-638-3100", "website": "https://honuwh.com/", "rating": 4.3, "reviews": 13, "place_id": "ChIJixjSgnRuAHwR5hhVXaJx2rM", "latitude": 21.3091301, "longitude": -157.8626891, "care_type": "OB-GYN"}, {"name": "Kurt Davis Yoshino", "address": "91-2139 HI-76 # 201, Ewa Beach, HI 96706", "city": "Ewa Beach", "phone": "+1 808-678-0878", "website": "", "rating": 5.0, "reviews": 1, "place_id": "ChIJ03oiWsVkAHwRaexDhHHKmqg", "latitude": 21.3168772, "longitude": -158.0128213, "care_type": "OB-GYN"}, {"name": "OH Richard S MD", "address": "91-2139 Fort Weaver Rd # 309, Ewa Beach, HI 96706", "city": "Ewa Beach", "phone": "+1 808-677-7793", "website": "", "rating": 3.5, "reviews": 13, "place_id": "ChIJdd3wrGtkAHwRohJ8o8Vh-q4", "latitude": 21.3717932, "longitude": -158.0271577, "care_type": "OB-GYN"}, {"name": "Adventist Health Castle Pali Women's Group", "address": "642 Ulukahiki St #305, Kailua, HI 96734", "city": "Kailua", "phone": "+1 808-263-5433", "website": "https://www.adventisthealth.org/locations/detail/adventist-health-castle-pali-womens-group-4628/", "rating": 4.5, "reviews": 71, "place_id": "ChIJoXINlbUUAHwR8olLBBxzqCM", "latitude": 21.3812021, "longitude": -157.7575865, "care_type": "OB-GYN"}, {"name": "Dr. Mark Villarin", "address": "86-260 Farrington Hwy, Waianae, HI 96792", "city": "Waianae", "phone": "+1 808-697-3300", "website": "https://www.hawaiipacifichealth.org/straub/find-a-physician/search-results/Mark-Villarin/2383", "rating": 5.0, "reviews": 1, "place_id": "ChIJ0diPGzCKAHwRFJ8s5rRVHaw", "latitude": 21.4300338, "longitude": -158.179899, "care_type": "OB-GYN"}, {"name": "Fujita Jon S MD", "address": "94-216 Farrington Hwy #322, Waipahu, HI 96797", "city": "Waipahu", "phone": "+1 808-676-5629", "website": "https://www.hawaiipacifichealth.org/find-a-physician/search-results/Jon-Fujita/329", "rating": 4.7, "reviews": 12, "place_id": "ChIJe6peKzxkAHwRjcfBMUURqn8", "latitude": 21.3796068, "longitude": -158.0204453, "care_type": "OB-GYN"}, {"name": "Diniega Leticia G MD", "address": "94-307 Farrington Hwy b05, Waipahu, HI 96797", "city": "Waipahu", "phone": "+1 808-678-0878", "website": "", "rating": 3.5, "reviews": 6, "place_id": "ChIJuTc69ztkAHwRXULn_-XNL2A", "latitude": 21.3799227, "longitude": -158.0178021, "care_type": "OB-GYN"}, {"name": "Cheryl Leialoha, MD", "address": "1319 Punahou St Suites 760 & 1110, Honolulu, HI 96826", "city": "Honolulu", "phone": "+1 808-947-5606", "website": "https://www.hawaiiwomenshealthcare.org/%3Futm_source%3Dgmb_auth", "rating": 4.8, "reviews": 36, "place_id": "ChIJ_2bzIuttAHwR07s7e1zAaAo", "latitude": 21.2998428, "longitude": -157.8334591, "care_type": "OB-GYN"}, {"name": "Avilla Emma B MD", "address": "91-2139 Fort Weaver Rd # 313, Ewa Beach, HI 96706", "city": "Ewa Beach", "phone": "+1 808-842-1585", "website": "", "rating": 2.3, "reviews": 3, "place_id": "ChIJdd3wrGtkAHwR7PN2M0IqlQY", "latitude": 21.371584, "longitude": -158.027042, "care_type": "OB-GYN"}, {"name": "Women's Health Clinic (DDHC)", "address": "683 Waianae Ave bldg f 1st floor, Wahiawa, HI 96786", "city": "Wahiawa", "phone": "+1 888-683-2778", "website": "https://desmond-doss.tricare.mil/Health-Services/Womens-Health-Pregnancy", "rating": 5.0, "reviews": 1, "place_id": "ChIJh1CyfyBfAHwRor8iuIz-rkY", "latitude": 21.4955982, "longitude": -158.0572991, "care_type": "OB-GYN"}, {"name": "Hawaii OBGYN Cares", "address": "1319 Punahou St STE 515, Honolulu, HI 96826", "city": "Honolulu", "phone": "+1 808-951-6006", "website": "https://www.hawaiiobgyncares.com/", "rating": 1.0, "reviews": 2, "place_id": "ChIJ6Q0nL-ttAHwRuaKk7CVEeB0", "latitude": 21.2999489, "longitude": -157.8339197, "care_type": "OB-GYN"}, {"name": "Hawaii Pacific Health - Straub Clinic", "address": "95-390 Kuahelani Ave APT 4C, Mililani, HI 96789", "city": "Mililani", "phone": "+1 808-625-6444", "website": "http://hawaiipacifichealth.org/", "rating": 5.0, "reviews": 1, "place_id": "ChIJ2ZX5HsJnAHwRbQBfQat_I-s", "latitude": 21.4587546, "longitude": -158.0148041, "care_type": "OB-GYN"}, {"name": "Dr. Russell Fujioka", "address": "95-390 Kuahelani Ave Ste 1, Mililani, HI 96789", "city": "Mililani", "phone": "+1 808-625-6444", "website": "https://www.hawaiipacifichealth.org/find-a-physician/search-results/Russell-Satoru-Fujioka/193", "rating": 5.0, "reviews": 2, "place_id": "ChIJVVXEKxJnAHwRwjV8i7JNzzI", "latitude": 21.4580823, "longitude": -158.0146466, "care_type": "OB-GYN"}, {"name": "Karin Hayashida", "address": "94-1480 Moaniani St, Waipahu, HI 967974632", "city": "Waipahu", "phone": "+1 808-432-3100", "website": "https://healthy.kaiserpermanente.org/hawaii/provider/karin-hayashida-9277079", "rating": 5.0, "reviews": 1, "place_id": "ChIJVVWVtFlmAHwR9CJ68DRCqDg", "latitude": 21.4255262, "longitude": -157.9969825, "care_type": "OB-GYN"}, {"name": "Dr. Mikiko Y. Bunn, MD", "address": "98-151 Pali Momi St, Aiea, HI 96701", "city": "Aiea", "phone": "+1 808-483-6400", "website": "https://www.hawaiipacifichealth.org/straub/find-a-physician/search-results//physician%3Fid%3D713", "rating": 4.2, "reviews": 6, "place_id": "ChIJKT6Tjk1vAHwRc5pt3JjEGWg", "latitude": 21.3818259, "longitude": -157.9397221, "care_type": "OB-GYN"}, {"name": "Dr. Jenny Uramoto, MD", "address": "599 Farrington Hwy, Kapolei, HI 96707", "city": "Kapolei", "phone": "+1 808-674-9500", "website": "", "rating": 5.0, "reviews": 1, "place_id": "ChIJWwakNBRjAHwRePBg2c07s_w", "latitude": 21.3393807, "longitude": -158.0758322, "care_type": "OB-GYN"}, {"name": "Erin C. Gertz, MD", "address": "1319 Punahou St Suites 760 & 1110, Honolulu, HI 96826", "city": "Honolulu", "phone": "+1 808-947-5606", "website": "https://www.hawaiiwomenshealthcare.org/%3Futm_source%3Dgmb_auth", "rating": 4.8, "reviews": 21, "place_id": "ChIJNcq4co1tAHwRWgdFKsD0KuM", "latitude": 21.2998428, "longitude": -157.8334591, "care_type": "OB-GYN"}, {"name": "Wellness OBGYN", "address": "1441 Kapiolani Blvd Suite 1005, Honolulu, HI 96814", "city": "Honolulu", "phone": "+1 808-900-4554", "website": "http://wellnessobgyn.com/", "rating": 5.0, "reviews": 0, "place_id": "ChIJEaYmq29tAHwRs7sWQT12uW4", "latitude": 21.2926473, "longitude": -157.8430974, "care_type": "OB-GYN"}, {"name": "Women's Specialty Care, Aiea office", "address": "99-128 Aiea Heights Dr STE 502, Aiea, HI 96701", "city": "Aiea", "phone": "+1 808-762-1996", "website": "https://www.womensspecialty.care/", "rating": 5.0, "reviews": 8, "place_id": "ChIJywOFWQBvAHwRglG0qTE1IPA", "latitude": 21.3797008, "longitude": -157.9304635, "care_type": "OB-GYN"}, {"name": "Queen's OBGYN Ala Moana", "address": "1441 Kapiolani Blvd # 1810, Honolulu, HI 96814", "city": "Honolulu", "phone": "+1 808-686-4150", "website": "https://www.queens.org/locations/hospitals/qmc/services/obgyn-ala-moana/", "rating": 3.6, "reviews": 19, "place_id": "ChIJUflJJvBtAHwRpn3A0jUESlk", "latitude": 21.292984, "longitude": -157.842969, "care_type": "OB-GYN"}, {"name": "Foley OB & Aesthetics", "address": "95-720 Lanikuhana Ave Suite #220, Mililani, HI 96789", "city": "Mililani", "phone": "+1 808-762-0261", "website": "http://www.foleyobandaesthetics.com/", "rating": 4.3, "reviews": 42, "place_id": "ChIJPfrQZj5nAHwRQCQ1xNnPDko", "latitude": 21.4548999, "longitude": -158.0056923, "care_type": "OB-GYN"}, {"name": "Fujita Jan T MD", "address": "99-128 Aiea Heights Dr #402, Aiea, HI 96701", "city": "Aiea", "phone": "+1 808-487-8880", "website": "https://www.hawaiipacifichealth.org/straub/find-a-physician/search-results/Jan-Fujita/231", "rating": 4.1, "reviews": 9, "place_id": "ChIJlXkrOUpvAHwRbIVqeVkDTnk", "latitude": 21.3796086, "longitude": -157.9305133, "care_type": "OB-GYN"}, {"name": "GREGG A. SHIMOMURA, MD", "address": "99-128 Aiea Heights Dr #504, Aiea, HI 96701", "city": "Aiea", "phone": "+1 808-487-2497", "website": "http://www.hawaiipacifichealth.org/", "rating": 5.0, "reviews": 1, "place_id": "ChIJlXkrOUpvAHwR7bR6uw9PjwQ", "latitude": 21.3796432, "longitude": -157.9304342, "care_type": "OB-GYN"}, {"name": "Mrs. Leayn Dillon", "address": "95-1249 Meheula Pkwy #187, Mililani, HI 96789", "city": "Mililani", "phone": "+1 808-625-6444", "website": "", "rating": 5.0, "reviews": 2, "place_id": "ChIJjds7MQ9nAHwR6YDunXjChs8", "latitude": 21.4529107, "longitude": -158.0065092, "care_type": "OB-GYN"}, {"name": "Christina Collins OBGYN", "address": "75-5905 Walua Rd STE 3, Kailua-Kona, HI 96740", "city": "Kailua-Kona", "phone": "+1 808-331-2300", "website": "https://konawomenshealthcare.com/", "rating": 3.2, "reviews": 18, "place_id": "ChIJfzkEYvwOVHkRT-0967B1P5U", "latitude": 19.6293942, "longitude": -155.9859456, "care_type": "OB-GYN"}, {"name": "SsiraMD,FACOG,inc", "address": "79-7266 Mamalahoa Hwy # 4, Kealakekua, HI 96750", "city": "Kealakekua", "phone": "+1 808-322-3434", "website": "", "rating": 4.7, "reviews": 15, "place_id": "ChIJwScaymAGVHkRuQemjWoI0g4", "latitude": 19.54062, "longitude": -155.929193, "care_type": "OB-GYN"}, {"name": "Dr. Jacqueline Guerrero", "address": "78-6831 Ali\u2018i Dr Ste 411, Kailua-Kona, HI 96740", "city": "Kailua-Kona", "phone": "+1 808-747-8321", "website": "", "rating": 4.0, "reviews": 1, "place_id": "ChIJ1RhkduUFVHkR_YZYa7MZAWM", "latitude": 19.5711198, "longitude": -155.9620457, "care_type": "OB-GYN"}, {"name": "Smith Melissa MD", "address": "75-184 Hualalai Rd, Kailua-Kona, HI 96740", "city": "Kailua-Kona", "phone": "+1 808-334-4000", "website": "", "rating": null, "reviews": 0, "place_id": "ChIJc6BAlPwOVHkRkxlXcfijKuI", "latitude": 19.6372386, "longitude": -155.9885817, "care_type": "OB-GYN"}, {"name": "Kristen Goerg", "address": "74-517 Honokohau St, Kailua-Kona, HI 967402715", "city": "Kailua-Kona", "phone": "+1 808-334-4400", "website": "https://healthy.kaiserpermanente.org/hawaii/provider/kristen-goerg-1602589", "rating": 1.0, "reviews": 1, "place_id": "ChIJq6raPXEOVHkRrsoC0qC8mNM", "latitude": 19.6745691, "longitude": -156.0147107, "care_type": "OB-GYN"}, {"name": "Gilbert Michele H MD", "address": "75-184 Hualalai Rd # 301, Kailua-Kona, HI 96740", "city": "Kailua-Kona", "phone": "+1 808-334-4400", "website": "", "rating": null, "reviews": 0, "place_id": "ChIJbacD6_wOVHkROJ-xiI1pQCg", "latitude": 19.6372386, "longitude": -155.9885817, "care_type": "OB-GYN"}, {"name": "Dr. Annabelle Janairo", "address": "78-6831 Ali\u2018i Dr, Kailua-Kona, HI 96740", "city": "Kailua-Kona", "phone": "+1 808-747-8321", "website": "", "rating": null, "reviews": 0, "place_id": "ChIJ1RhkduUFVHkR3bFCBoo87Q4", "latitude": 19.5711198, "longitude": -155.9620457, "care_type": "OB-GYN"}, {"name": "LIV. Pregnancy & Women's Wellness", "address": "74-5565 Luhia St, Kailua-Kona, HI 96740", "city": "Kailua-Kona", "phone": "+1 808-326-1766", "website": "http://www.livwellwomen.com/", "rating": 4.4, "reviews": 23, "place_id": "ChIJGbydXVgOVHkRvjQ2xgPU75M", "latitude": 19.6482029, "longitude": -156.0003806, "care_type": "OB-GYN"}, {"name": "Alii Health Center", "address": "78-6831 Ali\u2018i Dr # 422, Kailua-Kona, HI 96740", "city": "Kailua-Kona", "phone": "+1 808-747-8321", "website": "http://www.aliihealthcenter.com/", "rating": 4.5, "reviews": 443, "place_id": "ChIJo22-beUFVHkRcJ0nGg0tOfo", "latitude": 19.5732675, "longitude": -155.9629231, "care_type": "OB-GYN"}, {"name": "Lachance Deborah L MD", "address": "75-184 Hualalai Rd # 301, Kailua-Kona, HI 96740", "city": "Kailua-Kona", "phone": "+1 808-334-4400", "website": "", "rating": null, "reviews": 0, "place_id": "ChIJc6BAlPwOVHkR2jNuBJurUrM", "latitude": 19.6372386, "longitude": -155.9885817, "care_type": "OB-GYN"}, {"name": "Dr. Ken Clayton", "address": "78-6831 Ali\u2018i Dr Ste 411, Kailua-Kona, HI 96740", "city": "Kailua-Kona", "phone": "+1 808-747-8321", "website": "", "rating": null, "reviews": 0, "place_id": "ChIJ1RhkduUFVHkRhF1gcjaRm_Q", "latitude": 19.5711198, "longitude": -155.9620457, "care_type": "OB-GYN"}, {"name": "Ammerman Stacy R DO", "address": "Maa St, Wailuku, HI 96793", "city": "Wailuku", "phone": "+1 808-446-7120", "website": "", "rating": 3.4, "reviews": 5, "place_id": "ChIJ1ywYfmnTVHkRQqk1b9HbPuA", "latitude": 20.866709, "longitude": -156.495725, "care_type": "OB-GYN"}, {"name": "Dr. Martin E. Newman, MD", "address": "80 Mahalani St, Wailuku, HI 96793", "city": "Wailuku", "phone": "+1 808-243-6000", "website": "", "rating": 5.0, "reviews": 1, "place_id": "ChIJt4QnrCLTVHkRfXuqhT_oljM", "latitude": 20.8873852, "longitude": -156.4869523, "care_type": "OB-GYN"}, {"name": "Kaiser Permanente Medical Care: Michael E Kim MD", "address": "80 Mahalani St, Wailuku, HI 96793", "city": "Wailuku", "phone": "+1 808-243-6000", "website": "", "rating": null, "reviews": 0, "place_id": "ChIJt4QnrCLTVHkRlIRwwKOMq3k", "latitude": 20.8874523, "longitude": -156.4868806, "care_type": "OB-GYN"}, {"name": "Dr. Paul E. Johnston, MD", "address": "80 Mahalani St, Wailuku, HI 96793", "city": "Wailuku", "phone": "+1 808-243-6000", "website": "", "rating": null, "reviews": 0, "place_id": "ChIJt4QnrCLTVHkRjDE1XxC3PF0", "latitude": 20.8874523, "longitude": -156.4868806, "care_type": "OB-GYN"}, {"name": "Dr. Benjamin M. Delisa, MD", "address": "80 Mahalani St, Wailuku, HI 96793", "city": "Wailuku", "phone": "+1 808-243-6000", "website": "https://healthy.kaiserpermanente.org/hawaii/provider/benjamin-delisa-8720517%23/map", "rating": null, "reviews": 0, "place_id": "ChIJt4QnrCLTVHkR-9J0b8wetWw", "latitude": 20.8873852, "longitude": -156.4869523, "care_type": "OB-GYN"}, {"name": "Dr. Robert G. Yapp, MD", "address": "2180 Main St, Wailuku, HI 96793", "city": "Wailuku", "phone": "+1 808-242-6464", "website": "http://www.mauimedical.com/", "rating": null, "reviews": 0, "place_id": "ChIJ1ywYfmnTVHkRsgfmJbyeH3o", "latitude": 20.8874733, "longitude": -156.504764, "care_type": "OB-GYN"}, {"name": "Dr. Colleen Inouye Baum", "address": "200 Kalepa Pl, Kahului, HI 96732", "city": "Kahului", "phone": "+1 808-871-7122", "website": "", "rating": 5.0, "reviews": 1, "place_id": "ChIJAQCQH8PSVHkRMgA99PWkwyE", "latitude": 20.8872105, "longitude": -156.4613286, "care_type": "OB-GYN"}, {"name": "Patricia Podach, MD", "address": "1881 Nani St Maui, Wailuku, HI 96793", "city": "Wailuku", "phone": "+1 808-871-7772", "website": "", "rating": null, "reviews": 0, "place_id": "ChIJuz9EvGrTVHkRuIJ7E8mBmx8", "latitude": 20.8886962, "longitude": -156.4993517, "care_type": "OB-GYN"}, {"name": "Dr. Barbara J. Bezdicek, MD", "address": "80 Mahalani St, Wailuku, HI 96793", "city": "Wailuku", "phone": "+1 808-243-6000", "website": "", "rating": null, "reviews": 0, "place_id": "ChIJt4QnrCLTVHkRkhTOOIcTvvM", "latitude": 20.8874523, "longitude": -156.4868806, "care_type": "OB-GYN"}, {"name": "Duffy Casey", "address": "1881 Nani St Maui, Wailuku, HI 96793", "city": "Wailuku", "phone": "+1 808-871-7772", "website": "https://www.ccmaui.org/staff/duffy-casey", "rating": null, "reviews": 0, "place_id": "ChIJq6rquWrTVHkRBJAKTQdNIBA", "latitude": 20.8886664, "longitude": -156.4994158, "care_type": "OB-GYN"}, {"name": "Tiffinie Mercado", "address": "80 Mahalani St, Wailuku, HI 96793", "city": "Wailuku", "phone": "+1 808-243-6000", "website": "https://healthy.kaiserpermanente.org/hawaii/provider/tiffinie-mercado-5533723", "rating": null, "reviews": 0, "place_id": "ChIJRyyq-RfTVHkRoKiNWPoEh8w", "latitude": 20.8874523, "longitude": -156.4868806, "care_type": "OB-GYN"}, {"name": "Pali Momi Women's Center", "address": "98-1005 Moanalua Rd #156, Aiea, HI 96701", "city": "Aiea", "phone": "+1 808-485-4500", "website": "https://www.hawaiipacifichealth.org/womens-centers/our-locations/pali-momi/", "rating": 3.9, "reviews": 26, "place_id": "ChIJMdENTk1vAHwR1HZHRxeK490", "latitude": 21.3849403, "longitude": -157.9395815, "care_type": "OB-GYN"}, {"name": "Ronald I Ayabe Inc", "address": "98-1079 Moanalua Rd # 560, Aiea, HI 96701", "city": "Aiea", "phone": "+1 808-487-0078", "website": "", "rating": null, "reviews": 0, "place_id": "ChIJ8bFoEE1vAHwRf9EsDwGRbSo", "latitude": 21.3834586, "longitude": -157.9383976, "care_type": "OB-GYN"}, {"name": "Miriam Seitz", "address": "98-1005 Moanalua Rd Spc 3010, Aiea, HI 967014777", "city": "Aiea", "phone": "", "website": "https://www.hawaiipacifichealth.org/find-a-physician/search-results/Miriam-Seitz/1662", "rating": 5.0, "reviews": 2, "place_id": "ChIJ____tlJvAHwR9oNKKSDMey4", "latitude": 21.385219, "longitude": -157.9417438, "care_type": "OB-GYN"}, {"name": "Chang Simon MD", "address": "Parking lot, 98-211 Pali Momi St #400, Aiea, HI 96701", "city": "Aiea", "phone": "+1 808-485-1434", "website": "https://www.hawaiipacifichealth.org/straub/find-a-physician/search-results/Simon-Chang/122", "rating": 5.0, "reviews": 0, "place_id": "ChIJTeDxiU1vAHwRt9T1wIyRZuM", "latitude": 21.3826765, "longitude": -157.9380395, "care_type": "OB-GYN"}, {"name": "Dr. Stephen Sung", "address": "98-1079 Moanalua Rd # 560, Aiea, HI 96701", "city": "Aiea", "phone": "+1 808-487-0078", "website": "https://www.hawaiipacifichealth.org/find-a-physician/search-results/Stephen-Sung/1479", "rating": 3.7, "reviews": 6, "place_id": "ChIJmTQnEU1vAHwRCUlUdTiXNqo", "latitude": 21.3834586, "longitude": -157.9383976, "care_type": "OB-GYN"}, {"name": "Diniega Leticia G MD", "address": "98-1005 Moanalua Rd, Aiea, HI 96701", "city": "Aiea", "phone": "+1 808-671-0090", "website": "", "rating": 3.0, "reviews": 4, "place_id": "ChIJ_2bzIuttAHwRuqEUTstw1MU", "latitude": 21.385219, "longitude": -157.9417438, "care_type": "OB-GYN"}, {"name": "George Shimomura Md Inc", "address": "99-128 Aiea Heights Dr #504, Aiea, HI 96701", "city": "Aiea", "phone": "+1 808-487-2497", "website": "", "rating": null, "reviews": 0, "place_id": "ChIJlXkrOUpvAHwRanPnwpbgBWw", "latitude": 21.3797008, "longitude": -157.9304635, "care_type": "OB-GYN"}, {"name": "Fujita Jon S MD", "address": "99-128 Aiea Heights Dr, Aiea, HI 96701", "city": "Aiea", "phone": "+1 808-487-8880", "website": "https://www.hawaiipacifichealth.org/find-a-physician/search-results/Jon-Fujita/329", "rating": null, "reviews": 0, "place_id": "ChIJlXkrOUpvAHwRO_3g5bBVupE", "latitude": 21.3796432, "longitude": -157.9304342, "care_type": "OB-GYN"}, {"name": "Pali Momi Medical Center", "address": "98-1079 Moanalua Rd, Aiea, HI 96701", "city": "Aiea", "phone": "+1 808-486-6000", "website": "https://www.hawaiipacifichealth.org/pali-momi/locations/pali-momi-medical-center/", "rating": 3.7, "reviews": 0, "place_id": "ChIJ8bFoEE1vAHwRaQY0HoboYh4", "latitude": 21.3834841, "longitude": -157.9384211, "care_type": "OB-GYN"}, {"name": "Brittney Williams", "address": "98-1005 Moanalua Rd Spc 3010, Aiea, HI 96701", "city": "Aiea", "phone": "+1 808-485-4500", "website": "", "rating": null, "reviews": 0, "place_id": "ChIJ____tlJvAHwRNZ6913GOs2E", "latitude": 21.385219, "longitude": -157.9417438, "care_type": "OB-GYN"}, {"name": "David S. Kim, M.D.", "address": "98-1079 Moanalua Rd, Aiea, HI 96701", "city": "Aiea", "phone": "+1 808-733-5111", "website": "", "rating": null, "reviews": 0, "place_id": "ChIJ8bFoEE1vAHwRgs-RAZtU878", "latitude": 21.3833572, "longitude": -157.9387618, "care_type": "OB-GYN"}, {"name": "Dr. Steven Minaglia", "address": "98-1005 Moanalua Rd Spc 3010, Aiea, HI 96701", "city": "Aiea", "phone": "+1 808-671-0090", "website": "https://www.queens.org/providers/927/steven-m-minaglia/", "rating": null, "reviews": 0, "place_id": "ChIJ____tlJvAHwRAsCTX5IptWY", "latitude": 21.385219, "longitude": -157.9417438, "care_type": "OB-GYN"}, {"name": "Dr. Kasey Kajiwara", "address": "98-1005 Moanalua Rd Spc 3010, Aiea, HI 96701", "city": "Aiea", "phone": "+1 808-671-0090", "website": "https://www.hawaiipacifichealth.org/straub/find-a-physician/search-results/Kasey-Kajiwara/1834", "rating": null, "reviews": 0, "place_id": "ChIJ____tlJvAHwR6TD3Bct1Q1U", "latitude": 21.385219, "longitude": -157.9417438, "care_type": "OB-GYN"}, {"name": "Dr. Richard Mccartin", "address": "98-1005 Moanalua Rd Spc 3010, Aiea, HI 96701", "city": "Aiea", "phone": "+1 808-671-0090", "website": "https://www.hawaiipacifichealth.org/find-a-physician/search-results/Richard-McCartin/820", "rating": null, "reviews": 0, "place_id": "ChIJ____tlJvAHwR2tnZ006Xy8Y", "latitude": 21.385219, "longitude": -157.9417438, "care_type": "OB-GYN"}, {"name": "Teruya Thomas H MD", "address": "99-128 Aiea Heights Dr STE 502, Aiea, HI 96701", "city": "Aiea", "phone": "+1 808-487-7951", "website": "", "rating": null, "reviews": 0, "place_id": "ChIJlXkrOUpvAHwRDarcUTUNSiI", "latitude": 21.3797008, "longitude": -157.9304635, "care_type": "OB-GYN"}, {"name": "Premier Women's Health Hawaii", "address": "1329 Lusitana St Ste 607, Honolulu, HI 96813", "city": "Honolulu", "phone": "+1 808-523-8868", "website": "https://www.premierwomenshealthhawaii.com/", "rating": 4.2, "reviews": 5, "place_id": "ChIJQUjFbt5tAHwRhMl0n5sk0iQ", "latitude": 21.307606, "longitude": -157.8520829, "care_type": "OB-GYN"}, {"name": "Saki Onda, MD MPH", "address": "1319 Punahou St Suites 760, Honolulu, HI 96826", "city": "Honolulu", "phone": "+1 808-947-5606", "website": "https://www.hawaiiwomenshealthcare.org/%3Futm_source%3Dgmb_auth", "rating": 5.0, "reviews": 14, "place_id": "ChIJPTBq6yhtAHwRQpugBwLupow", "latitude": 21.2999933, "longitude": -157.8332728, "care_type": "OB-GYN"}, {"name": "Cheryl Lynn Tanguilig Rudy, MD", "address": "1319 Punahou St Suites 760 & 1110, Honolulu, HI 96826", "city": "Honolulu", "phone": "+1 808-947-5606", "website": "https://www.hawaiiwomenshealthcare.org/", "rating": 4.6, "reviews": 14, "place_id": "ChIJ_2bzIuttAHwREpw76rmXjYs", "latitude": 21.2998428, "longitude": -157.8334591, "care_type": "OB-GYN"}, {"name": "Dr. Steven M. Nishi, MD", "address": "915 N King St, Honolulu, HI 96817", "city": "Honolulu", "phone": "+1 808-848-1438", "website": "http://www.kphc.org/", "rating": null, "reviews": 0, "place_id": "ChIJC9SLOntuAHwRvqVe-kdXySs", "latitude": 21.3228307, "longitude": -157.8682089, "care_type": "OB-GYN"}, {"name": "Dr. Laurie Asato", "address": "1380 Lusitana St Suite 1014, Honolulu, HI 96813", "city": "Honolulu", "phone": "+1 808-546-1199", "website": "https://www.hawaiipacifichealth.org/find-a-physician/search-results/Laurie--Asato/1093", "rating": 4.6, "reviews": 9, "place_id": "ChIJCzcI0d9tAHwRLM0_4NSNDEA", "latitude": 21.307997, "longitude": -157.8527826, "care_type": "OB-GYN"}, {"name": "Alan Kojima", "address": "302 California Ave Suite 210, Wahiawa, HI 96786", "city": "Wahiawa", "phone": "+1 808-622-2212", "website": "https://www.centraloahumedical.com/about-us/", "rating": 5.0, "reviews": 1, "place_id": "ChIJM4FAa_FdAHwRdpzAyWksCBI", "latitude": 21.4956835, "longitude": -158.0312753, "care_type": "OB-GYN"}, {"name": "Kapi\u02bbolani Medical Center for Women & Children", "address": "1319 Punahou St, Honolulu, HI 96826", "city": "Honolulu", "phone": "+1 808-983-6000", "website": "https://www.hawaiipacifichealth.org/kapiolani/", "rating": 3.7, "reviews": 388, "place_id": "ChIJ_2bzIuttAHwRvgfNR-kfp24", "latitude": 21.2998428, "longitude": -157.8334591, "care_type": "OB-GYN"}, {"name": "Kapiolani Medical Center for Women and Children, Fetal Diagnostic Center", "address": "1319 Punahou St # 540, Honolulu, HI 96826", "city": "Honolulu", "phone": "+1 808-983-6000", "website": "https://www.hawaiipacifichealth.org/womens-centers/womens-services/groups/reproductive-health-maternity/fetal-diagnostic-center/", "rating": 2.3, "reviews": 8, "place_id": "ChIJQ2fzIuttAHwRzMhykRQniL0", "latitude": 21.2998986, "longitude": -157.8337386, "care_type": "OB-GYN"}, {"name": "Perkins Kimberly L MD", "address": "1329 Lusitana St #804, Honolulu, HI 96813", "city": "Honolulu", "phone": "+1 808-537-6979", "website": "https://www.queens.org/providers/1135/kimberly-l-perkins/", "rating": 4.4, "reviews": 14, "place_id": "ChIJXfHBbN5tAHwRIzGOZ5DxDtU", "latitude": 21.3075591, "longitude": -157.8521238, "care_type": "OB-GYN"}, {"name": "Dr. Philip M. Browning, MD", "address": "94-1480 Moaniani St, Waipahu, HI 96797", "city": "Waipahu", "phone": "+1 808-432-3100", "website": "http://healthy.kaiserpermanente.org/", "rating": null, "reviews": 0, "place_id": "ChIJceW-RFhmAHwRCLrLdcz5zjY", "latitude": 21.4257234, "longitude": -157.997149, "care_type": "OB-GYN"}, {"name": "Dr. Kristen M. Lindell, MD", "address": "1 Jarrett White Rd, TRIPLER AMC, HI 96859", "city": "TRIPLER AMC", "phone": "+1 808-433-6621", "website": "", "rating": null, "reviews": 0, "place_id": "ChIJ3xTzLMNuAHwRRP8qwB-nILM", "latitude": 21.3604494, "longitude": -157.8912341, "care_type": "OB-GYN"}, {"name": "\u0413\u0430\u0440\u0438 \u041b\u0435\u0432\u0438 MD", "address": "1 Jarrett White Rd, TRIPLER AMC, HI 96859", "city": "TRIPLER AMC", "phone": "+1 734-678-1980", "website": "https://ruspagesusa.com/catalog/gonolulu/akusher-ginekolog_v_gonolulu_gari_levi_md/", "rating": null, "reviews": 0, "place_id": "ChIJe1QmzMxvAHwRK4gsY_JLH9A", "latitude": 21.3601296, "longitude": -157.8894871, "care_type": "OB-GYN"}, {"name": "Kang Steven S MD", "address": "94-1480 Moaniani St, Waipahu, HI 96797", "city": "Waipahu", "phone": "+1 808-432-3100", "website": "http://healthy.kaiserpermanente.org/", "rating": null, "reviews": 0, "place_id": "ChIJI3KkSlhmAHwRUw_hxhrRXJ0", "latitude": 21.4257465, "longitude": -157.9972985, "care_type": "OB-GYN"}, {"name": "Dr. Hong-Ru Chen", "address": "1319 Punahou St, Honolulu, HI 96826", "city": "Honolulu", "phone": "+1 808-951-6006", "website": "https://www.hawaiipacifichealth.org/find-a-physician/search-results/Hong-Ru-Chen/1219", "rating": 2.8, "reviews": 9, "place_id": "ChIJNX8o2OptAHwRzFIf9aIBqxA", "latitude": 21.2999869, "longitude": -157.8337073, "care_type": "OB-GYN"}, {"name": "Dr. Kasey Kajiwara", "address": "302 California Ave APT 106, Wahiawa, HI 96786", "city": "Wahiawa", "phone": "+1 808-622-1618", "website": "https://www.hawaiipacifichealth.org/find-a-physician/search-results/Kasey-Kajiwara/1834", "rating": null, "reviews": 0, "place_id": "ChIJVVUVa_FdAHwRumfN5LNBSAM", "latitude": 21.4956804, "longitude": -158.0312627, "care_type": "OB-GYN"}, {"name": "Dr. Peyton H. Hurt, MD", "address": "1 Jarrett White Rd, TRIPLER AMC, HI 96859", "city": "TRIPLER AMC", "phone": "+1 808-433-2460", "website": "", "rating": null, "reviews": 0, "place_id": "ChIJ3xTzLMNuAHwRP7FU7giaiwQ", "latitude": 21.3597645, "longitude": -157.8900314, "care_type": "OB-GYN"}, {"name": "Dr. Jason R. Patzwald, DO", "address": "1 Jarrett White Road, Tripler Army Medical Center, HI 96859, Honolulu, HI 96819", "city": "Honolulu", "phone": "+1 337-531-3705", "website": "", "rating": null, "reviews": 0, "place_id": "ChIJ3xTzLMNuAHwRtgcEYIa5R1E", "latitude": 21.3607128, "longitude": -157.8887953, "care_type": "OB-GYN"}, {"name": "Honu Concierge: Aya Sultan MD", "address": "900 Fort Street Mall #1040, Honolulu, HI 96813", "city": "Honolulu", "phone": "+1 808-638-3100", "website": "https://honuwh.com/", "rating": 4.0, "reviews": 8, "place_id": "ChIJW6amQFZvAHwRWMe_e9D_5n0", "latitude": 21.3091601, "longitude": -157.8627071, "care_type": "OB-GYN"}, {"name": "Waianae Coast Comprehensive Health Center", "address": "86-260 Farrington Hwy, Waianae, HI 96792", "city": "Waianae", "phone": "+1 808-697-3300", "website": "https://www.wcchc.com/", "rating": 2.7, "reviews": 100, "place_id": "ChIJnSmVcdyJAHwRQP410DJrkPI", "latitude": 21.4299537, "longitude": -158.1798276, "care_type": "OB-GYN"}, {"name": "Antalis Sarah MD", "address": "95-390 Kuahelani Ave APT 4C, Mililani, HI 96789", "city": "Mililani", "phone": "+1 808-627-3200", "website": "", "rating": null, "reviews": 0, "place_id": "ChIJieNY0xNnAHwR4NqO6X4nuV4", "latitude": 21.4586749, "longitude": -158.0148678, "care_type": "OB-GYN"}, {"name": "Dr. Charles S. Dietrich III, MD", "address": "1 Jarrett White Rd, TRIPLER AMC, HI 96859", "city": "TRIPLER AMC", "phone": "+1 808-433-2460", "website": "", "rating": null, "reviews": 0, "place_id": "ChIJ3xTzLMNuAHwRXpi32kUVcoo", "latitude": 21.3597645, "longitude": -157.8900314, "care_type": "OB-GYN"}, {"name": "Dimarchi James M MD", "address": "3288 Moanalua Rd, Honolulu, HI 96819", "city": "Honolulu", "phone": "+1 808-432-0000", "website": "", "rating": null, "reviews": 0, "place_id": "ChIJ6QMPTtluAHwRSuqlS4B32NY", "latitude": 21.363393, "longitude": -157.899511, "care_type": "OB-GYN"}, {"name": "Schofield Ob/Gyn Clinic", "address": "Schofield Barracks, HI 96857", "city": "Schofield Barracks", "phone": "", "website": "", "rating": 2.7, "reviews": 3, "place_id": "ChIJ9YSImVlfAHwRR3hFzdfK96s", "latitude": 21.4956682, "longitude": -158.0572219, "care_type": "OB-GYN"}, {"name": "Dr. Michael C. Aaronoff, MD", "address": "94-235 Hanawai Cir #1b, Waipahu, HI 96797", "city": "Waipahu", "phone": "+1 808-671-0090", "website": "", "rating": null, "reviews": 0, "place_id": "ChIJ4dOWPS5kAHwRgUdgLiq1LRY", "latitude": 21.3843859, "longitude": -158.0075653, "care_type": "OB-GYN"}, {"name": "Dr. Alan P. Gehrich, MD", "address": "1 Jarrett White Rd, TRIPLER AMC, HI 96859", "city": "TRIPLER AMC", "phone": "+1 808-433-2478", "website": "", "rating": null, "reviews": 0, "place_id": "ChIJ3xTzLMNuAHwR5z4Pn5kLnBk", "latitude": 21.3604494, "longitude": -157.8912341, "care_type": "OB-GYN"}, {"name": "Brittney Williams", "address": "915 N King St, Honolulu, HI 96817", "city": "Honolulu", "phone": "+1 808-848-1438", "website": "", "rating": null, "reviews": 0, "place_id": "ChIJq6o-MHtuAHwRaK_NFzSeYHU", "latitude": 21.3228144, "longitude": -157.8682726, "care_type": "OB-GYN"}, {"name": "Dr. Douglas K. Tom, MD", "address": "Parking lot, 2828 Paa St # 2420A, Honolulu, HI 96819", "city": "Honolulu", "phone": "+1 808-432-5770", "website": "", "rating": null, "reviews": 0, "place_id": "ChIJ92OXtuRuAHwRqn2sw6vxDts", "latitude": 21.3457773, "longitude": -157.8946783, "care_type": "OB-GYN"}, {"name": "Rojales Redentor C MD", "address": "94-300 Farrington Hwy Ste F8, Waipahu, HI 96797", "city": "Waipahu", "phone": "+1 808-677-1433", "website": "", "rating": null, "reviews": 0, "place_id": "ChIJIcoTbDxkAHwR-XIGyjS9nUY", "latitude": 21.3810793, "longitude": -158.0189097, "care_type": "OB-GYN"}, {"name": "Heth Samuel R MD", "address": "480 Central Ave, Joint Base Pearl Harbor Hickam, HI 96860", "city": "Joint Base Pearl Harbor Hickam", "phone": "+1 808-257-5041", "website": "", "rating": null, "reviews": 0, "place_id": "ChIJg_XiUYFlAHwRLoX9_GiRKog", "latitude": 21.348021, "longitude": -157.957586, "care_type": "OB-GYN"}, {"name": "Rosemeyer Christopher DO", "address": "1 Jarrett White Rd, TRIPLER AMC, HI 96859", "city": "TRIPLER AMC", "phone": "+1 808-433-1815", "website": "", "rating": null, "reviews": 0, "place_id": "ChIJ3xTzLMNuAHwRYkxy2Wzv2Es", "latitude": 21.3597645, "longitude": -157.8900314, "care_type": "OB-GYN"}, {"name": "Stephen T. Foley M.D.", "address": "128 Lehua St #2036, Wahiawa, HI 96786", "city": "Wahiawa", "phone": "+1 808-523-9300", "website": "", "rating": null, "reviews": 0, "place_id": "ChIJe--bG2ldAHwRjvjM92yiBr0", "latitude": 21.4990365, "longitude": -158.0262249, "care_type": "OB-GYN"}, {"name": "Kauai Women's Health Center", "address": "4491 Rice St Ste 101, Lihue, HI 96766", "city": "Lihue", "phone": "+1 808-482-0272", "website": "https://www.kauaiwomenshealthcenter.com/", "rating": 5.0, "reviews": 47, "place_id": "ChIJZWBjm6cdB3wRFpoiAwdTFR8", "latitude": 21.9752114, "longitude": -159.3706686, "care_type": "OB-GYN"}, {"name": "Dr. Melani Harker, MD", "address": "3-3420 Kuhio Hwy, Lihue, HI 96766", "city": "Lihue", "phone": "+1 808-245-1500", "website": "http://www.wilcoxhealth.org/", "rating": 5.0, "reviews": 1, "place_id": "ChIJoc6etmEeB3wRcYMKHGi57Zw", "latitude": 21.9856554, "longitude": -159.3656486, "care_type": "OB-GYN"}, {"name": "Mathis Robert MD", "address": "3-3420 Kuhio Hwy # B, Lihue, HI 96766", "city": "Lihue", "phone": "+1 808-245-1100", "website": "http://wilcoxhealth.org/", "rating": 5.0, "reviews": 1, "place_id": "ChIJTzKs6GEeB3wRJmTMvvk9TD8", "latitude": 21.9856957, "longitude": -159.3646515, "care_type": "OB-GYN"}, {"name": "Aries Kuo", "address": "3-3420 Kuhio Hwy # B, Lihue, HI 96766", "city": "Lihue", "phone": "+1 808-245-1500", "website": "https://www.hawaiipacifichealth.org/find-a-physician/search-results/Aries-Kuo/2412", "rating": 3.0, "reviews": 2, "place_id": "ChIJk5fSHmIeB3wRHoDtnJ9BN4U", "latitude": 21.9857403, "longitude": -159.3655958, "care_type": "OB-GYN"}, {"name": "Fujiyoshi Carol A MD", "address": "3-3420 Kuhio Hwy # B, Lihue, HI 96766", "city": "Lihue", "phone": "+1 808-245-1100", "website": "https://www.hawaiipacifichealth.org/find-a-physician/search-results/Carol-Aiko-Fujiyoshi/1074", "rating": null, "reviews": 0, "place_id": "ChIJTzKs6GEeB3wRL4UoZd4G3w0", "latitude": 21.9857403, "longitude": -159.3655958, "care_type": "OB-GYN"}, {"name": "Mc Donald David R MD", "address": "3-3420 Kuhio Hwy, Lihue, HI 96766", "city": "Lihue", "phone": "+1 808-245-1511", "website": "http://wilcoxhealth.org/", "rating": 5.0, "reviews": 2, "place_id": "ChIJoc6etmEeB3wRBqAvvRsULIY", "latitude": 21.9866951, "longitude": -159.3633335, "care_type": "OB-GYN"}, {"name": "Chatkupt Surachat MD", "address": "4643 Waimea Canyon Dr, Waimea, HI 96796", "city": "Waimea", "phone": "+1 808-338-8311", "website": "https://kauai.hhsc.org/physicians-and-providers/surachat-chatkupt/", "rating": 5.0, "reviews": 3, "place_id": "ChIJ0wX-jgiqB3wRAMNuJ-ewuq4", "latitude": 21.9608529, "longitude": -159.6704512, "care_type": "OB-GYN"}, {"name": "Littler Susan J MD", "address": "3-3420 Kuhio Hwy # B, Lihue, HI 96766", "city": "Lihue", "phone": "+1 808-245-1511", "website": "http://wilcoxhealth.org/", "rating": 1.0, "reviews": 2, "place_id": "ChIJTzKs6GEeB3wR16qzWz5j3dc", "latitude": 21.9856957, "longitude": -159.3646515, "care_type": "OB-GYN"}, {"name": "Hua Moon Women's Health, LLC", "address": "4-1191 Kuhio Hwy Ste #102, Kapa\u02bba, HI 96746", "city": "Kapa\u02bba", "phone": "+1 808-631-2682", "website": "http://huamoonwomenshealth.com/", "rating": 5.0, "reviews": 12, "place_id": "ChIJG__uYvLgBnwRwo5WhVORNy8", "latitude": 22.0714139, "longitude": -159.3197699, "care_type": "OB-GYN"}, {"name": "Dr. David Mcdonald", "address": "3-3420 Kuhio Hwy # B, Lihue, HI 96766", "city": "Lihue", "phone": "+1 808-245-1364", "website": "https://www.hawaiipacifichealth.org/find-a-physician/search-results/David-R-McDonald/533", "rating": null, "reviews": 0, "place_id": "ChIJk5fSHmIeB3wR92FFy0Q4tTE", "latitude": 21.9857403, "longitude": -159.3655958, "care_type": "OB-GYN"}, {"name": "Dr. Edward F. Abbott, MD", "address": "3-3420 Kuhio Hwy, Lihue, HI 96766", "city": "Lihue", "phone": "+1 808-245-1500", "website": "http://www.wilcoxhealth.org/", "rating": null, "reviews": 0, "place_id": "ChIJoc6etmEeB3wRffKIVT0vwOI", "latitude": 21.9856554, "longitude": -159.3656486, "care_type": "OB-GYN"}, {"name": "Heidi Jean Purcell", "address": "4643 B Waimea Canyon Dr, Waimea, HI 96796", "city": "Waimea", "phone": "+1 808-338-8311", "website": "", "rating": 2.3, "reviews": 3, "place_id": "ChIJ__8vieGpB3wRLliHZzcK0GI", "latitude": 21.961267, "longitude": -159.67112, "care_type": "OB-GYN"}, {"name": "Dr. Clyner Antalan", "address": "3-3420 Kuhio Hwy # B, Lihue, HI 96766", "city": "Lihue", "phone": "+1 808-245-1500", "website": "https://www.hawaiipacifichealth.org/find-a-physician/search-results/Clyner-Antalan/1660", "rating": null, "reviews": 0, "place_id": "ChIJk5fSHmIeB3wRwGdus14f_9A", "latitude": 21.9857403, "longitude": -159.3655958, "care_type": "OB-GYN"}, {"name": "Mauna Kah\u0101l\u0101wai Midwifery and Birth Services, LLC", "address": "1830 HI-30, Lahaina, HI 96761", "city": "Lahaina", "phone": "+1 808-292-3556", "website": "https://maunakahalawaimidwifery.com/", "rating": 5.0, "reviews": 9, "place_id": "ChIJwU4u9IiveiYRmXZsAOzoC0k", "latitude": 20.904995, "longitude": -156.684285, "care_type": "OB-GYN"}, {"name": "Dr. Ann M. Rahall, MD", "address": "140 Hoohana St, Kahului, HI 96732", "city": "Kahului", "phone": "+1 808-871-1176", "website": "", "rating": null, "reviews": 0, "place_id": "ChIJMTKG19zSVHkR_G5Pn-BfuGY", "latitude": 20.8883051, "longitude": -156.4644334, "care_type": "OB-GYN"}, {"name": "Women\u2019s Specialty Care and Janet M. Burlingame, MD", "address": "970 N Kalaheo Ave Suite A108, Kailua, HI 96734", "city": "Kailua", "phone": "+1 808-762-1996", "website": "https://www.womensspecialty.care/contact", "rating": 4.9, "reviews": 29, "place_id": "ChIJ_____-ptAHwRK6rzhTgkQ34", "latitude": 21.421102, "longitude": -157.7475028, "care_type": "OB-GYN"}, {"name": "Eesha Bhattacharyya, M.D.", "address": "642 Ulukahiki St Suite 209, Kailua, HI 96734", "city": "Kailua", "phone": "+1 808-230-8500", "website": "https://www.koolauwomenshealthcare.com/meet-our-obgyns-in-hawaii/", "rating": 3.4, "reviews": 7, "place_id": "ChIJj5NisbUUAHwR6fRXthzua0Q", "latitude": 21.3803981, "longitude": -157.7576323, "care_type": "OB-GYN"}, {"name": "Heather Awaya, M.D.", "address": "642 Ulukahiki St Suite 209, Kailua, HI 96734", "city": "Kailua", "phone": "+1 808-230-8500", "website": "https://koolauwomenshealthcare.com/about-us/heather-awaya-md/", "rating": 5.0, "reviews": 3, "place_id": "ChIJoXINlbUUAHwRsgO4UiYx3lU", "latitude": 21.3804138, "longitude": -157.7576719, "care_type": "OB-GYN"}, {"name": "Dr. Susan Vicenti MD", "address": "40 Aulike St # 410, Kailua, HI 96734", "city": "Kailua", "phone": "+1 808-261-3000", "website": "https://www.adventisthealth.org/provider/susan-m-vicenti-md-obstetrics--gynecology", "rating": 4.8, "reviews": 18, "place_id": "ChIJqXHrEdwUAHwRQYgEszUUivw", "latitude": 21.3965997, "longitude": -157.7427464, "care_type": "OB-GYN"}, {"name": "Alisha A. Wallace, PA-C", "address": "642 Ulukahiki St #305, Kailua, HI 96734", "city": "Kailua", "phone": "+1 808-261-6644", "website": "", "rating": 4.7, "reviews": 14, "place_id": "ChIJOXXgs7UUAHwRgDYui_jGeRE", "latitude": 21.3803823, "longitude": -157.7575928, "care_type": "OB-GYN"}, {"name": "Alison Moore, MD", "address": "642 Ulukahiki St #305, Kailua, HI 96734", "city": "Kailua", "phone": "+1 808-263-5433", "website": "https://doctors.adventisthealth.org/provider/Alison%2BD%2BMoore/1341912", "rating": 4.5, "reviews": 10, "place_id": "ChIJQTwNlbUUAHwRHrj4D6rTA3I", "latitude": 21.3814306, "longitude": -157.7573143, "care_type": "OB-GYN"}, {"name": "Tricia Song, MD", "address": "642 Ulukahiki St #305, Kailua, HI 96734", "city": "Kailua", "phone": "+1 808-261-6644", "website": "https://doctors.adventisthealth.org/provider/Tricia%2BL%2BSong/1341435", "rating": 5.0, "reviews": 4, "place_id": "ChIJOXXgs7UUAHwRjp6J4nVsPSQ", "latitude": 21.3803823, "longitude": -157.7575928, "care_type": "OB-GYN"}, {"name": "EmmaKate Friedlander, MD", "address": "642 Ulukahiki St #305, Kailua, HI 96734", "city": "Kailua", "phone": "+1 808-261-6644", "website": "", "rating": 5.0, "reviews": 2, "place_id": "ChIJOXXgs7UUAHwRdeTRRK62dGU", "latitude": 21.3803823, "longitude": -157.7575928, "care_type": "OB-GYN"}, {"name": "Windward Women's Care LLC", "address": "40 Aulike St #211, Kailua, HI 96734", "city": "Kailua", "phone": "+1 808-263-7383", "website": "http://www.tradewindsfm.com/", "rating": null, "reviews": 0, "place_id": "ChIJqzfJE9wUAHwRCcg1YAZAaRU", "latitude": 21.3966488, "longitude": -157.7428092, "care_type": "OB-GYN"}, {"name": "Kailua Osteoporosis Center", "address": "40 Aulike St # 410, Kailua, HI 96734", "city": "Kailua", "phone": "+1 808-261-3000", "website": "", "rating": null, "reviews": 0, "place_id": "ChIJqXHrEdwUAHwRfn87e08nLXw", "latitude": 21.3965997, "longitude": -157.7427464, "care_type": "OB-GYN"}, {"name": "Dr. Sloane Berger-Chen MD", "address": "407 Uluniu St, Kailua, HI 96734", "city": "Kailua", "phone": "+1 808-262-0544", "website": "https://www.adventisthealth.org/provider/sloane-w-berger-chen-md-obstetrics--gynecology", "rating": 3.0, "reviews": 2, "place_id": "ChIJWdiqDNwUAHwRMJ1UZYgU59o", "latitude": 21.3963889, "longitude": -157.7433333, "care_type": "OB-GYN"}, {"name": "Catherine Kurosu, MD, LAc", "address": "417 Uluniu St G, Kailua, HI 96734", "city": "Kailua", "phone": "+1 808-366-3985", "website": "http://www.catherinemdacupuncture.com/", "rating": 4.2, "reviews": 5, "place_id": "ChIJDZv7itsUAHwRnxlFs591ZcE", "latitude": 21.3961803, "longitude": -157.7436243, "care_type": "OB-GYN"}, {"name": "Windward Ob-Gyn", "address": "46-001 Kamehameha Hwy #204, Kaneohe, HI 96744", "city": "Kaneohe", "phone": "+1 808-235-8000", "website": "https://www.windwardobgyn.com/", "rating": 4.2, "reviews": 10, "place_id": "ChIJoUjsZvxqAHwR64zW3X0IVjc", "latitude": 21.4187174, "longitude": -157.8017897, "care_type": "OB-GYN"}, {"name": "Dr. Leighann Frattarelli MD", "address": "407 Uluniu St, Kailua, HI 96734", "city": "Kailua", "phone": "+1 808-262-0544", "website": "https://www.adventisthealth.org/provider/leighann-c-frattarelli-md-obstetrics--gynecology", "rating": null, "reviews": 0, "place_id": "ChIJvQtWc9wUAHwR7CjwKe_7x5k", "latitude": 21.3963517, "longitude": -157.7433376, "care_type": "OB-GYN"}, {"name": "Dr. Li-Duen Clark MD", "address": "46-001 Kamehameha Hwy #204, Kaneohe, HI 96744", "city": "Kaneohe", "phone": "+1 808-235-8000", "website": "https://www.adventisthealth.org/provider/li-duen-clark-md-obstetrics--gynecology", "rating": 4.1, "reviews": 14, "place_id": "ChIJ2dGa6vtqAHwRb926zmKw23E", "latitude": 21.4188485, "longitude": -157.8019931, "care_type": "OB-GYN"}, {"name": "Dr. Kimberly Lund", "address": "970 N Kalaheo Ave, Kailua, HI 96734", "city": "Kailua", "phone": "+1 808-263-7383", "website": "http://www.tradewindsfm.com/", "rating": 4.3, "reviews": 6, "place_id": "ChIJL_DuhzkVAHwRmZ0mW74VXu4", "latitude": 21.421102, "longitude": -157.7475028, "care_type": "OB-GYN"}, {"name": "Straub Benioff Medical Center - Kailua Clinic", "address": "602 Kailua Rd #200, Kailua, HI 96734", "city": "Kailua", "phone": "+1 808-263-9100", "website": "https://www.hawaiipacifichealth.org/straub/locations/straub-medical-center-kailua-clinic/", "rating": 3.6, "reviews": 21, "place_id": "ChIJpbEE89wUAHwRZlmtT2Dfs_Y", "latitude": 21.3943679, "longitude": -157.7421049, "care_type": "OB-GYN"}, {"name": "Dr. Emmakate Friedlander", "address": "642 Ulukahiki St #305, Kailua, HI 96734", "city": "Kailua", "phone": "+1 808-261-6644", "website": "https://doctors.adventisthealth.org/provider/EmmaKate%2BB%2BFriedlander/1341816", "rating": null, "reviews": 0, "place_id": "ChIJLcUSurUUAHwRQ42meaKyW8M", "latitude": 21.3807921, "longitude": -157.7575897, "care_type": "OB-GYN"}, {"name": "Dr. John Frattarelli MD", "address": "407 Uluniu St #312, Kailua, HI 96734", "city": "Kailua", "phone": "+1 808-262-0544", "website": "https://www.adventisthealth.org/provider/john-l-frattarelli-md-reproductive-endocrinologyinf", "rating": null, "reviews": 0, "place_id": "ChIJvQtWc9wUAHwRKQI4tr39dKk", "latitude": 21.3963517, "longitude": -157.7433376, "care_type": "OB-GYN"}, {"name": "Ucera Womens Care", "address": "94-235 Hanawai Cir, Waipahu, HI 96797", "city": "Waipahu", "phone": "+1 808-671-0090", "website": "", "rating": null, "reviews": 0, "place_id": "ChIJCe5qIy5kAHwRt6TrG-1WLkc", "latitude": 21.3843859, "longitude": -158.0075653, "care_type": "OB-GYN"}, {"name": "Waipahu Family Health Center", "address": "94-428 Mokuola St #108b, Waipahu, HI 96797", "city": "Waipahu", "phone": "+1 808-697-3888", "website": "https://www.wcchc.com/Contact/Waipahu-Family-Health-Center-Primary-Care", "rating": 3.8, "reviews": 12, "place_id": "ChIJQ0HInS5kAHwRMXEtsVxFTeo", "latitude": 21.3872385, "longitude": -158.0060986, "care_type": "OB-GYN"}, {"name": "Dr. Jean-Paul Clark MD", "address": "46-001 Kamehameha Hwy #204, Kaneohe, HI 96744", "city": "Kaneohe", "phone": "+1 808-235-8000", "website": "https://www.adventisthealth.org/provider/jean-paul-clark-md-obstetrics--gynecology", "rating": 4.5, "reviews": 15, "place_id": "ChIJ2dGa6vtqAHwRN6YWmH3LvpE", "latitude": 21.4188485, "longitude": -157.8019931, "care_type": "OB-GYN"}, {"name": "Papst Alan R MD", "address": "46-001 Kamehameha Hwy #305, Kaneohe, HI 96744", "city": "Kaneohe", "phone": "+1 808-235-1191", "website": "", "rating": 5.0, "reviews": 2, "place_id": "ChIJ2dGa6vtqAHwRtNkoiGROHbA", "latitude": 21.4187688, "longitude": -157.8018269, "care_type": "OB-GYN"}, {"name": "Dr. Ronnie B. Texeira", "address": "46-056 Kamehameha Hwy, Kaneohe, HI 96744", "city": "Kaneohe", "phone": "+1 808-233-6200", "website": "https://www.hawaiipacifichealth.org/find-a-physician/search-results/Ronnie-BN-Texeira/1247", "rating": null, "reviews": 0, "place_id": "ChIJ4-peB_lqAHwRCpC33w226cM", "latitude": 21.419929, "longitude": -157.805326, "care_type": "OB-GYN"}, {"name": "Dr. Randal K. Yanagisawa, MD", "address": "45-602 Kamehameha Hwy, Kaneohe, HI 96744", "city": "Kaneohe", "phone": "+1 808-432-3800", "website": "", "rating": null, "reviews": 0, "place_id": "ChIJbTQfnQVrAHwRjn5Pkz0Liro", "latitude": 21.4009394, "longitude": -157.8004671, "care_type": "OB-GYN"}, {"name": "Straub Benioff Medical Center - Kaneohe Clinic", "address": "Windward Mall, 46-056 Kamehameha Hwy #221, Kaneohe, HI 96744", "city": "Kaneohe", "phone": "+1 808-233-6200", "website": "https://www.hawaiipacifichealth.org/straub/locations/straub-medical-center-kaneohe-clinic/", "rating": 3.7, "reviews": 14, "place_id": "ChIJo8VKqPlqAHwRy8TO1Id4dwg", "latitude": 21.4198109, "longitude": -157.8059482, "care_type": "OB-GYN"}, {"name": "Dr. Eileen M. Ogasawara-Chun, MD", "address": "45-602 Kamehameha Hwy, Kaneohe, HI 96744", "city": "Kaneohe", "phone": "+1 808-432-3800", "website": "", "rating": null, "reviews": 0, "place_id": "ChIJbTQfnQVrAHwRPnEwUifA47o", "latitude": 21.4009394, "longitude": -157.8004671, "care_type": "OB-GYN"}, {"name": "Kevin C Chen Inc", "address": "46-001 Kamehameha Hwy #305, Kaneohe, HI 96744", "city": "Kaneohe", "phone": "", "website": "", "rating": null, "reviews": 0, "place_id": "ChIJ2dGa6vtqAHwRLSoaOqPkFmA", "latitude": 21.4187688, "longitude": -157.8018269, "care_type": "OB-GYN"}, {"name": "Dr. Richard Mccartin", "address": "302 California Ave APT 106, Wahiawa, HI 96786", "city": "Wahiawa", "phone": "+1 808-622-1618", "website": "https://www.hawaiipacifichealth.org/find-a-physician/search-results/Richard-McCartin/820", "rating": null, "reviews": 0, "place_id": "ChIJVVUVa_FdAHwRTQp1-QQJ0sU", "latitude": 21.4956804, "longitude": -158.0312627, "care_type": "OB-GYN"}, {"name": "Robb K. Ohtani, MD", "address": "1329 Lusitana St # 402, Honolulu, HI 96813", "city": "Honolulu", "phone": "+1 808-686-4790", "website": "", "rating": 5.0, "reviews": 4, "place_id": "ChIJXfHBbN5tAHwR_cqFeynluXc", "latitude": 21.3075451, "longitude": -157.8520429, "care_type": "OB-GYN"}, {"name": "Dr. Ken A. Nakasone, MD", "address": "1329 Lusitana St # B2, Honolulu, HI 96813", "city": "Honolulu", "phone": "+1 808-599-4200", "website": "", "rating": 5.0, "reviews": 4, "place_id": "ChIJXfHBbN5tAHwR-O5pGlH6pR0", "latitude": 21.3075359, "longitude": -157.8521078, "care_type": "OB-GYN"}, {"name": "Dr. Harry N. Yoshino, MD", "address": "1329 Lusitana St # B2, Honolulu, HI 96813", "city": "Honolulu", "phone": "+1 808-599-4200", "website": "", "rating": 5.0, "reviews": 1, "place_id": "ChIJXfHBbN5tAHwRj9NLzpZI5uo", "latitude": 21.3075384, "longitude": -157.8520514, "care_type": "OB-GYN"}, {"name": "Dr. Celia E. Dominguez, MD", "address": "1319 Punahou St, Honolulu, HI 96826", "city": "Honolulu", "phone": "+1 808-946-2221", "website": "http://www.pacificinvitro.com/doctors.php", "rating": 5.0, "reviews": 12, "place_id": "ChIJQ2fzIuttAHwRJFLPWFVixKg", "latitude": 21.2999472, "longitude": -157.8341405, "care_type": "OB-GYN"}, {"name": "Pratt Angela M MD", "address": "1319 Punahou St Ste 920, Honolulu, HI 96826", "city": "Honolulu", "phone": "+1 808-948-8788", "website": "", "rating": 4.5, "reviews": 8, "place_id": "ChIJ_2bzIuttAHwRXaTscG5J1co", "latitude": 21.2999869, "longitude": -157.8337073, "care_type": "OB-GYN"}, {"name": "Cheryl Twu, DO", "address": "1441 Kapiolani Blvd Suite 1005, Honolulu, HI 96814", "city": "Honolulu", "phone": "+1 808-900-4554", "website": "http://wellnessobgyn.com/", "rating": 4.4, "reviews": 7, "place_id": "ChIJt6OfZJNtAHwRvgGfUpnZH2g", "latitude": 21.291298, "longitude": -157.8433791, "care_type": "OB-GYN"}, {"name": "Ushijima Charlene M MD", "address": "1319 Punahou St, Honolulu, HI 96826", "city": "Honolulu", "phone": "+1 808-524-4606", "website": "", "rating": 5.0, "reviews": 1, "place_id": "ChIJDUgIW95tAHwR1RxT3ZOLPbo", "latitude": 21.2998428, "longitude": -157.8334591, "care_type": "OB-GYN"}, {"name": "Donna K Yamada Inc", "address": "1319 Punahou St #500, Honolulu, HI 96826", "city": "Honolulu", "phone": "+1 808-946-4066", "website": "", "rating": 5.0, "reviews": 1, "place_id": "ChIJ_2bzIuttAHwRG86AhnU0a1U", "latitude": 21.2999671, "longitude": -157.8339239, "care_type": "OB-GYN"}, {"name": "Mcnally Peter S MD", "address": "1319 Punahou St #525, Honolulu, HI 96826", "city": "Honolulu", "phone": "+1 808-947-3122", "website": "", "rating": 5.0, "reviews": 5, "place_id": "ChIJ_2bzIuttAHwRAMSluHW3fFE", "latitude": 21.2999472, "longitude": -157.8341405, "care_type": "OB-GYN"}, {"name": "Hew Denise w L MD", "address": "1380 Lusitana St Suite 809, Honolulu, HI 96813", "city": "Honolulu", "phone": "+1 808-536-3700", "website": "http://www.drhew.com/", "rating": 4.2, "reviews": 5, "place_id": "ChIJDUgIW95tAHwRtvJhjc3wSAA", "latitude": 21.3079573, "longitude": -157.8528568, "care_type": "OB-GYN"}, {"name": "Shigezawa Allison MD", "address": "1329 Lusitana St # 402, Honolulu, HI 96813", "city": "Honolulu", "phone": "+1 808-686-4790", "website": "http://shigezawa.com/", "rating": 3.5, "reviews": 8, "place_id": "ChIJXfHBbN5tAHwR9mlbnnGaSYk", "latitude": 21.3075725, "longitude": -157.8520753, "care_type": "OB-GYN"}, {"name": "Ikehara Richard T MD", "address": "1329 Lusitana St # 402, Honolulu, HI 96813", "city": "Honolulu", "phone": "+1 808-686-4790", "website": "https://www.queens.org/providers/564/richard-t-ikehara/", "rating": 3.7, "reviews": 3, "place_id": "ChIJZ1FlrpNtAHwRdP273VWUakw", "latitude": 21.3075725, "longitude": -157.8520753, "care_type": "OB-GYN"}, {"name": "Yazawa Keijiro MD", "address": "1441 Kapiolani Blvd, Honolulu, HI 96814", "city": "Honolulu", "phone": "+1 808-945-3719", "website": "", "rating": 5.0, "reviews": 1, "place_id": "ChIJUflJJvBtAHwRTxb8V5vKAoQ", "latitude": 21.2928338, "longitude": -157.8430452, "care_type": "OB-GYN"}, {"name": "Ramin C. Jamm, MD", "address": "1380 Lusitana St Suite 405, Honolulu, HI 96813", "city": "Honolulu", "phone": "+1 808-486-8630", "website": "", "rating": 4.8, "reviews": 18, "place_id": "ChIJDUgIW95tAHwREPm8ov1g4Os", "latitude": 21.3079573, "longitude": -157.8528568, "care_type": "OB-GYN"}, {"name": "Dr. Angel M. Willey, MD", "address": "Parking lot, 1319 Punahou St STE 760, Honolulu, HI 96826", "city": "Honolulu", "phone": "+1 808-947-5606", "website": "", "rating": 4.0, "reviews": 4, "place_id": "ChIJ_2bzIuttAHwRqIhmtXHYbYo", "latitude": 21.2999671, "longitude": -157.8339239, "care_type": "OB-GYN"}, {"name": "Chun Benton H MD", "address": "1329 Lusitana St Ste 607, Honolulu, HI 96813", "city": "Honolulu", "phone": "+1 808-523-8868", "website": "http://ivfhawaii.com/", "rating": 5.0, "reviews": 5, "place_id": "ChIJXfHBbN5tAHwR5EQc2MqxuWU", "latitude": 21.3075426, "longitude": -157.8520456, "care_type": "OB-GYN"}, {"name": "Dr. Elenita V. Alvarez, MD", "address": "321 N Kuakini St STE 510, Honolulu, HI 96817", "city": "Honolulu", "phone": "+1 808-521-9847", "website": "", "rating": 5.0, "reviews": 4, "place_id": "ChIJXZEqPNZtAHwRCrpL76wsN0o", "latitude": 21.3216288, "longitude": -157.8559476, "care_type": "OB-GYN"}, {"name": "Sally Markee, MD", "address": "1319 Punahou St #500, Honolulu, HI 96826", "city": "Honolulu", "phone": "+1 808-983-6905", "website": "https://www.hawaiipacifichealth.org/wilcox/find-a-physician/search-results/Sally-Markee/2103", "rating": 5.0, "reviews": 4, "place_id": "ChIJ53TyJettAHwRoan5gU8ODR0", "latitude": 21.2999671, "longitude": -157.8339239, "care_type": "OB-GYN"}, {"name": "Dr. Renee L. Sato, MD", "address": "1380 Lusitana St STE 504, Honolulu, HI 96813", "city": "Honolulu", "phone": "+1 808-531-6727", "website": "http://www.obgynmom.com/", "rating": 3.5, "reviews": 8, "place_id": "ChIJDUgIW95tAHwREOQ2rojTEZE", "latitude": 21.3080213, "longitude": -157.852902, "care_type": "OB-GYN"}, {"name": "Franklin Dao, MD", "address": "1329 Lusitana St # B2, Honolulu, HI 96813", "city": "Honolulu", "phone": "+1 808-599-4200", "website": "http://www.hawaiiobgyninc.com/", "rating": 5.0, "reviews": 13, "place_id": "ChIJJxa-bt5tAHwRNMXEovp_JuE", "latitude": 21.3075601, "longitude": -157.8520442, "care_type": "OB-GYN"}, {"name": "Wong Grace MD", "address": "1329 Lusitana St # 709, Honolulu, HI 96813", "city": "Honolulu", "phone": "+1 808-522-7380", "website": "", "rating": 5.0, "reviews": 3, "place_id": "ChIJXfHBbN5tAHwRov7KpORwN2s", "latitude": 21.3081341, "longitude": -157.8530109, "care_type": "OB-GYN"}, {"name": "Laura Spector, DO", "address": "1319 Punahou St Suites 760 & 1110, Honolulu, HI 96826", "city": "Honolulu", "phone": "+1 808-947-5606", "website": "https://www.hawaiiwomenshealthcare.org/%3Futm_source%3Dgmb_auth", "rating": 4.8, "reviews": 23, "place_id": "ChIJz5mnOOFtAHwRXDTfVSms1Yg", "latitude": 21.2998428, "longitude": -157.8334591, "care_type": "OB-GYN"}, {"name": "Queen\u2019s Medical Center Urogynecology", "address": "1329 Lusitana St # 202, Honolulu, HI 96813", "city": "Honolulu", "phone": "+1 808-686-4670", "website": "http://www.hawaiiurogyn.com/", "rating": 4.4, "reviews": 14, "place_id": "ChIJQf310d9tAHwR7AJp_Ly_TeI", "latitude": 21.3075359, "longitude": -157.8521078, "care_type": "OB-GYN"}, {"name": "Ponder Reagan Dr", "address": "Koko Marina Center Building E, 7192 Kalaniana\u02bbole Hwy e206, Honolulu, HI 96825", "city": "Honolulu", "phone": "+1 808-396-6321", "website": "http://www.straubhealth.org/", "rating": 5.0, "reviews": 2, "place_id": "ChIJxSvxTWQSAHwRplAUibTaIfk", "latitude": 21.2780082, "longitude": -157.7054809, "care_type": "OB-GYN"}, {"name": "Bradley Sakaguchi MD", "address": "1010 S King St #604, Honolulu, HI 96814", "city": "Honolulu", "phone": "+1 808-852-8535", "website": "", "rating": 5.0, "reviews": 8, "place_id": "ChIJ_3gHUgluAHwRVO9Alf0HkK0", "latitude": 21.3020985, "longitude": -157.8483857, "care_type": "OB-GYN"}, {"name": "Dr. Shera Sugibayashi, MD", "address": "1380 Lusitana St Suite 1014, Honolulu, HI 96813", "city": "Honolulu", "phone": "+1 808-546-1199", "website": "https://www.hawaiipacifichealth.org/find-a-physician/search-results/Shera-Sugibayashi/1060", "rating": 2.8, "reviews": 9, "place_id": "ChIJQf310d9tAHwRsf6G-R0xnho", "latitude": 21.3079573, "longitude": -157.8528568, "care_type": "OB-GYN"}, {"name": "Andrea Wieland, APRN", "address": "Parking lot, 1319 Punahou St Suites 760 & 1110, Honolulu, HI 96826", "city": "Honolulu", "phone": "+1 808-947-5606", "website": "https://www.hawaiiwomenshealthcare.org/%3Futm_source%3Dgmb_auth", "rating": 4.6, "reviews": 11, "place_id": "ChIJg38B0f5tAHwRKQ2WO4vYJIc", "latitude": 21.299889, "longitude": -157.8335129, "care_type": "OB-GYN"}, {"name": "Yazawa Akiko MD", "address": "Parking lot, 1319 Punahou St, Honolulu, HI 96826", "city": "Honolulu", "phone": "+1 808-955-6324", "website": "https://www.hawaiipacifichealth.org/straub/find-a-physician/search-results/Akiko-Yazawa/397", "rating": 5.0, "reviews": 1, "place_id": "ChIJ_2bzIuttAHwRkdKBwz-m8MQ", "latitude": 21.3000065, "longitude": -157.8333451, "care_type": "OB-GYN"}, {"name": "Kim Robert MD University Women's Health", "address": "1329 Lusitana St #703, Honolulu, HI 96813", "city": "Honolulu", "phone": "+1 808-686-4610", "website": "https://www.queens.org/providers/684/robert-j-kim/", "rating": 4.3, "reviews": 6, "place_id": "ChIJXfHBbN5tAHwRUy8EPlcmQaU", "latitude": 21.307536, "longitude": -157.852108, "care_type": "OB-GYN"}, {"name": "Kurt Yoshino", "address": "1329 Lusitana St # B2, Honolulu, HI 96813", "city": "Honolulu", "phone": "+1 808-599-4200", "website": "https://hawaiiobgyninc.com/", "rating": 5.0, "reviews": 2, "place_id": "ChIJKy26bt5tAHwRGeJye_YGJ08", "latitude": 21.3075393, "longitude": -157.8520767, "care_type": "OB-GYN"}, {"name": "TERESA M. WALSH", "address": "711 Kapiolani Blvd Suite 500, Honolulu, HI 96813", "city": "Honolulu", "phone": "+1 808-942-8108", "website": "", "rating": null, "reviews": 0, "place_id": "ChIJJfUf7uFtAHwRGDnJ9e2UoF0", "latitude": 21.301318, "longitude": -157.8559533, "care_type": "OB-GYN"}, {"name": "Chang Simon K MD", "address": "1100 Ward Ave #701, Honolulu, HI 96814", "city": "Honolulu", "phone": "+1 808-599-2854", "website": "", "rating": null, "reviews": 0, "place_id": "ChIJa2cKO-dtAHwRxWEwdL4yr-A", "latitude": 21.3035122, "longitude": -157.8498528, "care_type": "OB-GYN"}, {"name": "Randall G Howerton, MD", "address": "1111 Fort Street Mall 2nd Floor, Honolulu, HI 96813", "city": "Honolulu", "phone": "+1 808-400-5003", "website": "https://www.medicaldetoxhawaii.com/%3Futm_source%3Dgmb_auth", "rating": 5.0, "reviews": 1, "place_id": "ChIJ9Sd6x9lvAHwR_Mwuiyk8EYk", "latitude": 21.3099421, "longitude": -157.8608674, "care_type": "OB-GYN"}, {"name": "Dr. Monique Leung", "address": "1329 Lusitana St Ste 607, Honolulu, HI 96813", "city": "Honolulu", "phone": "+1 808-523-8868", "website": "https://www.hawaiipacifichealth.org/straub/find-a-physician/search-results/Monique-Leung/1850", "rating": 5.0, "reviews": 2, "place_id": "ChIJQUjFbt5tAHwRH6_vxJT1TRc", "latitude": 21.307606, "longitude": -157.8520829, "care_type": "OB-GYN"}, {"name": "Eesha Bhattacharyya, MD", "address": "1329 Lusitana St Suite 508, Honolulu, HI 96813", "city": "Honolulu", "phone": "+1 808-888-3449", "website": "https://koolauwomenshealthcare.com/about-us/eesha-bhattacharyya-md/", "rating": 3.4, "reviews": 7, "place_id": "ChIJ9T-TZvBtAHwRv2PFAP6ltBM", "latitude": 21.3076091, "longitude": -157.8520883, "care_type": "OB-GYN"}, {"name": "Dr. Ian A. Oyama, MD", "address": "1319 Punahou St #801, Honolulu, HI 96826", "city": "Honolulu", "phone": "+1 808-203-6585", "website": "http://www.ucera.org/", "rating": 3.7, "reviews": 7, "place_id": "ChIJ_2bzIuttAHwRzJQDX78ROoE", "latitude": 21.2999472, "longitude": -157.8341405, "care_type": "OB-GYN"}, {"name": "Dr. Redentor C. Rojales, MD", "address": "Kalihi Medical Building, 2055 N King St # 107, Honolulu, HI 96819", "city": "Honolulu", "phone": "+1 808-842-9113", "website": "", "rating": 4.9, "reviews": 8, "place_id": "ChIJffGVvYpuAHwRaIGAiygsQes", "latitude": 21.3330747, "longitude": -157.8793965, "care_type": "OB-GYN"}, {"name": "Dr. Michael C. Savala, MD", "address": "1319 Punahou St #801, Honolulu, HI 96826", "city": "Honolulu", "phone": "+1 808-203-6580", "website": "", "rating": 5.0, "reviews": 2, "place_id": "ChIJ_2bzIuttAHwRfPwZIJeyASQ", "latitude": 21.2999472, "longitude": -157.8341405, "care_type": "OB-GYN"}, {"name": "Thomas Kosasa, M.D.", "address": "1319 Punahou St # 980, Honolulu, HI 96826", "city": "Honolulu", "phone": "+1 808-946-2226", "website": "https://www.pacificinvitro.com/about/doctors", "rating": 4.6, "reviews": 10, "place_id": "ChIJ_2bzIuttAHwR4kHwECi630s", "latitude": 21.2999869, "longitude": -157.8337073, "care_type": "OB-GYN"}, {"name": "Avilla Emma B MD", "address": "1728 Dillingham Blvd, Honolulu, HI 96819", "city": "Honolulu", "phone": "+1 808-842-1585", "website": "", "rating": 3.9, "reviews": 19, "place_id": "ChIJY4nyu2BuAHwRbDIdUUK2ljM", "latitude": 21.3275243, "longitude": -157.8797551, "care_type": "OB-GYN"}, {"name": "Dr. Reni A. Soon, MD", "address": "550 S Beretania St. #610, Honolulu, HI 96813", "city": "Honolulu", "phone": "+1 808-218-7900", "website": "", "rating": 3.0, "reviews": 2, "place_id": "ChIJQf310d9tAHwRcR5ZCW6lU8w", "latitude": 21.3066116, "longitude": -157.8542503, "care_type": "OB-GYN"}, {"name": "Dr. Greigh I. Hirata, MD", "address": "1600 Kapiolani Blvd, Honolulu, HI 96814", "city": "Honolulu", "phone": "+1 808-945-2229", "website": "https://www.hawaiifdip.com/", "rating": 3.5, "reviews": 4, "place_id": "ChIJcw1l-PFtAHwRrQMJI5RSZYA", "latitude": 21.2920925, "longitude": -157.8392341, "care_type": "OB-GYN"}, {"name": "Christian S. Sunoo, MD", "address": "1010 Pensacola St, Honolulu, HI 96814", "city": "Honolulu", "phone": "+1 808-432-2000", "website": "", "rating": 5.0, "reviews": 1, "place_id": "ChIJf9TgO-ZtAHwRibkmnPfCqAw", "latitude": 21.3012009, "longitude": -157.8460183, "care_type": "OB-GYN"}, {"name": "Stephen T. Foley M.D.", "address": "1329 Lusitana St #804, Honolulu, HI 96813", "city": "Honolulu", "phone": "+1 808-523-9300", "website": "https://www.hawaiipacifichealth.org/straub/find-a-physician/search-results/Stephen-Foley/913", "rating": 4.4, "reviews": 27, "place_id": "ChIJXfHBbN5tAHwRazxgKLYLMsw", "latitude": 21.3075359, "longitude": -157.8521078, "care_type": "OB-GYN"}, {"name": "Chang Ann L MD", "address": "1319 Punahou St #801, Honolulu, HI 96826", "city": "Honolulu", "phone": "+1 808-203-6580", "website": "https://www.hawaiipacifichealth.org/find-a-physician/search-results/Ann-Chang/953", "rating": null, "reviews": 0, "place_id": "ChIJ_2bzIuttAHwRPdq2nTJ7hE0", "latitude": 21.3000908, "longitude": -157.8338802, "care_type": "OB-GYN"}, {"name": "WILLIAM A. K. GOH", "address": "711 Kapiolani Blvd Suite 500, Honolulu, HI 96813", "city": "Honolulu", "phone": "+1 808-942-8108", "website": "", "rating": null, "reviews": 0, "place_id": "ChIJJfUf7uFtAHwR54hdGu_4JBU", "latitude": 21.301318, "longitude": -157.8559533, "care_type": "OB-GYN"}, {"name": "MARK S. RHEE", "address": "711 Kapiolani Blvd Suite 500, Honolulu, HI 96813", "city": "Honolulu", "phone": "+1 808-942-8108", "website": "", "rating": null, "reviews": 0, "place_id": "ChIJJfUf7uFtAHwRfMDEvPtLnrM", "latitude": 21.301318, "longitude": -157.8559533, "care_type": "OB-GYN"}, {"name": "LESLIE C. HURT", "address": "711 Kapiolani Blvd Suite 500, Honolulu, HI 96813", "city": "Honolulu", "phone": "+1 808-942-8108", "website": "", "rating": null, "reviews": 0, "place_id": "ChIJJfUf7uFtAHwRkDOqR-kJ_oI", "latitude": 21.301318, "longitude": -157.8559533, "care_type": "OB-GYN"}, {"name": "JOLENE M BACHMAN", "address": "711 Kapiolani Blvd Suite 500, Honolulu, HI 96813", "city": "Honolulu", "phone": "+1 808-942-8108", "website": "https://healthy.kaiserpermanente.org/hawaii/provider/jolene-bachman-1019399", "rating": null, "reviews": 0, "place_id": "ChIJJfUf7uFtAHwRJD7sZ2mp-XE", "latitude": 21.301318, "longitude": -157.8559533, "care_type": "OB-GYN"}, {"name": "Dr. Gwendolyn Chung", "address": "1441 Kapiolani Blvd, Honolulu, HI 96814", "city": "Honolulu", "phone": "+1 808-686-4150", "website": "", "rating": null, "reviews": 0, "place_id": "ChIJq6qqQ_BtAHwRzvLv6fREGFI", "latitude": 21.291298, "longitude": -157.8433791, "care_type": "OB-GYN"}, {"name": "KARIN M. HAYASHIDA", "address": "711 Kapiolani Blvd Suite 500, Honolulu, HI 96813", "city": "Honolulu", "phone": "+1 808-942-8108", "website": "https://healthy.kaiserpermanente.org/hawaii/provider/karin-hayashida-9277079", "rating": null, "reviews": 0, "place_id": "ChIJJfUf7uFtAHwRTei8T9ncqGs", "latitude": 21.301318, "longitude": -157.8559533, "care_type": "OB-GYN"}, {"name": "Heather Awaya, M.D.", "address": "1329 Lusitana St Suite 508, Honolulu, HI 96813", "city": "Honolulu", "phone": "+1 808-888-3449", "website": "https://koolauwomenshealthcare.com/about-us-womens-health-midwife/heather-awaya-md-female-obgyn/", "rating": 3.7, "reviews": 3, "place_id": "ChIJP1r-QVVtAHwRue8oB9IRnzI", "latitude": 21.3076091, "longitude": -157.8520883, "care_type": "OB-GYN"}, {"name": "Christopher S. Miura, MD", "address": "1010 Pensacola St, Honolulu, HI 96814", "city": "Honolulu", "phone": "+1 808-432-2000", "website": "", "rating": null, "reviews": 0, "place_id": "ChIJf9TgO-ZtAHwR-VckXVO-37g", "latitude": 21.3012009, "longitude": -157.8460183, "care_type": "OB-GYN"}, {"name": "Pacific Women's Care LLC", "address": "1380 Lusitana St Suite 1014, Honolulu, HI 96813", "city": "Honolulu", "phone": "+1 808-524-4606", "website": "", "rating": null, "reviews": 0, "place_id": "ChIJDUgIW95tAHwRd0VsL8PjSBs", "latitude": 21.3080213, "longitude": -157.852902, "care_type": "OB-GYN"}, {"name": "EVAN KATHLEEN HARRISON", "address": "711 Kapiolani Blvd Suite 500, Honolulu, HI 96813", "city": "Honolulu", "phone": "+1 808-942-8108", "website": "", "rating": null, "reviews": 0, "place_id": "ChIJJfUf7uFtAHwRKDxd0SPwObo", "latitude": 21.301318, "longitude": -157.8559533, "care_type": "OB-GYN"}, {"name": "Dr. Abbielyn E. Wong, MD", "address": "1010 Pensacola St, Honolulu, HI 96814", "city": "Honolulu", "phone": "+1 808-432-2000", "website": "", "rating": null, "reviews": 0, "place_id": "ChIJf9TgO-ZtAHwRGH1osme7Gw4", "latitude": 21.3012009, "longitude": -157.8460183, "care_type": "OB-GYN"}, {"name": "Lawrence Melissa J MD", "address": "1010 Pensacola St, Honolulu, HI 96814", "city": "Honolulu", "phone": "+1 808-432-2000", "website": "", "rating": null, "reviews": 0, "place_id": "ChIJf9TgO-ZtAHwRMjpWZB9MvJc", "latitude": 21.3012009, "longitude": -157.8460183, "care_type": "OB-GYN"}, {"name": "Dr. Edward N. Kanda, MD", "address": "321 N Kuakini St STE 201, Honolulu, HI 96817", "city": "Honolulu", "phone": "+1 808-523-8611", "website": "", "rating": null, "reviews": 0, "place_id": "ChIJXZEqPNZtAHwRgRugkjBRvdw", "latitude": 21.3216288, "longitude": -157.8559476, "care_type": "OB-GYN"}, {"name": "Buccigrossi Deborah A MD", "address": "1010 Pensacola St, Honolulu, HI 96814", "city": "Honolulu", "phone": "+1 808-432-2000", "website": "", "rating": null, "reviews": 0, "place_id": "ChIJf9TgO-ZtAHwRo_X5xbPyde4", "latitude": 21.3012009, "longitude": -157.8460183, "care_type": "OB-GYN"}, {"name": "Dr. Emily Goulet", "address": "Hale Pawa'a Building, 1401 S Beretania St. #250, Honolulu, HI 96814", "city": "Honolulu", "phone": "+1 808-545-2800", "website": "https://www.ivfcenterhawaii.com/about/meet-our-team/emily-goulet-md/", "rating": 5.0, "reviews": 6, "place_id": "ChIJS5ZlXultAHwRkAk0ujjWyzE", "latitude": 21.2996001, "longitude": -157.8394051, "care_type": "OB-GYN"}, {"name": "TIFFINIE R. MERCADO", "address": "711 Kapiolani Blvd Suite 500, Honolulu, HI 96813", "city": "Honolulu", "phone": "+1 808-942-8108", "website": "https://healthy.kaiserpermanente.org/hawaii/provider/tiffinie-mercado-5533723", "rating": null, "reviews": 0, "place_id": "ChIJJfUf7uFtAHwR_Kd-w-cJwv8", "latitude": 21.301318, "longitude": -157.8559533, "care_type": "OB-GYN"}, {"name": "RANDALL H. HIRATA", "address": "711 Kapiolani Blvd Suite 500, Honolulu, HI 96813", "city": "Honolulu", "phone": "+1 808-942-8108", "website": "https://healthy.kaiserpermanente.org/hawaii/provider/randall-hirata-1775930", "rating": null, "reviews": 0, "place_id": "ChIJJfUf7uFtAHwRVpNkGC7qByk", "latitude": 21.301318, "longitude": -157.8559533, "care_type": "OB-GYN"}, {"name": "Dr. Karen Soules", "address": "1010 Pensacola St # 5th, Honolulu, HI 96814", "city": "Honolulu", "phone": "+1 808-432-2000", "website": "https://healthy.kaiserpermanente.org/hawaii/provider/karen-soules-8992190", "rating": null, "reviews": 0, "place_id": "ChIJ__-PPuZtAHwRR6HjuJvUKrQ", "latitude": 21.3008969, "longitude": -157.8462201, "care_type": "OB-GYN"}, {"name": "Dr. Letah Yang, MD", "address": "1010 Pensacola St, Honolulu, HI 96814", "city": "Honolulu", "phone": "+1 808-432-2000", "website": "", "rating": null, "reviews": 0, "place_id": "ChIJf9TgO-ZtAHwRA12TA1R8VRQ", "latitude": 21.3012009, "longitude": -157.8460183, "care_type": "OB-GYN"}, {"name": "Dr. Yen Cheng Huang, MD", "address": "1356 Lusitana St, Honolulu, HI 96813", "city": "Honolulu", "phone": "+1 808-586-2900", "website": "", "rating": null, "reviews": 0, "place_id": "ChIJo5S5Qt5tAHwRFrHMV7JzEv4", "latitude": 21.3075475, "longitude": -157.8527518, "care_type": "OB-GYN"}, {"name": "EILEEN M. OGASAWARA-CHUN", "address": "711 Kapiolani Blvd Suite 500, Honolulu, HI 96813", "city": "Honolulu", "phone": "+1 808-942-8108", "website": "https://healthy.kaiserpermanente.org/hawaii/provider/eileen-ogasawara-chun-2547247", "rating": null, "reviews": 0, "place_id": "ChIJJfUf7uFtAHwR687GtKRGuG8", "latitude": 21.301318, "longitude": -157.8559533, "care_type": "OB-GYN"}, {"name": "Reina MA Harris LLC", "address": "550 S Beretania St. #614, Honolulu, HI 96813", "city": "Honolulu", "phone": "+1 808-544-0044", "website": "", "rating": null, "reviews": 0, "place_id": "ChIJQf310d9tAHwRKupK53WI26w", "latitude": 21.3066781, "longitude": -157.8543814, "care_type": "OB-GYN"}, {"name": "Dr. Tina P. Chun, MD", "address": "550 S Beretania St. #614, Honolulu, HI 96813", "city": "Honolulu", "phone": "+1 808-546-1199", "website": "", "rating": null, "reviews": 0, "place_id": "ChIJQf310d9tAHwRyEhpaXjdubQ", "latitude": 21.3066781, "longitude": -157.8543814, "care_type": "OB-GYN"}, {"name": "Teruya Thomas H MD", "address": "1329 Lusitana St # B2, Honolulu, HI 96813", "city": "Honolulu", "phone": "+1 808-599-4200", "website": "", "rating": null, "reviews": 0, "place_id": "ChIJXfHBbN5tAHwRp9mDYTBsgqw", "latitude": 21.3075359, "longitude": -157.8521078, "care_type": "OB-GYN"}, {"name": "Dr. Anatte Karmon", "address": "Hale Pawa'a Building, 1401 S Beretania St. #250, Honolulu, HI 96814", "city": "Honolulu", "phone": "+1 808-545-2800", "website": "https://www.ivfcenterhawaii.com/about/meet-our-team/anatte-karmon-md/", "rating": 5.0, "reviews": 1, "place_id": "ChIJS5ZlXultAHwRtdaHI2-BxAE", "latitude": 21.2996001, "longitude": -157.8394051, "care_type": "OB-GYN"}, {"name": "Dr. Christina M. Arnett, MD", "address": "1319 Punahou St #510, Honolulu, HI 96826", "city": "Honolulu", "phone": "+1 808-949-6611", "website": "", "rating": null, "reviews": 0, "place_id": "ChIJ_2bzIuttAHwRJE6dtRWI8qc", "latitude": 21.2998499, "longitude": -157.8333366, "care_type": "OB-GYN"}, {"name": "Dr. Elbert Y. Tomai, MD", "address": "321 N Kuakini St STE 201, Honolulu, HI 96817", "city": "Honolulu", "phone": "+1 808-523-8611", "website": "", "rating": null, "reviews": 0, "place_id": "ChIJXZEqPNZtAHwRlexzMfQSgtU", "latitude": 21.3216288, "longitude": -157.8559476, "care_type": "OB-GYN"}, {"name": "Dr. Jonathan D. Sisler, MD", "address": "1010 Pensacola St, Honolulu, HI 96814", "city": "Honolulu", "phone": "+1 808-432-2000", "website": "", "rating": null, "reviews": 0, "place_id": "ChIJf9TgO-ZtAHwRuFAuJk62A-s", "latitude": 21.3012009, "longitude": -157.8460183, "care_type": "OB-GYN"}, {"name": "Natori Teruya Tanoue Nakasone", "address": "1329 Lusitana St # B2, Honolulu, HI 96813", "city": "Honolulu", "phone": "+1 808-599-4200", "website": "", "rating": null, "reviews": 0, "place_id": "ChIJXfHBbN5tAHwRBSdTELUKxvI", "latitude": 21.3075359, "longitude": -157.8521078, "care_type": "OB-GYN"}, {"name": "STEPHEN R. NYSTUL", "address": "711 Kapiolani Blvd Suite 500, Honolulu, HI 96813", "city": "Honolulu", "phone": "+1 808-942-8108", "website": "https://healthy.kaiserpermanente.org/hawaii/provider/stephen-nystul-1786056", "rating": null, "reviews": 0, "place_id": "ChIJJfUf7uFtAHwR-pAnhPvA42s", "latitude": 21.301318, "longitude": -157.8559533, "care_type": "OB-GYN"}, {"name": "ANDREW BARLOW", "address": "711 Kapiolani Blvd Suite 500, Honolulu, HI 96813", "city": "Honolulu", "phone": "+1 808-942-8108", "website": "", "rating": null, "reviews": 0, "place_id": "ChIJJfUf7uFtAHwRAnGnQG0pAsE", "latitude": 21.301318, "longitude": -157.8559533, "care_type": "OB-GYN"}, {"name": "Dr. Bruce Kessel, MD", "address": "550 S Beretania St. #610, Honolulu, HI 96813", "city": "Honolulu", "phone": "+1 808-218-7900", "website": "https://www.queens.org/providers/663/bruce-kessel/", "rating": null, "reviews": 0, "place_id": "ChIJQf310d9tAHwRnqPLb66FngE", "latitude": 21.3066116, "longitude": -157.8542503, "care_type": "OB-GYN"}, {"name": "Carney Michael E MD", "address": "1319 Punahou St #640, Honolulu, HI 96826", "city": "Honolulu", "phone": "+1 808-983-6090", "website": "http://kapiolaniwoman.org/", "rating": 4.6, "reviews": 10, "place_id": "ChIJ_2bzIuttAHwRoUwqrRdAJDY", "latitude": 21.3001475, "longitude": -157.8338297, "care_type": "OB-GYN"}, {"name": "Dr. Michael Savala", "address": "1301 Punchbowl St, Honolulu, HI 96813", "city": "Honolulu", "phone": "+1 808-537-7786", "website": "", "rating": null, "reviews": 0, "place_id": "ChIJ__-PVN5tAHwRDG6r3CqwiM4", "latitude": 21.3084698, "longitude": -157.8538581, "care_type": "OB-GYN"}, {"name": "KRISTEN O. GOERG", "address": "711 Kapiolani Blvd Suite 500, Honolulu, HI 96813", "city": "Honolulu", "phone": "+1 808-942-8108", "website": "https://healthy.kaiserpermanente.org/hawaii/provider/kristen-goerg-1602589", "rating": null, "reviews": 0, "place_id": "ChIJJfUf7uFtAHwRTgqAw-kB-oY", "latitude": 21.301318, "longitude": -157.8559533, "care_type": "OB-GYN"}, {"name": "LeighAnn C. Frattarelli, MD, MPH", "address": "Hale Pawa'a Building, 1401 S Beretania St. #250, Honolulu, HI 96814", "city": "Honolulu", "phone": "+1 808-545-2800", "website": "http://www.armghawaii.com/", "rating": 3.5, "reviews": 2, "place_id": "ChIJndOJXultAHwRj_z52LLLxbk", "latitude": 21.2996402, "longitude": -157.8394022, "care_type": "OB-GYN"}, {"name": "Dr. Melissa Natavio", "address": "1301 Punchbowl St, Honolulu, HI 96813", "city": "Honolulu", "phone": "+1 808-691-1000", "website": "https://www.queens.org/providers/1009/melissa-faith-q-natavio/", "rating": null, "reviews": 0, "place_id": "ChIJ__-PVN5tAHwRWfUvNkS83Vw", "latitude": 21.3084698, "longitude": -157.8538581, "care_type": "OB-GYN"}, {"name": "Cessna K. Zablan, APRN", "address": "550 S Beretania St., Honolulu, HI 96813", "city": "Honolulu", "phone": "+1 808-218-7900", "website": "", "rating": null, "reviews": 0, "place_id": "ChIJQf310d9tAHwRz4e-ykNV1t0", "latitude": 21.3066781, "longitude": -157.8543814, "care_type": "OB-GYN"}, {"name": "Dr. Sarah Hutchison", "address": "1010 Pensacola St # 5th, Honolulu, HI 96814", "city": "Honolulu", "phone": "+1 808-643-7979", "website": "", "rating": null, "reviews": 0, "place_id": "ChIJ__-PPuZtAHwRh-bcUFNbZF4", "latitude": 21.3008969, "longitude": -157.8462201, "care_type": "OB-GYN"}, {"name": "Ann Chang", "address": "89 S King St, Honolulu, HI 96813", "city": "Honolulu", "phone": "+1 808-792-5560", "website": "", "rating": null, "reviews": 0, "place_id": "ChIJpfsnhXRuAHwRQ5EsibOUCDg", "latitude": 21.309293, "longitude": -157.862379, "care_type": "OB-GYN"}, {"name": "Mark K.Y. Hiraoka, MD", "address": "550 S Beretania St. #610, Honolulu, HI 96813", "city": "Honolulu", "phone": "+1 808-218-7900", "website": "http://www.hawaiipacifichealth.org/", "rating": null, "reviews": 0, "place_id": "ChIJQf310d9tAHwRdQdRFqli8LU", "latitude": 21.3066116, "longitude": -157.8542503, "care_type": "OB-GYN"}, {"name": "Ann Chang", "address": "710 N King St, Honolulu, HI 96817", "city": "Honolulu", "phone": "+1 808-843-7500", "website": "https://www.hawaiipacifichealth.org/find-a-physician/search-results/Ann-Chang/953", "rating": null, "reviews": 0, "place_id": "ChIJ__87WXpuAHwREPYcjKCi4GQ", "latitude": 21.3206956, "longitude": -157.8656661, "care_type": "OB-GYN"}, {"name": "Ohtani Fujita Perkins And Sato Md", "address": "Physicians Office Building 2, 1329 Lusitana St Suite B5, Honolulu, HI 96813", "city": "Honolulu", "phone": "+1 808-538-3787", "website": "", "rating": null, "reviews": 0, "place_id": "ChIJXfHBbN5tAHwRsKlTG9mqf24", "latitude": 21.3076091, "longitude": -157.8520883, "care_type": "OB-GYN"}, {"name": "Dr. Melissa Natavio", "address": "550 S Beretania St. #610, Honolulu, HI 96813", "city": "Honolulu", "phone": "+1 808-218-7900", "website": "https://www.queens.org/providers/1009/melissa-faith-q-natavio/", "rating": null, "reviews": 0, "place_id": "ChIJKelD0t9tAHwRo-hFQdJrbXw", "latitude": 21.3066116, "longitude": -157.8542503, "care_type": "OB-GYN"}, {"name": "Dr. Donna Pratt", "address": "1132 Bishop St, Honolulu, HI 96813", "city": "Honolulu", "phone": "+1 808-537-1164", "website": "", "rating": null, "reviews": 0, "place_id": "ChIJ5ZTsUnRuAHwR6o-hDM-sDVc", "latitude": 21.3100521, "longitude": -157.8603788, "care_type": "OB-GYN"}, {"name": "Dr. Steven T. Emura, MD", "address": "550 S Beretania St. #610, Honolulu, HI 96813", "city": "Honolulu", "phone": "+1 808-218-7900", "website": "", "rating": null, "reviews": 0, "place_id": "ChIJQf310d9tAHwR9_saR1Mwdtk", "latitude": 21.3066116, "longitude": -157.8542503, "care_type": "OB-GYN"}, {"name": "Bartholomew M Lisa MD", "address": "550 S Beretania St. #610, Honolulu, HI 96813", "city": "Honolulu", "phone": "+1 808-218-7900", "website": "", "rating": null, "reviews": 0, "place_id": "ChIJQf310d9tAHwRsrnA0TmGZzQ", "latitude": 21.3066116, "longitude": -157.8542503, "care_type": "OB-GYN"}, {"name": "Spangler John S MD", "address": "1100 Ward Ave #701, Honolulu, HI 96814", "city": "Honolulu", "phone": "+1 808-791-7841", "website": "", "rating": null, "reviews": 0, "place_id": "ChIJa2cKO-dtAHwRWN4fWTQkX5g", "latitude": 21.3035122, "longitude": -157.8498528, "care_type": "OB-GYN"}, {"name": "Dr. Jon H. Morikawa, MD", "address": "1319 Punahou St, Honolulu, HI 96826", "city": "Honolulu", "phone": "+1 808-955-6324", "website": "", "rating": 4.4, "reviews": 8, "place_id": "ChIJ_2bzIuttAHwR09Zuy4OZBNc", "latitude": 21.3002741, "longitude": -157.8337687, "care_type": "OB-GYN"}, {"name": "Dr. Arlene Baldillo", "address": "1329 Lusitana St # 202, Honolulu, HI 96813", "city": "Honolulu", "phone": "+1 808-686-4670", "website": "https://www.queens.org/providers/67/arlene-joy-c-baldillo/", "rating": 5.0, "reviews": 3, "place_id": "ChIJ__8PoE1vAHwR3NL6zDqI84Q", "latitude": 21.3075591, "longitude": -157.8521238, "care_type": "OB-GYN"}, {"name": "Dr. Kanoelehua Perry", "address": "1329 Lusitana St # 709, Honolulu, HI 96813", "city": "Honolulu", "phone": "+1 808-522-7380", "website": "https://www.hawaiipacifichealth.org/find-a-physician/search-results/Kanoelehua-Perry/1680", "rating": 4.5, "reviews": 2, "place_id": "ChIJ0Xaxbt5tAHwRhp0j1FcMkTY", "latitude": 21.3075359, "longitude": -157.8521078, "care_type": "OB-GYN"}, {"name": "KEITH Y. TERADA, MD", "address": "1329 Lusitana St #703, Honolulu, HI 96813", "city": "Honolulu", "phone": "", "website": "https://www.hawaiipacifichealth.org/find-a-physician/search-results/Keith-Y-Terada/99", "rating": 5.0, "reviews": 3, "place_id": "ChIJXfHBbN5tAHwRsDC1qk4tAO8", "latitude": 21.3075256, "longitude": -157.852046, "care_type": "OB-GYN"}, {"name": "Kaneshiro Bliss Ek MD", "address": "1380 Lusitana St #1004, Honolulu, HI 96813", "city": "Honolulu", "phone": "+1 808-686-4690", "website": "", "rating": null, "reviews": 0, "place_id": "ChIJ_2bzIuttAHwROct49ms9T0Q", "latitude": 21.308027, "longitude": -157.8529036, "care_type": "OB-GYN"}, {"name": "BENJAMIN M. DELISA", "address": "711 Kapiolani Blvd Suite 500, Honolulu, HI 96813", "city": "Honolulu", "phone": "+1 808-942-8108", "website": "", "rating": null, "reviews": 0, "place_id": "ChIJJfUf7uFtAHwRj_WMO4ftmHk", "latitude": 21.301318, "longitude": -157.8559533, "care_type": "OB-GYN"}, {"name": "Dr. Glenn N. Hayashi", "address": "1010 S King St, Honolulu, HI 96814", "city": "Honolulu", "phone": "+1 808-597-1624", "website": "", "rating": null, "reviews": 0, "place_id": "ChIJPzxu-uZtAHwR615qq7MaKkg", "latitude": 21.301748, "longitude": -157.8485323, "care_type": "OB-GYN"}, {"name": "Kapi\u02bbolani Women's Center", "address": "Artesian Plaza, 1907 S Beretania St., Honolulu, HI 96826", "city": "Honolulu", "phone": "+1 808-973-5967", "website": "https://www.hawaiipacifichealth.org/womens-centers/our-locations/kapiolani/", "rating": 4.3, "reviews": 9, "place_id": "ChIJt6OfZJNtAHwRGQNznABr9BI", "latitude": 21.2968323, "longitude": -157.8311935, "care_type": "OB-GYN"}, {"name": "Pangilinan Michele Y MD", "address": "1319 Punahou St # 630, Honolulu, HI 96826", "city": "Honolulu", "phone": "+1 808-983-6000", "website": "https://www.hawaiipacifichealth.org/find-a-physician/search-results/Michele-Pangilinan/1001", "rating": null, "reviews": 0, "place_id": "ChIJQ2fzIuttAHwRHz03rXrBANQ", "latitude": 21.2998621, "longitude": -157.8344251, "care_type": "OB-GYN"}, {"name": "Tracee Suetsugu", "address": "1301 Punchbowl St, Honolulu, HI 96813", "city": "Honolulu", "phone": "+1 808-538-9011", "website": "https://www.queens.org/providers/1339/tracee-y-suetsugu/", "rating": null, "reviews": 0, "place_id": "ChIJ__-PVN5tAHwR62sd1XJULpg", "latitude": 21.3084698, "longitude": -157.8538581, "care_type": "OB-GYN"}, {"name": "Trina Chakravarty", "address": "165 Maa St, Kahului, HI 96732", "city": "Kahului", "phone": "+1 808-446-7120", "website": "", "rating": null, "reviews": 0, "place_id": "ChIJ__9PgKDTVHkRfppk9adtY3s", "latitude": 20.8667135, "longitude": -156.4954628, "care_type": "OB-GYN"}, {"name": "Women's Health - The Queen's Medical Center - West Oahu", "address": "91-2141 Fort Weaver Rd, Ewa Beach, HI 96706", "city": "Ewa Beach", "phone": "+1 808-691-3663", "website": "https://www.queens.org/locations/hospitals/qmc-west-oahu/services/womens-health/", "rating": null, "reviews": 0, "place_id": "ChIJ0yLgBaNlAHwRHt678Nd4snc", "latitude": 21.3726307, "longitude": -158.0266703, "care_type": "OB-GYN"}, {"name": "A Touch of Spirit", "address": "16 Baldwin Ave, Makawao, HI 96768", "city": "Makawao", "phone": "+1 808-344-0241", "website": "http://www.atouchofspirit.com/", "rating": null, "reviews": 0, "place_id": "ChIJNSqmld8yq34RMOrq538WR1s", "latitude": 20.91575, "longitude": -156.3808847, "care_type": "OB-GYN"}, {"name": "Dr. Avani R. Lakhani, MD", "address": "40 Kupaoa St, Makawao, HI 96768", "city": "Makawao", "phone": "+1 808-244-0401", "website": "http://www.lakhani-obgyn.com/", "rating": 3.0, "reviews": 23, "place_id": "ChIJ74LTKUDTVHkRDypE-ODxVIA", "latitude": 20.8215285, "longitude": -156.3304711, "care_type": "OB-GYN"}, {"name": "Lee Irwin K MD", "address": "1329 Lusitana St # 709, Honolulu, HI 96813", "city": "Honolulu", "phone": "+1 808-522-7380", "website": "", "rating": 5.0, "reviews": 9, "place_id": "ChIJXfHBbN5tAHwRn1_RY-hTWm0", "latitude": 21.3075359, "longitude": -157.8521078, "care_type": "OB-GYN"}, {"name": "Caroline G.Y. Lau, MD FACOG", "address": "1319 Punahou St #525, Honolulu, HI 96826", "city": "Honolulu", "phone": "+1 808-947-3122", "website": "https://www.hawaiipacifichealth.org/find-a-physician/search-results/Caroline-Lau/2384", "rating": 3.8, "reviews": 5, "place_id": "ChIJCeR1wG5tAHwRHnPUMChMJO8", "latitude": 21.2998428, "longitude": -157.8334591, "care_type": "OB-GYN"}, {"name": "Dr. Steven S. Kang, MD", "address": "Parking lot, 2828 Paa St # 2420A, Honolulu, HI 96819", "city": "Honolulu", "phone": "+1 808-432-5770", "website": "", "rating": null, "reviews": 0, "place_id": "ChIJ92OXtuRuAHwRGqOhPfnEbIs", "latitude": 21.3458403, "longitude": -157.8945611, "care_type": "OB-GYN"}, {"name": "Terecia Lee", "address": "98-1079 Moanalua Rd # 560, Aiea, HI 96701", "city": "Aiea", "phone": "+1 808-487-0078", "website": "", "rating": null, "reviews": 0, "place_id": "ChIJmTQnEU1vAHwRa7Z3R3Csgs0", "latitude": 21.3834586, "longitude": -157.9383976, "care_type": "OB-GYN"}, {"name": "Dr. Reina Harris", "address": "94-1480 Moaniani St, Waipahu, HI 96797", "city": "Waipahu", "phone": "+1 808-643-7979", "website": "https://healthy.kaiserpermanente.org/hawaii/provider/reina-harris-3222363", "rating": null, "reviews": 0, "place_id": "ChIJVVWVtFlmAHwRpwzoMSsOuUc", "latitude": 21.4255262, "longitude": -157.9969825, "care_type": "OB-GYN"}, {"name": "Dr. James M. Dimarchi, MD", "address": "94-1480 Moaniani St, Waipahu, HI 96797", "city": "Waipahu", "phone": "+1 808-432-3100", "website": "", "rating": null, "reviews": 0, "place_id": "ChIJI3KkSlhmAHwRQRUm9ktPTJ0", "latitude": 21.4257234, "longitude": -157.997149, "care_type": "OB-GYN"}, {"name": "Kaua'i Medical Clinic - Kapaa", "address": "4-831 Kuhio Hwy #332, Kapa\u02bba, HI 96746", "city": "Kapa\u02bba", "phone": "+1 808-822-3431", "website": "https://www.hawaiipacifichealth.org/wilcox/locations/kapaa-clinic/", "rating": 3.6, "reviews": 0, "place_id": "ChIJM5gurcrhBnwRs409pJjb17Q", "latitude": 22.0634155, "longitude": -159.3208923, "care_type": "OB-GYN"}, {"name": "Natural Birth Hawaii", "address": "4563 Kukui St, Kapa\u02bba, HI 96746", "city": "Kapa\u02bba", "phone": "+1 808-346-9649", "website": "https://www.naturalbirthhawaii.com/", "rating": 5.0, "reviews": 24, "place_id": "ChIJnYSs4I3hBnwRx7y-SfkrCKg", "latitude": 22.0755091, "longitude": -159.3200948, "care_type": "OB-GYN"}, {"name": "The Clinic at Waimea", "address": "4643B Waimea Canyon Dr, Waimea, HI 96796", "city": "Waimea", "phone": "+1 808-338-8311", "website": "http://www.kauai.hhsc.org/", "rating": 4.9, "reviews": 0, "place_id": "ChIJ0wX-jgiqB3wRSB4SucGIyjQ", "latitude": 21.9611849, "longitude": -159.6712023, "care_type": "OB-GYN"}, {"name": "Hawaii Gyn", "address": "65-1267 Kawaihae Rd, Waimea, HI 96743", "city": "Waimea", "phone": "+1 808-885-7511", "website": "", "rating": null, "reviews": 0, "place_id": "ChIJFRv43zGDU3kR29oXtQP0kWs", "latitude": 20.0215646, "longitude": -155.6731903, "care_type": "OB-GYN"}, {"name": "Waimea Women's Center", "address": "65-1267 Kawaihae Rd, Waimea, HI 96743", "city": "Waimea", "phone": "+1 808-885-9606", "website": "https://www.queens.org/locations/hospitals/north-hawaii/services/womens-center/", "rating": 5.0, "reviews": 3, "place_id": "ChIJhawQngidU3kRinftk7g6oUU", "latitude": 20.0215646, "longitude": -155.6731903, "care_type": "OB-GYN"}, {"name": "Dr. Kareem Khozaim", "address": "73 Puuhonu Pl Suite 204, Hilo, HI 96720", "city": "Hilo", "phone": "+1 808-333-3500", "website": "https://www.hicommunityhealthcenter.org/providers/kareem-khozaim/", "rating": 3.9, "reviews": 11, "place_id": "ChIJMwW9bq20U3kRER4E1TZKSTA", "latitude": 19.7167397, "longitude": -155.0977219, "care_type": "OB-GYN"}, {"name": "Paris Stowers", "address": "82 Puuhonu Pl STE 205, Hilo, HI 96720", "city": "Hilo", "phone": "+1 808-961-6608", "website": "https://www.hawaiipacifichealth.org/find-a-physician/search-results/Paris-Stowers/1955", "rating": 3.9, "reviews": 8, "place_id": "ChIJBR4Cc620U3kRTXdAD7muxmc", "latitude": 19.7170747, "longitude": -155.0981942, "care_type": "OB-GYN"}, {"name": "Melissa Kuwahara", "address": "75 Puuhonu Pl STE 204, Hilo, HI 96720", "city": "Hilo", "phone": "+1 808-731-7409", "website": "", "rating": 3.6, "reviews": 7, "place_id": "ChIJpdqCWa20U3kR3iAbl8yqZ6o", "latitude": 19.7159261, "longitude": -155.0966974, "care_type": "OB-GYN"}, {"name": "Nakamoto Karen J MD", "address": "82 Puuhonu Way STE 208, Hilo, HI 96720", "city": "Hilo", "phone": "+1 808-935-7765", "website": "", "rating": 4.0, "reviews": 4, "place_id": "ChIJ0zMCc620U3kR9OErQtmUtCg", "latitude": 19.7170789, "longitude": -155.0982, "care_type": "OB-GYN"}, {"name": "Dr. Emilie Stickley", "address": "82 Puuhonu Pl STE 205, Hilo, HI 96720", "city": "Hilo", "phone": "+1 808-961-6608", "website": "https://www.hawaiipacifichealth.org/find-a-physician/search-results/Emilie-Stickley/2046", "rating": 4.2, "reviews": 5, "place_id": "ChIJBR4Cc620U3kR6bafMEkH_9Q", "latitude": 19.7170747, "longitude": -155.0981942, "care_type": "OB-GYN"}, {"name": "Dr. Keith K. Ogasawara, MD", "address": "3288 Moanalua Rd, Honolulu, HI 96819", "city": "Honolulu", "phone": "+1 808-432-0000", "website": "", "rating": null, "reviews": 0, "place_id": "ChIJ6QMPTtluAHwRLajCKK9gJ_8", "latitude": 21.363393, "longitude": -157.899511, "care_type": "OB-GYN"}, {"name": "Terry White, MD", "address": "3288 Moanalua Rd, Honolulu, HI 96819", "city": "Honolulu", "phone": "+1 808-432-8000", "website": "", "rating": null, "reviews": 0, "place_id": "ChIJ6QMPTtluAHwRqvsrUXCg2tA", "latitude": 21.3633277, "longitude": -157.8998788, "care_type": "OB-GYN"}, {"name": "Watson Edward MD", "address": "1 Jarrett White Rd, TRIPLER AMC, HI 96859", "city": "TRIPLER AMC", "phone": "+1 808-433-6621", "website": "", "rating": null, "reviews": 0, "place_id": "ChIJ3xTzLMNuAHwRKrYgGECF7e4", "latitude": 21.3601296, "longitude": -157.8894871, "care_type": "OB-GYN"}, {"name": "Dr. Kimie K. Hirabayashi, MD", "address": "3288 Moanalua Rd, Honolulu, HI 96819", "city": "Honolulu", "phone": "+1 808-432-0000", "website": "", "rating": null, "reviews": 0, "place_id": "ChIJ6QMPTtluAHwRxme7vHfzyMo", "latitude": 21.363393, "longitude": -157.899511, "care_type": "OB-GYN"}, {"name": "Kaiser Permanente Medical: Bachman Jolene M MD", "address": "3288 Moanalua Rd, Honolulu, HI 96819", "city": "Honolulu", "phone": "+1 808-432-0000", "website": "https://healthy.kaiserpermanente.org/hawaii/provider/jolene-bachman-1019399", "rating": null, "reviews": 0, "place_id": "ChIJ6QMPTtluAHwRbWMtHmCBMaw", "latitude": 21.363393, "longitude": -157.899511, "care_type": "OB-GYN"}, {"name": "Janine Doneza", "address": "1285 Waianuenue Ave, Hilo, HI 96720", "city": "Hilo", "phone": "+1 808-932-3775", "website": "https://www.easthawaiihealthclinics.org/physician/janine-doneza/", "rating": 4.5, "reviews": 16, "place_id": "ChIJq6r6Xru0U3kR70qf96g5ybA", "latitude": 19.7169057, "longitude": -155.1133489, "care_type": "OB-GYN"}, {"name": "Hilo Obstetrics And Gynecology", "address": "670 Ponahawai St, Hilo, HI 96720", "city": "Hilo", "phone": "+1 808-933-2100", "website": "", "rating": 1.0, "reviews": 1, "place_id": "ChIJIbREubK0U3kR5qskJK9E5es", "latitude": 19.7143923, "longitude": -155.0966937, "care_type": "OB-GYN"}, {"name": "Dr. Quyen-Anh D. Tran, MD", "address": "82 Puuhonu Pl STE 211, Hilo, HI 96720", "city": "Hilo", "phone": "+1 808-933-2100", "website": "http://www.hiloobgyn.com/", "rating": 4.0, "reviews": 42, "place_id": "ChIJIbREubK0U3kRbUVML3SKtUQ", "latitude": 19.7169546, "longitude": -155.0982686, "care_type": "OB-GYN"}, {"name": "HICHC Hilo Women's Health", "address": "73 Puuhonu Pl Suite 204, Hilo, HI 96720", "city": "Hilo", "phone": "+1 808-333-3600", "website": "http://hicommunityhealthcenter.org/", "rating": 2.8, "reviews": 22, "place_id": "ChIJZcKu36tMUnkR5Iq8_BywINo", "latitude": 19.7167397, "longitude": -155.0977219, "care_type": "OB-GYN"}, {"name": "Women\u2019s Health Specialists", "address": "Punahele Professional Building, 82 Puuhonu Pl STE 205, Hilo, HI 96720", "city": "Hilo", "phone": "+1 808-961-6608", "website": "", "rating": 4.3, "reviews": 4, "place_id": "ChIJD3EPPOy1U3kRAx8JygTC44U", "latitude": 19.7170747, "longitude": -155.0981942, "care_type": "OB-GYN"}, {"name": "John K Uohara MD FACOG", "address": "82 Puuhonu Pl STE 205, Hilo, HI 96720", "city": "Hilo", "phone": "+1 808-961-6608", "website": "", "rating": 3.0, "reviews": 2, "place_id": "ChIJ0zMCc620U3kRqpK729Hd6zQ", "latitude": 19.717079, "longitude": -155.0982, "care_type": "OB-GYN"},