[{"name": "Anwar K. Khoury, MD", "address": "1110 St Marys Rd Ste. 101, Junction City, KS 66441", "city": "Junction City", "phone": "+1 785-762-2585", "website": "https://gearycommunityhospital.org/provider/anwar-khoury-md/", "rating": 4.0, "reviews": 25, "place_id": "ChIJnf9QFsdOvIcR2ZwwN8X7uZM", "latitude": 39.013568, "longitude": -96.85087089999999, "care_type": "OB-GYN"}, {"name": "Dr. Jarett T. Skinner, DO", "address": "1110 St Marys Rd Ste. 101, Junction City, KS 66441", "city": "Junction City", "phone": "+1 785-762-2585", "website": "https://www.stormontvail.org/provider/jarett-skinner-do/", "rating": 5.0, "reviews": 1, "place_id": "ChIJ3xTzLMNuAHwRhcWgM1LJv64", "latitude": 39.013568, "longitude": -96.85087089999999, "care_type": "OB-GYN"}, {"name": "Stroda Terrah A", "address": "1110 St Marys Rd #101, Junction City, KS 66441", "city": "Junction City", "phone": "+1 785-223-5555", "website": "", "rating": 5.0, "reviews": 12, "place_id": "ChIJEf5QFsdOvIcRoiZHcOjxXpY", "latitude": 39.013568, "longitude": -96.85087089999999, "care_type": "OB-GYN"}, {"name": "Julia Gaston, MD", "address": "1102 St Marys Rd, Junction City, KS 66441", "city": "Junction City", "phone": "+1 785-762-2585", "website": "https://www.stormontvail.org/provider/julia-gaston-md/", "rating": null, "reviews": 0, "place_id": "ChIJ6XH-eaxPvIcR24d2RDT-r1w", "latitude": 39.0140681, "longitude": -96.85110399999999, "care_type": "OB-GYN"}, {"name": "Amartha Gore, MD", "address": "1102 St Marys Rd, Junction City, KS 66441", "city": "Junction City", "phone": "+1 785-238-4131", "website": "https://www.stormontvail.org/specialtycare/obstetrics-gynecology/", "rating": null, "reviews": 0, "place_id": "ChIJbfvMezRPvIcRHmFDsLUeZ-M", "latitude": 39.0140681, "longitude": -96.85110399999999, "care_type": "OB-GYN"}, {"name": "Town Plaza Women's Health - Prairie Village", "address": "6936 Mission Rd Suite 201, Prairie Village, KS 66208", "city": "Prairie Village", "phone": "+1 913-340-7633", "website": "https://mymidwestphysician.com/locations/town-plaza-womens-health/%3Futm_campaign%3Dcorp_listings_mgmt%26utm_source%3Dgoogle%26utm_medium%3Dbusiness_listing", "rating": 4.3, "reviews": 46, "place_id": "ChIJiyG-8wvDwIcRQX886vvhyxk", "latitude": 39.0029099, "longitude": -94.6296971, "care_type": "OB-GYN"}, {"name": "Women's Care", "address": "9301 W 74th St #325, Shawnee Mission, KS 66204", "city": "Shawnee Mission", "phone": "+1 913-384-4990", "website": "https://womenscare-obgyn.com/our-locations/shawnee-mission-office/", "rating": 4.6, "reviews": 381, "place_id": "ChIJwxxBrI3swIcRGSmVE84sjZs", "latitude": 38.9950348, "longitude": -94.69437599999999, "care_type": "OB-GYN"}, {"name": "Women's Health Associates a division of Mid America Physician Services", "address": "9119 W 74th St Suite 300, Overland Park, KS 66204", "city": "Overland Park", "phone": "+1 913-677-3113", "website": "http://womenshealthkc.com/", "rating": 3.7, "reviews": 9, "place_id": "ChIJhdtbXozswIcRVYnu3PhNSmM", "latitude": 38.9948472, "longitude": -94.69268729999999, "care_type": "OB-GYN"}, {"name": "Sarah Baldassaro, MD", "address": "13801 Metcalf Ave Suite 200, Overland Park, KS 66223", "city": "Overland Park", "phone": "+1 913-340-7633", "website": "https://mymidwestphysician.com/physicians/profile/Dr-Sarah-Baldassaro-MD%3Futm_campaign%3Dcorp_listings_mgmt%26utm_source%3Dgoogle%26utm_medium%3Dbusiness_listing", "rating": 4.9, "reviews": 74, "place_id": "ChIJDcuMgi7DwIcRSibIzhjHbtM", "latitude": 38.877911, "longitude": -94.6673467, "care_type": "OB-GYN"}, {"name": "Women's Care", "address": "7840 W 165th St Suite 310, Overland Park, KS 66223", "city": "Overland Park", "phone": "+1 913-384-4990", "website": "https://womenscare-obgyn.com/our-locations/overland-park-office/", "rating": 4.8, "reviews": 453, "place_id": "ChIJvbe5a3HqwIcR-bjmF9_tmS4", "latitude": 38.8326768, "longitude": -94.68144149999999, "care_type": "OB-GYN"}, {"name": "New Woman Obstetrics and Gynecology", "address": "10600 Quivira Rd Suite 350A, Overland Park, KS 66215", "city": "Overland Park", "phone": "+1 913-735-4726", "website": "https://mymidwestphysician.com/locations/kansas-city-womens-clinic/%3Futm_campaign%3Dcorp_listings_mgmt%26utm_source%3Dgoogle%26utm_medium%3Dbusiness_listing", "rating": 4.8, "reviews": 20, "place_id": "ChIJM-CJY3e_wIcRHq6Ll1N0wIQ", "latitude": 38.9361747, "longitude": -94.7254342, "care_type": "OB-GYN"}, {"name": "Kansas City Ob Gyn", "address": "12200 W 106th St #230, Overland Park, KS 66215", "city": "Overland Park", "phone": "+1 913-948-9636", "website": "https://mymidwestphysician.com/physicians/%3Futm_campaign%3Dcorp_listings_mgmt%26utm_source%3Dgoogle%26utm_medium%3Dbusiness_listing", "rating": 4.5, "reviews": 379, "place_id": "ChIJU5JeOCvrwIcRvV2eojClfWw", "latitude": 38.9377896, "longitude": -94.72706079999999, "care_type": "OB-GYN"}, {"name": "Women's Health Associates", "address": "9119 W 74th St Suite 300, Merriam, KS 66204", "city": "Merriam", "phone": "+1 913-677-3113", "website": "http://www.womenshealthkc.com/", "rating": 4.8, "reviews": 534, "place_id": "ChIJhdtbXozswIcReuwEFDQ25-4", "latitude": 38.9949013, "longitude": -94.692639, "care_type": "OB-GYN"}, {"name": "Town Plaza Women's Health - Corbin Park", "address": "13801 Metcalf Ave Suite 200, Overland Park, KS 66223", "city": "Overland Park", "phone": "+1 913-340-7633", "website": "https://www.townplazawomenshealth.com/", "rating": 3.9, "reviews": 19, "place_id": "ChIJNRIPbsTBwIcRSCN8rduaVf4", "latitude": 38.877911, "longitude": -94.6673467, "care_type": "OB-GYN"}, {"name": "Phaedra A Lombard MD", "address": "Shawnee Mission, 9119 W 74th St #200, Merriam, KS 66204", "city": "Merriam", "phone": "+1 913-491-4020", "website": "http://www.wcjcobgyn.com/", "rating": 5.0, "reviews": 76, "place_id": "ChIJpZ9pZozswIcR8j_mFjelaqA", "latitude": 38.9948472, "longitude": -94.69268729999999, "care_type": "OB-GYN"}, {"name": "Natasha Ahmed, MD", "address": "13801 Metcalf Ave Suite 200, Overland Park, KS 66223", "city": "Overland Park", "phone": "+1 913-340-7633", "website": "https://mymidwestphysician.com/physicians/profile/Dr-Natasha-Ahmed-MD%3Futm_campaign%3Dcorp_listings_mgmt%26utm_source%3Dgoogle%26utm_medium%3Dbusiness_listing", "rating": 4.8, "reviews": 116, "place_id": "ChIJk7PyEk_DwIcRsAkltRfGZ2U", "latitude": 38.877911, "longitude": -94.6673467, "care_type": "OB-GYN"}, {"name": "Carrie A. Grounds MD", "address": "9119 W 74th St #200, Merriam, KS 66204", "city": "Merriam", "phone": "+1 913-491-4020", "website": "http://www.wcjcobgyn.com/", "rating": 4.8, "reviews": 45, "place_id": "ChIJpZ9pZozswIcRYj8XSdokknQ", "latitude": 38.9948472, "longitude": -94.69268729999999, "care_type": "OB-GYN"}, {"name": "Cheryl Z. Rips, MD", "address": "9119 W 74th St #268, Merriam, KS 66204", "city": "Merriam", "phone": "+1 913-491-4020", "website": "http://wcjcobgyn.com/", "rating": 4.9, "reviews": 40, "place_id": "ChIJp9mAVxrtwIcRPDQf34kgSGM", "latitude": 38.9949013, "longitude": -94.692639, "care_type": "OB-GYN"}, {"name": "Women's Clinic of Johnson County", "address": "8901 W 74th St Suite 100, Merriam, KS 66204", "city": "Merriam", "phone": "+1 913-491-4020", "website": "http://www.wcjcobgyn.com/", "rating": 3.9, "reviews": 229, "place_id": "ChIJeRrmoGyTwIcRS8-Zh8cTvP0", "latitude": 38.9944437, "longitude": -94.6890561, "care_type": "OB-GYN"}, {"name": "Kansas City Women's Clinic - GME", "address": "12200 W 106th St #320, Overland Park, KS 66215", "city": "Overland Park", "phone": "+1 913-348-4202", "website": "https://mymidwestphysician.com/locations/kansas-city-womens-clinic/%3Futm_campaign%3Dcorp_listings_mgmt%26utm_source%3Dgoogle%26utm_medium%3Dbusiness_listing", "rating": 4.3, "reviews": 210, "place_id": "ChIJ5T1J-CrrwIcRZ96r-72I_lQ", "latitude": 38.9375987, "longitude": -94.72669599999999, "care_type": "OB-GYN"}, {"name": "Battmer Robert E MD", "address": "3700 W 83rd St #202, Prairie Village, KS 66208", "city": "Prairie Village", "phone": "+1 913-341-0201", "website": "https://www.naturalhormoneclinic.com/", "rating": 4.9, "reviews": 30, "place_id": "ChIJCbcGSEvpwIcR7COxbt96axU", "latitude": 38.9789727, "longitude": -94.6282063, "care_type": "OB-GYN"}, {"name": "Eric Thomson", "address": "515 N Summit St, Arkansas City, KS 67005", "city": "Arkansas City", "phone": "+1 620-442-2100", "website": "", "rating": 3.7, "reviews": 3, "place_id": "ChIJ__9PD8iBsIcRmCbJUofpEuI", "latitude": 37.0677948, "longitude": -97.03946839999999, "care_type": "OB-GYN"}, {"name": "Hilary Rainbolt, MD", "address": "3232 E Murdock St, Wichita, KS 67208", "city": "Wichita", "phone": "+1 316-685-7234", "website": "http://www.awhobgyn.com/", "rating": 4.3, "reviews": 6, "place_id": "ChIJAxK-0xHjuocR-oV9Kjs9CDU", "latitude": 37.6977342, "longitude": -97.2970436, "care_type": "OB-GYN"}, {"name": "Dr. Anna F. Stork Fury, DO", "address": "3233 E 2nd St N #3202, Wichita, KS 67208", "city": "Wichita", "phone": "+1 316-683-6766", "website": "http://collegehillobgyn.com/", "rating": 3.7, "reviews": 43, "place_id": "ChIJM7rKRA3juocR4_2OcxY04sA", "latitude": 37.6898277, "longitude": -97.2981138, "care_type": "OB-GYN"}, {"name": "TARYN SCHUKNECHT", "address": "3232 E Murdock St, Wichita, KS 67208", "city": "Wichita", "phone": "+1 316-685-7676", "website": "https://www.awhobgyn.com/provider/taryn-schuknecht-do/", "rating": 5.0, "reviews": 5, "place_id": "ChIJA0LCLxDjuocRGrHEGehDm0g", "latitude": 37.6977342, "longitude": -97.2970436, "care_type": "OB-GYN"}, {"name": "Kansas City Women's Clinic - Olathe", "address": "16180 W 135th St, Olathe, KS 66062", "city": "Olathe", "phone": "+1 913-441-4544", "website": "https://mymidwestphysician.com/locations/kansas-city-womens-clinic/%3Futm_campaign%3Dcorp_listings_mgmt%26utm_source%3Dgoogle%26utm_medium%3Dbusiness_listing", "rating": 4.3, "reviews": 117, "place_id": "ChIJr2-bfgORwIcRkE-KALqxbGw", "latitude": 38.884481, "longitude": -94.7707361, "care_type": "OB-GYN"}, {"name": "Lauren Wilding, MD", "address": "551 N Hillside St, Wichita, KS 67214", "city": "Wichita", "phone": "+1 316-858-7100", "website": "https://www.wesleycarephysicians.com/physicians/profile/Dr-Lauren-Wilding-MD%3Futm_campaign%3Dcorp_listings_mgmt%26utm_source%3Dgoogle%26utm_medium%3Dbusiness_listing", "rating": 4.8, "reviews": 60, "place_id": "ChIJnQGvYAnjuocRk67BXgGS8wg", "latitude": 37.6960741, "longitude": -97.2998764, "care_type": "OB-GYN"}, {"name": "Cline Byron MD", "address": "551 N Hillside St # 510, Wichita, KS 67214", "city": "Wichita", "phone": "+1 316-685-0559", "website": "http://wichitaobgyn.org/", "rating": 4.6, "reviews": 19, "place_id": "ChIJL4Gmcg7juocRqMfguRRs8AU", "latitude": 37.6959583, "longitude": -97.2996671, "care_type": "OB-GYN"}, {"name": "Elizabeth D. Cox, MD", "address": "1515 S Clifton Ave #400, Wichita, KS 67218", "city": "Wichita", "phone": "+1 316-274-1550", "website": "https://healthcare.ascension.org/find-care/provider/1316956493/elizabeth-cox%3Futm_campaign%3Dgmb-website%26utm_medium%3Dorganic%26utm_source%3Dgoogle", "rating": 5.0, "reviews": 24, "place_id": "ChIJpb9P4yjluocRDw9TK21XncU", "latitude": 37.6656548, "longitude": -97.29464709999999, "care_type": "OB-GYN"}, {"name": "Associates In Women's Health", "address": "3232 E Murdock St, Wichita, KS 67208", "city": "Wichita", "phone": "+1 316-685-7234", "website": "http://www.awhobgyn.com/", "rating": 3.9, "reviews": 112, "place_id": "ChIJkfPgLxDjuocRQMRjNWUE67o", "latitude": 37.6975752, "longitude": -97.29705279999999, "care_type": "OB-GYN"}, {"name": "Dr. Victoria W. Kindel, MD", "address": "3232 E Murdock St, Wichita, KS 67208", "city": "Wichita", "phone": "+1 316-685-7234", "website": "http://www.awhobgyn.com/", "rating": 3.8, "reviews": 10, "place_id": "ChIJHQUwLBDjuocRNEbxVyUyjho", "latitude": 37.6977378, "longitude": -97.2970713, "care_type": "OB-GYN"}, {"name": "Pearl ObGyn", "address": "3252 E Douglas Ave Suite 101, Wichita, KS 67214", "city": "Wichita", "phone": "+1 316-687-3275", "website": "http://pearlobgynwichita.com/", "rating": 4.5, "reviews": 360, "place_id": "ChIJs3SgB-HjuocRP8QKDyBQf7M", "latitude": 37.6866348, "longitude": -97.2971922, "care_type": "OB-GYN"}, {"name": "Dr. Jackson Sobbing, DO", "address": "1010 N Kansas St, Wichita, KS 67214", "city": "Wichita", "phone": "+1 316-962-3030", "website": "", "rating": 5.0, "reviews": 4, "place_id": "ChIJ8RrxH6_juocRuQ5d2G7_BpU", "latitude": 37.7015456, "longitude": -97.3157164, "care_type": "OB-GYN"}, {"name": "Locke Uppendahl, MD", "address": "3232 E Murdock St, Wichita, KS 67208", "city": "Wichita", "phone": "+1 316-219-6777", "website": "https://www.awhobgyn.com/locke-uppendahl.html", "rating": 3.9, "reviews": 14, "place_id": "ChIJA0LCLxDjuocRYERkOojIJ-E", "latitude": 37.6977342, "longitude": -97.2970436, "care_type": "OB-GYN"}, {"name": "Dr. Jacqueline M. Morgan, MD", "address": "3232 E Murdock St, Wichita, KS 67208", "city": "Wichita", "phone": "+1 316-685-7234", "website": "http://www.awhobgyn.com/", "rating": 4.1, "reviews": 16, "place_id": "ChIJZQUwLBDjuocRIuGcKgDlka8", "latitude": 37.6977378, "longitude": -97.2970713, "care_type": "OB-GYN"}, {"name": "Wichita OB/GYN Associates, PA", "address": "551 N Hillside St # 510, Wichita, KS 67214", "city": "Wichita", "phone": "+1 316-685-0559", "website": "http://www.wichitaobgyn.org/", "rating": 3.1, "reviews": 94, "place_id": "ChIJL4Gmcg7juocRsv2IQLSW2cA", "latitude": 37.695968, "longitude": -97.299554, "care_type": "OB-GYN"}, {"name": "Anna Stork-Fury", "address": "3233 E 2nd St N #3202, Wichita, KS 67208", "city": "Wichita", "phone": "+1 316-683-6766", "website": "https://collegehillobgyn.com/", "rating": 2.0, "reviews": 1, "place_id": "ChIJn6qXUA3juocRzZwZmkkFdyo", "latitude": 37.6897807, "longitude": -97.29811649999999, "care_type": "OB-GYN"}, {"name": "Dr. K. Daniel Miller, DO", "address": "1230 E 6th Ave #2d, Winfield, KS 67156", "city": "Winfield", "phone": "+1 620-222-6250", "website": "http://www.sunflowerob.com/", "rating": null, "reviews": 0, "place_id": "ChIJvTb9_j57uocRPbpnOlkr0Lw", "latitude": 37.2439405, "longitude": -96.9819704, "care_type": "OB-GYN"}, {"name": "Dr. Clifford S. Depew, MD", "address": "5500 E Kellogg Dr, Wichita, KS 67218", "city": "Wichita", "phone": "+1 316-685-2221", "website": "http://www.wichita.va.gov/", "rating": 5.0, "reviews": 4, "place_id": "ChIJx46BwE_juocRfT5OKYor7gg", "latitude": 37.6813522, "longitude": -97.27459669999999, "care_type": "OB-GYN"}, {"name": "Katie Sutton, MD", "address": "3243 E Murdock St STE 200, Wichita, KS 67208", "city": "Wichita", "phone": "+1 316-962-7175", "website": "http://heartlandwomensgroup.com/", "rating": 4.0, "reviews": 1, "place_id": "ChIJAxK-0xHjuocRA5ou0NRLD2E", "latitude": 37.6967759, "longitude": -97.2972578, "care_type": "OB-GYN"}, {"name": "Mary Boyce, MD", "address": "850 N Hillside St, Wichita, KS 67214", "city": "Wichita", "phone": "+1 316-962-3070", "website": "https://www.wesleycarephysicians.com/physicians/profile/Dr-Mary-C-Boyce-MD%3Futm_campaign%3Dcorp_listings_mgmt%26utm_source%3Dgoogle%26utm_medium%3Dbusiness_listing", "rating": 4.9, "reviews": 27, "place_id": "ChIJ27bS6A_juocRvmDLPonOvUg", "latitude": 37.6988998, "longitude": -97.2980309, "care_type": "OB-GYN"}, {"name": "Matthew T. Voth, MD", "address": "1515 S Clifton Ave #400, Wichita, KS 67218", "city": "Wichita", "phone": "+1 316-274-1550", "website": "https://healthcare.ascension.org/find-care/provider/1679583033/matthew-voth%3Futm_campaign%3Dgmb-website%26utm_medium%3Dorganic%26utm_source%3Dgoogle", "rating": 4.8, "reviews": 72, "place_id": "ChIJVcSCq53kuocRgyCJj0sHKWA", "latitude": 37.6656548, "longitude": -97.29464709999999, "care_type": "OB-GYN"}, {"name": "Janna Chibry, MD", "address": "3233 E 2nd St N, Wichita, KS 67208", "city": "Wichita", "phone": "+1 316-683-6766", "website": "http://www.collegehillobgyn.com/", "rating": 3.8, "reviews": 16, "place_id": "ChIJ8V6ar3P9uocR9SaN8L6mNNg", "latitude": 37.6898277, "longitude": -97.2981138, "care_type": "OB-GYN"}, {"name": "Dr. Douglas Moore", "address": "1230 E 6th Ave #2d, Winfield, KS 67156", "city": "Winfield", "phone": "+1 620-221-3033", "website": "", "rating": null, "reviews": 0, "place_id": "ChIJ__-_9z57uocRl54nPKLnZJc", "latitude": 37.2438839, "longitude": -96.9819059, "care_type": "OB-GYN"}, {"name": "KS Women's Health Clinic", "address": "1224 N Andover Rd Ste 300, Andover, KS 67002", "city": "Andover", "phone": "+1 316-247-0402", "website": "https://www.kwhclinic.com/", "rating": 5.0, "reviews": 5, "place_id": "ChIJDTbGbbP_uocRq4lga2MiZc4", "latitude": 37.7076603, "longitude": -97.1346849, "care_type": "OB-GYN"}, {"name": "Arthur D. DeHart, MD", "address": "9300 East 29th St N STE 201, Wichita, KS 67226", "city": "Wichita", "phone": "+1 316-685-1277", "website": "", "rating": 5.0, "reviews": 3, "place_id": "ChIJnQGHBHP9uocRNcpHQdEdLbo", "latitude": 37.7388477, "longitude": -97.22974359999999, "care_type": "OB-GYN"}, {"name": "Andrea M. Fullerton, MD", "address": "1515 S Clifton Ave #400, Wichita, KS 67218", "city": "Wichita", "phone": "+1 316-274-1550", "website": "https://healthcare.ascension.org/find-care/provider/1063617587/andrea-fullerton%3Futm_campaign%3Dgmb-website%26utm_medium%3Dorganic%26utm_source%3Dgoogle", "rating": 4.4, "reviews": 34, "place_id": "ChIJVcSCq53kuocRAFxXrGbyhIY", "latitude": 37.6656548, "longitude": -97.29464709999999, "care_type": "OB-GYN"}, {"name": "Melissa Hague, MD", "address": "551 N Hillside St Suite 101, Wichita, KS 67214", "city": "Wichita", "phone": "+1 316-858-7100", "website": "https://www.wesleycarephysicians.com/locations/heartland-womens-group/physicians/profile/Dr-Melissa-J-Hague-MD%3Futm_campaign%3Dcorp_listings_mgmt%26utm_source%3Dgoogle%26utm_medium%3Dbusiness_listing", "rating": 4.6, "reviews": 300, "place_id": "ChIJnQGHBHP9uocRvThRJZ85Rkc", "latitude": 37.6942783, "longitude": -97.29816629999999, "care_type": "OB-GYN"}, {"name": "James Whiddon, MD", "address": "551 N Hillside St Suite 101, Wichita, KS 67214", "city": "Wichita", "phone": "+1 316-858-7100", "website": "https://www.wesleycarephysicians.com/physicians/profile/Dr-James-R-Whiddon-MD%3Futm_campaign%3Dcorp_listings_mgmt%26utm_source%3Dgoogle%26utm_medium%3Dbusiness_listing", "rating": 4.8, "reviews": 131, "place_id": "ChIJ6UnSkeQfu4cRudqK3m1T9c8", "latitude": 37.6960741, "longitude": -97.2998764, "care_type": "OB-GYN"}, {"name": "Sakura Health and Wellness", "address": "1224 N Andover Rd Ste 300, Andover, KS 67002", "city": "Andover", "phone": "+1 316-247-2234", "website": "https://www.sakurahealthandwellness.com/", "rating": 5.0, "reviews": 2, "place_id": "ChIJwzorPwD_uocR0DZwPqVtDdc", "latitude": 37.7076603, "longitude": -97.1346849, "care_type": "OB-GYN"}, {"name": "Ellen J. Cocanougher, DO", "address": "1515 S Clifton Ave #400, Wichita, KS 67218", "city": "Wichita", "phone": "+1 316-274-1550", "website": "https://healthcare.ascension.org/find-care/provider/1275107849/ellen-cocanougher%3Futm_campaign%3Dgmb-website%26utm_medium%3Dorganic%26utm_source%3Dgoogle", "rating": 5.0, "reviews": 3, "place_id": "ChIJUzORZaPluocRdqiopWCO2Cs", "latitude": 37.6656548, "longitude": -97.29464709999999, "care_type": "OB-GYN"}, {"name": "Zachary C. Kuhlmann, DO, FACOG", "address": "3232 E Murdock St, Wichita, KS 67208", "city": "Wichita", "phone": "+1 316-685-7234", "website": "https://www.awhobgyn.com/provider/zachary-kuhlmann-do-facog/", "rating": 5.0, "reviews": 12, "place_id": "ChIJHQUwLBDjuocR-iB0EkvTxF8", "latitude": 37.6977342, "longitude": -97.2970436, "care_type": "OB-GYN"}, {"name": "Jonathan D. Scrafford, MD", "address": "1515 S Clifton Ave #400, Wichita, KS 67218", "city": "Wichita", "phone": "+1 316-274-1550", "website": "https://healthcare.ascension.org/find-care/provider/1639411325/jonathan-scrafford%3Futm_campaign%3Dgmb-website%26utm_medium%3Dorganic%26utm_source%3Dgoogle", "rating": 4.8, "reviews": 66, "place_id": "ChIJVcSCq53kuocR_OVCA3xuRJU", "latitude": 37.6656548, "longitude": -97.29464709999999, "care_type": "OB-GYN"}, {"name": "Mid-Kansas Women's Center PA", "address": "9300 East 29th St N STE 201, Wichita, KS 67226", "city": "Wichita", "phone": "+1 316-685-1277", "website": "", "rating": 2.3, "reviews": 42, "place_id": "ChIJnQGHBHP9uocRTw4qZZbs7kI", "latitude": 37.7384033, "longitude": -97.22938529999999, "care_type": "OB-GYN"}, {"name": "Heartland Women's Group", "address": "551 N Hillside St Suite 101, Wichita, KS 67214", "city": "Wichita", "phone": "+1 316-858-7100", "website": "https://www.wesleycarephysicians.com/locations/heartland-womens-group%3Futm_campaign%3Dcorp_listings_mgmt%26utm_source%3Dgoogle%26utm_medium%3Dbusiness_listing", "rating": 4.5, "reviews": 309, "place_id": "ChIJnQGHBHP9uocRcaZQFqMgCv4", "latitude": 37.6960741, "longitude": -97.2998764, "care_type": "OB-GYN"}, {"name": "Janey E. Maki, MD", "address": "1515 S Clifton Ave #400, Wichita, KS 67218", "city": "Wichita", "phone": "", "website": "https://rymap.org/business/janey-e-maki-md-wy7fa0", "rating": 4.8, "reviews": 40, "place_id": "ChIJVcSCq53kuocRCsgtmzRXfd0", "latitude": 37.6656548, "longitude": -97.29464709999999, "care_type": "OB-GYN"}, {"name": "Dr. Laura Whisler", "address": "3233 E 2nd St N, Wichita, KS 67208", "city": "Wichita", "phone": "+1 316-683-6766", "website": "http://www.collegehillobgyn.com/our-caregivers/", "rating": 4.9, "reviews": 28, "place_id": "ChIJvf0fUA3juocR_fYupi7CXJA", "latitude": 37.6897871, "longitude": -97.29811989999999, "care_type": "OB-GYN"}, {"name": "Melanie Z. Demarce, PA", "address": "1515 S Clifton Ave #400, Wichita, KS 67218", "city": "Wichita", "phone": "+1 316-274-1550", "website": "https://healthcare.ascension.org/find-care/provider/1780074880/melanie-demarce%3Futm_campaign%3Dgmb-website%26utm_medium%3Dorganic%26utm_source%3Dgoogle", "rating": 5.0, "reviews": 29, "place_id": "ChIJA3_eyRHjuocRO8l7EEdSQX8", "latitude": 37.6656548, "longitude": -97.29464709999999, "care_type": "OB-GYN"}, {"name": "Andrea Fullerton, MD", "address": "9211 E 21st St N, Wichita, KS 67206", "city": "Wichita", "phone": "+1 316-636-1550", "website": "http://www.viachristiclinic.com/dr_bios/bios_display.php/andrea_m_fullerton", "rating": 3.7, "reviews": 6, "place_id": "ChIJ8RrxH6_juocRV_sfBOMEnFs", "latitude": 37.7222071, "longitude": -97.22983699999999, "care_type": "OB-GYN"}, {"name": "Hild Kerri a MD", "address": "3232 E Murdock St, Wichita, KS 67208", "city": "Wichita", "phone": "+1 316-685-7234", "website": "https://www.awhobgyn.com/provider/kerri-hild-md-facog/", "rating": 4.3, "reviews": 12, "place_id": "ChIJHQUwLBDjuocRJ1b9E2_00S0", "latitude": 37.7451505, "longitude": -97.2995634, "care_type": "OB-GYN"}, {"name": "ger hershberger", "address": "9300 East 29th St N, Wichita, KS 67226", "city": "Wichita", "phone": "+1 316-858-7100", "website": "", "rating": 5.0, "reviews": 1, "place_id": "ChIJibbYIOL9uocRr8u0eyi2kJg", "latitude": 37.7384192, "longitude": -97.2299879, "care_type": "OB-GYN"}, {"name": "Feuille Jr Edmond G MD", "address": "551 N Hillside St # 510, Wichita, KS 67214", "city": "Wichita", "phone": "+1 316-685-0559", "website": "http://wichitaobgyn.org/", "rating": 4.9, "reviews": 23, "place_id": "ChIJL4Gmcg7juocRWn1NO93zjw4", "latitude": 37.6959583, "longitude": -97.2996671, "care_type": "OB-GYN"}, {"name": "Taylor L. Bertschy, DO", "address": "9300 East 29th St N STE 201, Wichita, KS 67226", "city": "Wichita", "phone": "+1 316-685-1277", "website": "", "rating": 5.0, "reviews": 4, "place_id": "ChIJSQdUrnP9uocRcMjFcr1QYp0", "latitude": 37.7388477, "longitude": -97.22974359999999, "care_type": "OB-GYN"}, {"name": "Dr. Randall J. Morgan, MD", "address": "3232 E Murdock St, Wichita, KS 67208", "city": "Wichita", "phone": "+1 316-685-7234", "website": "", "rating": 5.0, "reviews": 1, "place_id": "ChIJHQUwLBDjuocRg8twXijZDHY", "latitude": 37.6977378, "longitude": -97.2970713, "care_type": "OB-GYN"}, {"name": "Darren M. Farley, MD, FACOG", "address": "3232 E Murdock St, Wichita, KS 67208", "city": "Wichita", "phone": "+1 316-239-2850", "website": "https://www.awhobgyn.com/provider/darren-farley-md-facog/", "rating": 4.9, "reviews": 7, "place_id": "ChIJHQUwLBDjuocRY9NZIOK7TG0", "latitude": 37.6977342, "longitude": -97.2970436, "care_type": "OB-GYN"}, {"name": "Alexandra Meloccaro", "address": "3232 E Murdock St, Wichita, KS 67208", "city": "Wichita", "phone": "+1 316-685-7234", "website": "https://www.awhobgyn.com/our-providers/alexandra-meloccaro/", "rating": 4.5, "reviews": 8, "place_id": "ChIJA0LCLxDjuocRXsF8F-jZUh0", "latitude": 37.6977342, "longitude": -97.2970436, "care_type": "OB-GYN"}, {"name": "Dr. Kari E. Hamlin, MD", "address": "1010 N Kansas St, Wichita, KS 67214", "city": "Wichita", "phone": "+1 316-293-2650", "website": "", "rating": null, "reviews": 0, "place_id": "ChIJ8RrxH6_juocRCctDBslutLU", "latitude": 37.7015456, "longitude": -97.3157164, "care_type": "OB-GYN"}, {"name": "Dr. Melissa Hague", "address": "3243 E Murdock St, Wichita, KS 67208", "city": "Wichita", "phone": "+1 316-262-2415", "website": "https://www.wesleycarephysicians.com/physicians/profile/Dr-Melissa-J-Hague-MD", "rating": null, "reviews": 0, "place_id": "ChIJQ55t0RHjuocR9Nyt9H-sxwM", "latitude": 37.6967486, "longitude": -97.2972022, "care_type": "OB-GYN"}, {"name": "Ascension Medical Group Via Christi OB-GYN", "address": "1515 S Clifton Ave #400, Wichita, KS 67218", "city": "Wichita", "phone": "+1 316-274-1550", "website": "https://healthcare.ascension.org/locations/kansas/kswic/wichita-ascension-via-christi-st-joseph/departments/medical-office-building/obgyn%3Futm_campaign%3Dgmb%26utm_medium%3Dorganic-search%26utm_content%3Dlocation-listing%26utm_source%3Dlocal", "rating": 4.7, "reviews": 83, "place_id": "ChIJnTNXxNrluocRxhJOUE_JNlw", "latitude": 37.6656548, "longitude": -97.29464709999999, "care_type": "OB-GYN"}, {"name": "Dr. Thalia Lopez", "address": "550 N Hillside St, Wichita, KS 67214", "city": "Wichita", "phone": "+1 316-262-2415", "website": "", "rating": null, "reviews": 0, "place_id": "ChIJCUgPHQ7juocRCtTwmMcNeGI", "latitude": 37.6952735, "longitude": -97.29778309999999, "care_type": "OB-GYN"}, {"name": "Thalia J. Lopez, MD", "address": "9300 East 29th St N STE 201, Wichita, KS 67226", "city": "Wichita", "phone": "+1 316-685-1277", "website": "", "rating": 5.0, "reviews": 2, "place_id": "ChIJnQGHBHP9uocRgU4oYQoSY3g", "latitude": 37.7388477, "longitude": -97.22974359999999, "care_type": "OB-GYN"}, {"name": "Dr. Dawne Lowden", "address": "550 N Hillside St, Wichita, KS 67214", "city": "Wichita", "phone": "+1 316-262-2415", "website": "", "rating": 3.4, "reviews": 5, "place_id": "ChIJCUgPHQ7juocR7FbV6TaLEoA", "latitude": 37.6952735, "longitude": -97.29778309999999, "care_type": "OB-GYN"}, {"name": "Dr. Debra L. Messamore, MD", "address": "3232 E Murdock St, Wichita, KS 67208", "city": "Wichita", "phone": "+1 316-685-7234", "website": "", "rating": 3.8, "reviews": 5, "place_id": "ChIJHQUwLBDjuocRR_-E3qlVNdo", "latitude": 37.6977378, "longitude": -97.2970713, "care_type": "OB-GYN"}, {"name": "Salina Women's Clinic", "address": "501 S Santa Fe Ave #140, Salina, KS 67401", "city": "Salina", "phone": "+1 785-827-7996", "website": "http://www.salinawomensclinic.com/", "rating": 4.7, "reviews": 0, "place_id": "ChIJW6VoEQPGvIcRXoembjofL-g", "latitude": 38.8323792, "longitude": -97.6083869, "care_type": "OB-GYN"}, {"name": "Veerayyagari Annapurna", "address": "9300 East 29th St N STE 201, Wichita, KS 67226", "city": "Wichita", "phone": "+1 316-683-4360", "website": "", "rating": null, "reviews": 0, "place_id": "ChIJozqBpnP9uocRJ2cqtGXTQxU", "latitude": 37.7386669, "longitude": -97.2293735, "care_type": "OB-GYN"}, {"name": "CommonSpirit Primary Care and Obstetrics & Gynecology Liberal", "address": "2132 N Kansas Ave # C, Liberal, KS 67901", "city": "Liberal", "phone": "+1 620-765-1255", "website": "https://www.mountain.commonspirit.org/location/commonspirit-primary-care-and-obstetrics-gynecology-liberal", "rating": 4.8, "reviews": 60, "place_id": "ChIJdcAVbZcVCIcRfidGptjAYEs", "latitude": 37.0631992, "longitude": -100.9233137, "care_type": "OB-GYN"}, {"name": "Ob-Gyn Associates of Southwest KS", "address": "222 W 15th St, Liberal, KS 67901", "city": "Liberal", "phone": "+1 620-624-3811", "website": "https://portal.obgynofswks.com/portal/www-site/login.php", "rating": 3.6, "reviews": 5, "place_id": "ChIJJ-TFBXoUCIcRb9hxDxezjds", "latitude": 37.0539741, "longitude": -100.9260217, "care_type": "OB-GYN"}, {"name": "Knudsen Clinic for Women's Health", "address": "222 W 15th St, Liberal, KS 67901", "city": "Liberal", "phone": "+1 620-624-3811", "website": "http://www.swmedcenter.com/", "rating": 3.6, "reviews": 36, "place_id": "ChIJJ-TFBXoUCIcRHHCd0E_-DFI", "latitude": 37.0538521, "longitude": -100.9260267, "care_type": "OB-GYN"}, {"name": "Women's Specialty Center of Liberal - Lamberto O Flores, MD/Tori Underwood, ARNP-C", "address": "305 W 15th St #104, Liberal, KS 67901", "city": "Liberal", "phone": "+1 620-624-9637", "website": "https://www.swmedcenter.com/index.php/womens-speciality-care-center-of-liberal/", "rating": 3.5, "reviews": 18, "place_id": "ChIJlx3pXmgUCIcR1Mf1N_tFZq4", "latitude": 37.056157, "longitude": -100.9267724, "care_type": "OB-GYN"}, {"name": "Women's Specialty Center Of Liberal", "address": "305 W 15th St #104, Liberal, KS 67901", "city": "Liberal", "phone": "+1 620-624-9637", "website": "http://floresobgyn.com/", "rating": 3.0, "reviews": 2, "place_id": "ChIJXXz2F3oUCIcRICJmcZ78aJc", "latitude": 37.0557688, "longitude": -100.9265295, "care_type": "OB-GYN"}, {"name": "Flores Lamberto", "address": "305 W 15th St #104, Liberal, KS 67901", "city": "Liberal", "phone": "+1 620-624-9637", "website": "http://www.floresobgyn.com/", "rating": 5.0, "reviews": 4, "place_id": "ChIJgaPc83sUCIcRRVaS5LrRQ0I", "latitude": 37.0562597, "longitude": -100.9263083, "care_type": "OB-GYN"}, {"name": "HaysMed Women's Health Center", "address": "2214 Canterbury Dr # 210, Hays, KS 67601", "city": "Hays", "phone": "+1 785-623-5806", "website": "http://www.haysmed.com/ob-gyn", "rating": 3.8, "reviews": 13, "place_id": "ChIJSeZo6kJ5oYcRp3ymEJIeP-A", "latitude": 38.8798904, "longitude": -99.2964248, "care_type": "OB-GYN"}, {"name": "Dr. Lee J. Hodny, MD", "address": "2214 Canterbury Dr # 210, Hays, KS 67601", "city": "Hays", "phone": "+1 785-623-5806", "website": "https://www.haysmed.com/lee-hodny/", "rating": 3.6, "reviews": 7, "place_id": "ChIJSeZo6kJ5oYcR34JkPo7PTBM", "latitude": 38.8784347, "longitude": -99.2989594, "care_type": "OB-GYN"}, {"name": "Timothy Hoskins, MD", "address": "2220 Canterbury Dr, Hays, KS 67601", "city": "Hays", "phone": "+1 785-623-5806", "website": "https://www.haysmed.com/timothy-hoskins", "rating": 4.0, "reviews": 4, "place_id": "ChIJI03m60J5oYcROTXn_WAKxBs", "latitude": 38.8786277, "longitude": -99.29895739999999, "care_type": "OB-GYN"}, {"name": "Dr. John C. Lloyd, MD", "address": "2214 Canterbury Dr # 210, Hays, KS 67601", "city": "Hays", "phone": "+1 785-623-5806", "website": "http://www.haysmed.com/", "rating": null, "reviews": 0, "place_id": "ChIJSeZo6kJ5oYcRq6rBSX70lPQ", "latitude": 38.8784347, "longitude": -99.2989594, "care_type": "OB-GYN"}, {"name": "Weber Rebeka Dr", "address": "2214 Canterbury Dr, Hays, KS 67601", "city": "Hays", "phone": "+1 785-623-5806", "website": "http://www.haysmed.com/", "rating": null, "reviews": 0, "place_id": "ChIJIyeX6kJ5oYcRve7yX_TeeTA", "latitude": 38.878556, "longitude": -99.29890119999999, "care_type": "OB-GYN"}, {"name": "Jenna K. Sloan, MD", "address": "2220 Canterbury Dr, Hays, KS 67601", "city": "Hays", "phone": "+1 785-623-5806", "website": "", "rating": null, "reviews": 0, "place_id": "ChIJI03m60J5oYcR5qB5n3o9J4A", "latitude": 38.8786277, "longitude": -99.29895739999999, "care_type": "OB-GYN"}, {"name": "Megan Brown MD", "address": "511 NE 10th St, Abilene, KS 67410", "city": "Abilene", "phone": "+1 785-263-4131", "website": "https://mhsks.org/heartland_clinic/", "rating": 4.6, "reviews": 11, "place_id": "ChIJ__-_YZnwvIcRCV0wKq6z4d4", "latitude": 38.9253608, "longitude": -97.2058861, "care_type": "OB-GYN"}, {"name": "Dr. Camille A. Russell Mckesey, MD", "address": "700 W Central Ave Suite #412, El Dorado, KS 67042", "city": "El Dorado", "phone": "+1 316-320-0501", "website": "http://www.sbamh.com/providers/ob_gyn", "rating": 5.0, "reviews": 12, "place_id": "ChIJg8ZFEwuzu4cRL2mp5oG5wlA", "latitude": 37.8183743, "longitude": -96.8582522, "care_type": "OB-GYN"}, {"name": "Brenda L. Harkins MD FACOG", "address": "700 Medical Center Dr STE 120, Newton, KS 67114", "city": "Newton", "phone": "+1 316-283-4153", "website": "http://www.awhobgyn.com/", "rating": 5.0, "reviews": 1, "place_id": "ChIJ6zNu8OoTu4cRMU7egzEjzOw", "latitude": 38.023162, "longitude": -97.3339846, "care_type": "OB-GYN"}, {"name": "Kent R. Bradley MD, FACOG", "address": "700 Medical Center Dr STE 120, Newton, KS 67114", "city": "Newton", "phone": "+1 316-283-4153", "website": "https://www.mynmchealth.org/doctor/bradley-kent-r-md/", "rating": 5.0, "reviews": 2, "place_id": "ChIJ6zNu8OoTu4cR3t-bRpXN2VY", "latitude": 38.023162, "longitude": -97.3339846, "care_type": "OB-GYN"}, {"name": "Kristen Giefer", "address": "700 Medical Center Dr STE 120, Newton, KS 671149016", "city": "Newton", "phone": "+1 316-283-4153", "website": "https://www.awhobgyn.com/provider/kristen-giefer-do/", "rating": 5.0, "reviews": 1, "place_id": "ChIJH5rvFOsTu4cRoPtx3QbQBOw", "latitude": 38.023162, "longitude": -97.3339846, "care_type": "OB-GYN"}, {"name": "Jessica Poteet", "address": "2101 N Waldron St, Hutchinson, KS 67502", "city": "Hutchinson", "phone": "+1 620-669-2500", "website": "", "rating": 3.0, "reviews": 4, "place_id": "ChIJq6paPEK2pIcRLUEi36ZXo7s", "latitude": 38.078537, "longitude": -97.8955053, "care_type": "OB-GYN"}, {"name": "Michael S. Fenech, DO", "address": "1300 E Centennial Dr., Pittsburg, KS 66762", "city": "Pittsburg", "phone": "+1 620-230-0044", "website": "https://healthcare.ascension.org/find-care/provider/1588893697/michael-fenech%3Futm_campaign%3Dgmb-website%26utm_medium%3Dorganic%26utm_source%3Dgoogle", "rating": 4.6, "reviews": 56, "place_id": "ChIJo8cnMCrDx4cR62GV9ieaGUw", "latitude": 37.3809581, "longitude": -94.6820971, "care_type": "OB-GYN"}, {"name": "Victoria A. Shirley, DO", "address": "1300 E Centennial Dr. Suite 20, Pittsburg, KS 66762", "city": "Pittsburg", "phone": "+1 620-230-0044", "website": "https://www.mercy.net/doctor/victoria-a-shirley-do%3Futm_source%3Dgoogle%26utm_medium%3Dorganic_search%26utm_campaign%3Dyext%26utm_term%3D%26utm_content%3Dwebsite%26y_source%3D1_MTA3ODc5MzE2Mi03MTUtbG9jYXRpb24ud2Vic2l0ZQ%253D%253D", "rating": 5.0, "reviews": 29, "place_id": "ChIJo0MgP2XDx4cR64-CTWUzE0g", "latitude": 37.3809272, "longitude": -94.68204779999999, "care_type": "OB-GYN"}, {"name": "Shannon Leigh Duncan, APRN-CNP", "address": "1300 E Centennial Dr. Suite 20, Pittsburg, KS 66762", "city": "Pittsburg", "phone": "+1 620-230-0044", "website": "https://www.mercy.net/doctor/shannon-leigh-duncan-aprn-cnp%3Futm_source%3Dgoogle%26utm_medium%3Dorganic_search%26utm_campaign%3Dyext%26utm_term%3D%26utm_content%3Dwebsite%26y_source%3D1_MTA3ODE4OTI1Ni03MTUtbG9jYXRpb24ud2Vic2l0ZQ%253D%253D", "rating": 5.0, "reviews": 24, "place_id": "ChIJq6pq4ivDx4cRzJET96Sh2yQ", "latitude": 37.3809208, "longitude": -94.68202029999999, "care_type": "OB-GYN"}, {"name": "Kayla Marie Stewart, APRN", "address": "1300 E Centennial Dr. Suite 20, Pittsburg, KS 66762", "city": "Pittsburg", "phone": "+1 620-230-0044", "website": "", "rating": 4.8, "reviews": 0, "place_id": "ChIJtYsQV1rDx4cReEtWtKJl2I8", "latitude": 37.3809239, "longitude": -94.68204879999999, "care_type": "OB-GYN"}, {"name": "Amanda N. Healy MD", "address": "21120 W 152nd St #201, Olathe, KS 66061", "city": "Olathe", "phone": "+1 913-491-4020", "website": "http://www.wcjcobgyn.com/", "rating": 4.4, "reviews": 34, "place_id": "ChIJA_2Izx7qwIcRMGHAf9LZAug", "latitude": 38.853749, "longitude": -94.8297868, "care_type": "OB-GYN"}, {"name": "Emily S Mathiesen, MD", "address": "21120 W 152nd St #201, Olathe, KS 66061", "city": "Olathe", "phone": "+1 913-588-6200", "website": "https://findadoctor.kansashealthsystem.com/provider/emily-s-mathiesen/2816957", "rating": 4.6, "reviews": 74, "place_id": "ChIJR6-e1uYcwYcRjOjH6BcFPRs", "latitude": 38.853749, "longitude": -94.8297868, "care_type": "OB-GYN"}, {"name": "Ruth Steward, CNM", "address": "16180 W 135th St Suite 320, Olathe, KS 66062", "city": "Olathe", "phone": "+1 913-441-4544", "website": "https://mymidwestphysician.com/physicians/profile/Ruth-Steward-CNM%3Futm_campaign%3Dcorp_listings_mgmt%26utm_source%3Dgoogle%26utm_medium%3Dbusiness_listing", "rating": 5.0, "reviews": 48, "place_id": "ChIJg0SX5Ea_wIcReChOkQrl8KI", "latitude": 38.884481, "longitude": -94.7707361, "care_type": "OB-GYN"}, {"name": "Stacey Johnson, MD", "address": "16180 W 135th St, Olathe, KS 66062", "city": "Olathe", "phone": "+1 913-441-4544", "website": "https://mymidwestphysician.com/physicians/profile/Dr-Stacey-Johnson-MD%3Futm_campaign%3Dcorp_listings_mgmt%26utm_source%3Dgoogle%26utm_medium%3Dbusiness_listing", "rating": 4.9, "reviews": 114, "place_id": "ChIJa_2nrK2_wIcRZT37sccn7mI", "latitude": 38.884481, "longitude": -94.7707361, "care_type": "OB-GYN"}, {"name": "Kristin Kruse, MD", "address": "16180 W 135th St, Olathe, KS 66062", "city": "Olathe", "phone": "+1 913-441-4544", "website": "https://mymidwestphysician.com/physicians/profile/Dr-Kristin-J-Kruse-MD%3Futm_campaign%3Dcorp_listings_mgmt%26utm_source%3Dgoogle%26utm_medium%3Dbusiness_listing", "rating": 4.8, "reviews": 75, "place_id": "ChIJJd_UQ_W_wIcR2RPwn5Y9YIQ", "latitude": 38.884481, "longitude": -94.7707361, "care_type": "OB-GYN"}, {"name": "Sharon Maturo, M.D.", "address": "21120 W 152nd St #201, Olathe, KS 66061", "city": "Olathe", "phone": "+1 913-491-4020", "website": "https://www.wcjcobgyn.com/providers/sharon-l-maturo-md", "rating": 4.8, "reviews": 22, "place_id": "ChIJDwRWKHq9wIcRUIuoImwG7dk", "latitude": 38.853749, "longitude": -94.8297868, "care_type": "OB-GYN"}, {"name": "Cynthia A. Eckert, M.D", "address": "21120 W 152nd St #201, Olathe, KS 66061", "city": "Olathe", "phone": "+1 913-491-4020", "website": "http://wcjcobgyn.com/", "rating": 4.8, "reviews": 16, "place_id": "ChIJi4mL7Cu9wIcRPkT1NkzNRwU", "latitude": 38.853749, "longitude": -94.8297868, "care_type": "OB-GYN"}, {"name": "Alison G Blevins MD", "address": "21120 W 152nd St #201, Olathe, KS 66061", "city": "Olathe", "phone": "+1 913-355-8228", "website": "https://www.olathehealth.org/our-team/alison-g-blevins-md/", "rating": 4.4, "reviews": 45, "place_id": "ChIJN-9MKsu9wIcRgFfx5a31HXM", "latitude": 38.853749, "longitude": -94.8297868, "care_type": "OB-GYN"}, {"name": "Kristi Weaver, DO", "address": "16180 W 135th St, Olathe, KS 66062", "city": "Olathe", "phone": "+1 913-441-4544", "website": "https://mymidwestphysician.com/physicians/profile/Dr-Kristi-Weaver-DO%3Futm_campaign%3Dcorp_listings_mgmt%26utm_source%3Dgoogle%26utm_medium%3Dbusiness_listing", "rating": 4.9, "reviews": 119, "place_id": "ChIJr2-bfgORwIcRPDkS4vLVCAE", "latitude": 38.884481, "longitude": -94.7707361, "care_type": "OB-GYN"}, {"name": "Errick Arroyo, MD", "address": "12200 W 106th St, Overland Park, KS 66215", "city": "Overland Park", "phone": "+1 913-948-9636", "website": "https://www.kcobgyn.com/%3Futm_campaign%3Dcorp_listings_mgmt%26utm_source%3Dgoogle%26utm_medium%3Dbusiness_listing", "rating": 5.0, "reviews": 85, "place_id": "ChIJU5JeOCvrwIcRG599j-HDXhk", "latitude": 38.9375987, "longitude": -94.7266781, "care_type": "OB-GYN"}, {"name": "Jennifer Litwin, DO", "address": "16180 W 135th St, Olathe, KS 66062", "city": "Olathe", "phone": "+1 913-441-4544", "website": "https://mymidwestphysician.com/physicians/profile/Dr-Jennifer-Litwin-DO%3Futm_campaign%3Dcorp_listings_mgmt%26utm_source%3Dgoogle%26utm_medium%3Dbusiness_listing", "rating": 4.9, "reviews": 93, "place_id": "ChIJJ0B7KWK_wIcRxlrKGSkPKlk", "latitude": 38.884481, "longitude": -94.7707361, "care_type": "OB-GYN"}, {"name": "Amy Sorrells", "address": "16180 W 135th St, Olathe, KS 66062", "city": "Olathe", "phone": "+1 913-441-4544", "website": "https://mymidwestphysician.com/physicians/profile/Amy-C-Sorrells-MD%3Futm_campaign%3Dcorp_listings_mgmt%26utm_source%3Dgoogle%26utm_medium%3Dbusiness_listing", "rating": 4.7, "reviews": 13, "place_id": "ChIJr2-bfgORwIcRYV0_xvXkywM", "latitude": 38.884481, "longitude": -94.7707361, "care_type": "OB-GYN"}, {"name": "Dr. Douglas Macfarlane", "address": "20375 W 151st St #200, Olathe, KS 66061", "city": "Olathe", "phone": "+1 913-782-3073", "website": "", "rating": 5.0, "reviews": 1, "place_id": "ChIJH8xNjM69wIcREUEa8LlBQjU", "latitude": 38.8528779, "longitude": -94.8240201, "care_type": "OB-GYN"}, {"name": "Arbor Creek Ob/Gyn", "address": "16534 W 159th Terrace, Olathe, KS 66062", "city": "Olathe", "phone": "", "website": "", "rating": null, "reviews": 0, "place_id": "ChIJGTaf6vq-wIcR1GuRFwfPyp0", "latitude": 38.8395061, "longitude": -94.77818359999999, "care_type": "OB-GYN"}, {"name": "Emily Minderman, MD", "address": "12200 W 106th St #230, Overland Park, KS 66215", "city": "Overland Park", "phone": "+1 913-948-9636", "website": "https://www.kcobgyn.com/%3Futm_campaign%3Dcorp_listings_mgmt%26utm_source%3Dgoogle%26utm_medium%3Dbusiness_listing", "rating": 4.9, "reviews": 52, "place_id": "ChIJU5JeOCvrwIcRSaqyAZxdD4k", "latitude": 38.9377406, "longitude": -94.7269603, "care_type": "OB-GYN"}, {"name": "Olathe Women's Center", "address": "20375 W 151st St Suite 250, Olathe, KS 66061", "city": "Olathe", "phone": "+1 913-764-6262", "website": "http://www.olathewomenscenter.com/", "rating": 3.2, "reviews": 64, "place_id": "ChIJs4nZjM69wIcRKv4EYwQIovg", "latitude": 38.8528779, "longitude": -94.8240201, "care_type": "OB-GYN"}, {"name": "The Women\u2019s Healthcare Group", "address": "10600 Quivira Rd STE #200, Overland Park, KS 66215", "city": "Overland Park", "phone": "+1 913-541-0990", "website": "https://www.womenshealthcaregroupkc.com/", "rating": 4.2, "reviews": 153, "place_id": "ChIJz4gaBivrwIcR_fwQpuFj9qU", "latitude": 38.9361138, "longitude": -94.7257411, "care_type": "OB-GYN"}, {"name": "Meghan E Vaglio, MD", "address": "21120 W 152nd St #201, Olathe, KS 66061", "city": "Olathe", "phone": "+1 913-445-8228", "website": "https://findadoctor.kansashealthsystem.com/provider/Meghan%2BE%2BVaglio/2941264%3Futm_source%3Dgmb%26utm_medium%3Dweb%26utm_term%3D%26utm_content%3D%26utm_campaign%3Dkyruus_brandify", "rating": 3.8, "reviews": 9, "place_id": "ChIJAQBQm5LswIcR-uvPdrU4WYY", "latitude": 38.853749, "longitude": -94.8297868, "care_type": "OB-GYN"}, {"name": "Jessica Pullen, MD", "address": "21120 W 152nd St #201, Olathe, KS 66061", "city": "Olathe", "phone": "+1 913-491-4020", "website": "https://www.wcjcobgyn.com/", "rating": 4.4, "reviews": 13, "place_id": "ChIJ6XrtZZG9wIcR-TcViVsD8t0", "latitude": 38.853749, "longitude": -94.8297868, "care_type": "OB-GYN"}, {"name": "Dr. Ana Luina L. Estrada, MD", "address": "20375 W 151st St Suite 250, Olathe, KS 66061", "city": "Olathe", "phone": "+1 913-764-6262", "website": "http://www.olathewomenscenter.com/", "rating": 3.3, "reviews": 31, "place_id": "ChIJbarnjc69wIcRfrlAcRyj2pk", "latitude": 38.8528779, "longitude": -94.8240201, "care_type": "OB-GYN"}, {"name": "Laura Parks, MD", "address": "13801 Metcalf Ave Suite 200, Overland Park, KS 66223", "city": "Overland Park", "phone": "+1 913-340-7633", "website": "https://mymidwestphysician.com/physicians/profile/Dr-Laura-Parks-MD%3Futm_campaign%3Dcorp_listings_mgmt%26utm_source%3Dgoogle%26utm_medium%3Dbusiness_listing", "rating": 4.9, "reviews": 101, "place_id": "ChIJL00PZMfDwIcRBCecafmTius", "latitude": 38.877911, "longitude": -94.6673467, "care_type": "OB-GYN"}, {"name": "Margaret Smith, MD", "address": "10600 Quivira Rd Ste 320, Overland Park, KS 66215", "city": "Overland Park", "phone": "+1 913-894-8500", "website": "https://mymidwestphysician.com/physicians/profile/Dr-Margaret-H-Smith-MD%3Futm_campaign%3Dcorp_listings_mgmt%26utm_source%3Dgoogle%26utm_medium%3Dbusiness_listing", "rating": 5.0, "reviews": 39, "place_id": "ChIJ5T1J-CrrwIcRUY5uFkvS3Ck", "latitude": 38.9361901, "longitude": -94.72548189999999, "care_type": "OB-GYN"}, {"name": "Dr. Phaedra A. Lombard, MD", "address": "5525 W 119th St #200, Overland Park, KS 66209", "city": "Overland Park", "phone": "+1 913-491-4020", "website": "http://www.wcjcobgyn.com/", "rating": 4.2, "reviews": 19, "place_id": "ChIJj_yIzx7qwIcR_EZg60_NU2g", "latitude": 38.9120369, "longitude": -94.6496361, "care_type": "OB-GYN"}, {"name": "Dr. Crystal Taylor, DO", "address": "21220 W 152nd St Suite 201, Olathe, KS 66061", "city": "Olathe", "phone": "+1 913-491-4020", "website": "https://wcjcobgyn.com/", "rating": 5.0, "reviews": 5, "place_id": "ChIJ83lyfh-9wIcRhNPHNqZdxBs", "latitude": 38.8538304, "longitude": -94.8297681, "care_type": "OB-GYN"}, {"name": "Natasha Sears, APRN, CNM", "address": "10600 Quivira Rd Suite 350A, Overland Park, KS 66215", "city": "Overland Park", "phone": "+1 913-735-4726", "website": "https://mymidwestphysician.com/physicians/profile/Natasha-Sears-APRN-CNM%3Futm_campaign%3Dcorp_listings_mgmt%26utm_source%3Dgoogle%26utm_medium%3Dbusiness_listing", "rating": 5.0, "reviews": 24, "place_id": "ChIJi_15e0_rwIcRJ3VM__RnDvw", "latitude": 38.9361747, "longitude": -94.7254342, "care_type": "OB-GYN"}, {"name": "Dr. Cecily Clark-Ganheart", "address": "16240 Foster, Overland Park, KS 66085", "city": "Overland Park", "phone": "+1 913-291-0069", "website": "http://kcperinatal.com/", "rating": 5.0, "reviews": 8, "place_id": "ChIJ6bPMPSvrwIcR0J4E-ueSij4", "latitude": 38.833118, "longitude": -94.67638699999999, "care_type": "OB-GYN"}, {"name": "Malorie Howe, DO", "address": "7840 W 165th St Suite 310, Overland Park, KS 66223", "city": "Overland Park", "phone": "+1 913-384-4990", "website": "https://womenscare-obgyn.com/about-us/our-providers/malorie-howe-do/", "rating": 5.0, "reviews": 7, "place_id": "ChIJzTSvgPfrwIcR00dmpUI98Wk", "latitude": 38.8326768, "longitude": -94.68144149999999, "care_type": "OB-GYN"}, {"name": "Dr. Brandi D. Wilson, MD", "address": "2040 Hutton Rd # 102, Kansas City, KS 66109", "city": "Kansas City", "phone": "+1 913-788-9797", "website": "https://www.sunflowermed.com/doctor/brandi-d-wilson-m-d-f-a-c-o-g/", "rating": 5.0, "reviews": 10, "place_id": "ChIJTc2dxG2MwIcRaLDjPuiBfM4", "latitude": 39.1299301, "longitude": -94.8363857, "care_type": "OB-GYN"}, {"name": "Erika Hunter, MD", "address": "10600 Quivira Rd, Overland Park, KS 66215", "city": "Overland Park", "phone": "+1 913-307-0044", "website": "https://mymidwestphysician.com/physicians/profile/Dr-Erika-Hunter-MD%3Futm_campaign%3Dcorp_listings_mgmt%26utm_source%3Dgoogle%26utm_medium%3Dbusiness_listing", "rating": 4.7, "reviews": 221, "place_id": "ChIJd8l9D5vrwIcRXlWBNlJO_U0", "latitude": 38.9361747, "longitude": -94.7254342, "care_type": "OB-GYN"}, {"name": "Dr. Meghan A. Nichols, MD", "address": "12200 W 106th St #230, Overland Park, KS 66215", "city": "Overland Park", "phone": "", "website": "", "rating": 4.5, "reviews": 30, "place_id": "ChIJU5JeOCvrwIcRlbTIzCeuzBc", "latitude": 38.9374642, "longitude": -94.72662629999999, "care_type": "OB-GYN"}, {"name": "Dr. Gordon B. Clark, MD", "address": "21624 Midland Dr, Shawnee, KS 66218", "city": "Shawnee", "phone": "+1 913-643-0075", "website": "", "rating": 4.2, "reviews": 9, "place_id": "ChIJ873c8AuRwIcREzDvPWXX-6s", "latitude": 39.0078453, "longitude": -94.8358209, "care_type": "OB-GYN"}, {"name": "J. Anthony Heit, MD", "address": "12200 W 106th St #230, Overland Park, KS 66215", "city": "Overland Park", "phone": "+1 913-948-9636", "website": "https://www.kcobgyn.com/%3Futm_campaign%3Dcorp_listings_mgmt%26utm_source%3Dgoogle%26utm_medium%3Dbusiness_listing", "rating": 4.9, "reviews": 55, "place_id": "ChIJU5JeOCvrwIcRiX7uXGOVPVE", "latitude": 38.9377406, "longitude": -94.7269603, "care_type": "OB-GYN"}, {"name": "Dr. Kimberly Swan, MD", "address": "12200 W 106th St #320, Overland Park, KS 66215", "city": "Overland Park", "phone": "+1 913-348-4202", "website": "https://www.swangynecology.com/", "rating": 4.3, "reviews": 85, "place_id": "ChIJgaurFC7uwIcRuH9rml9Hi1E", "latitude": 38.9375987, "longitude": -94.72669599999999, "care_type": "OB-GYN"}, {"name": "Midwest Perinatal Associates - Overland Park", "address": "12200 W 106th St #125, Overland Park, KS 66215", "city": "Overland Park", "phone": "+1 913-599-1396", "website": "https://mymidwestphysician.com/locations/midwest-maternal-fetal-medicine-physicians/%3Futm_campaign%3Dcorp_listings_mgmt%26utm_source%3Dgoogle%26utm_medium%3Dbusiness_listing", "rating": 4.1, "reviews": 33, "place_id": "ChIJJc31zGDrwIcRhSOoaS8rGEE", "latitude": 38.9378236, "longitude": -94.7270585, "care_type": "OB-GYN"}, {"name": "Saroj Bavishi", "address": "407 SAROJ A BAVISHI, 20375 W 151st St, Olathe, KS 66061", "city": "Olathe", "phone": "+1 913-829-9100", "website": "https://www.olathehealth.org/our-team/saroj-a-bavishi-md/", "rating": 5.0, "reviews": 1, "place_id": "ChIJq6qqfc69wIcRrY3ItH9efvo", "latitude": 38.8523017, "longitude": -94.82338899999999, "care_type": "OB-GYN"}, {"name": "Jessica Parrott, MD", "address": "12200 W 106th St #125, Overland Park, KS 66215", "city": "Overland Park", "phone": "+1 913-599-1396", "website": "https://mymidwestphysician.com/locations/midwest-maternal-fetal-medicine-physicians/%3Futm_campaign%3Dcorp_listings_mgmt%26utm_source%3Dgoogle%26utm_medium%3Dbusiness_listing", "rating": 3.9, "reviews": 61, "place_id": "ChIJSTQBgxnrwIcRBukuGZNnmaU", "latitude": 38.9378236, "longitude": -94.7270585, "care_type": "OB-GYN"}, {"name": "Melissa E Huggins, MD", "address": "12000 W 110th St, Overland Park, KS 66210", "city": "Overland Park", "phone": "+1 913-588-1227", "website": "https://findadoctor.kansashealthsystem.com/provider/Melissa%2BE%2BHuggins/1220394%3Futm_source%3Dgmb%26utm_medium%3Dweb%26utm_term%3D%26utm_content%3D%26utm_campaign%3Dkyruus_brandify", "rating": 4.8, "reviews": 4, "place_id": "ChIJqf7gwtrvwIcRiXXh2y1uUx0", "latitude": 38.930595, "longitude": -94.7263416, "care_type": "OB-GYN"}, {"name": "Dr. Stephen M. Gordon, DO", "address": "12330 Metcalf Ave, Overland Park, KS 66213", "city": "Overland Park", "phone": "+1 913-323-9000", "website": "", "rating": 3.0, "reviews": 2, "place_id": "ChIJcXTLe23qwIcRn2dvC96NqyY", "latitude": 38.9039975, "longitude": -94.6691172, "care_type": "OB-GYN"}, {"name": "Dr. Madhuri Reddy", "address": "12000 W 110th St, Overland Park, KS 66210", "city": "Overland Park", "phone": "+1 913-588-1227", "website": "https://findadoctor.kansashealthsystem.com/provider/madhuri-g-reddy/1220974", "rating": 2.0, "reviews": 1, "place_id": "ChIJq6rqwtTqwIcRS5pMT6192Ok", "latitude": 38.9306087, "longitude": -94.7265402, "care_type": "OB-GYN"}, {"name": "Courtney Younglove, MD", "address": "10600 Quivira Rd STE #200, Overland Park, KS 66215", "city": "Overland Park", "phone": "+1 913-620-1616", "website": "https://www.adventhealth.com/find-doctor/doctor/courtney-younglove-md-1013991413", "rating": 4.5, "reviews": 4, "place_id": "ChIJXyTFByvrwIcRb7lbjX0kt1o", "latitude": 38.9361919, "longitude": -94.7254256, "care_type": "OB-GYN"}, {"name": "Michael Muench, MD", "address": "12200 W 106th St #125, Overland Park, KS 66215", "city": "Overland Park", "phone": "+1 913-599-1396", "website": "https://mymidwestphysician.com/locations/midwest-maternal-fetal-medicine-physicians/%3Futm_campaign%3Dcorp_listings_mgmt%26utm_source%3Dgoogle%26utm_medium%3Dbusiness_listing", "rating": 4.0, "reviews": 21, "place_id": "ChIJqfcX_zLrwIcRJPcdZX7ndGQ", "latitude": 38.9378236, "longitude": -94.7270585, "care_type": "OB-GYN"}, {"name": "The University of Kansas Physicians Women's Health Specialty", "address": "3901 Rainbow Blvd, Kansas City, KS 66160", "city": "Kansas City", "phone": "+1 913-588-6200", "website": "http://www.kumed.com/womenshealth", "rating": 3.1, "reviews": 22, "place_id": "ChIJc-0WAy_uwIcRvxYeI5HhORk", "latitude": 39.0561921, "longitude": -94.6114044, "care_type": "OB-GYN"}, {"name": "Dr. Danielle E. Staecker, MD", "address": "3901 Rainbow Blvd, Kansas City, KS 66103", "city": "Kansas City", "phone": "+1 913-588-5000", "website": "https://findadoctor.kansashealthsystem.com/provider/danielle-e-staecker/1221248", "rating": 3.9, "reviews": 10, "place_id": "ChIJc-0WAy_uwIcR3u9sezep2BY", "latitude": 39.0559488, "longitude": -94.61062319999999, "care_type": "OB-GYN"}, {"name": "The University of Kansas Health System Medical Pavilion Obstetrics and Gynecology", "address": "2000 Olathe Blvd, Kansas City, KS 66160", "city": "Kansas City", "phone": "+1 913-588-6200", "website": "https://www.kansashealthsystem.com/care/specialties/womens-health%3Futm_source%3Dgmb%26utm_medium%3Dweb%26utm_term%3D%26utm_content%3D%26utm_campaign%3Dkyruus_brandify", "rating": 3.6, "reviews": 5, "place_id": "ChIJcUo6RMTvwIcRJYJxkmYi0xc", "latitude": 39.0546229, "longitude": -94.608718, "care_type": "OB-GYN"}, {"name": "Kansas City Women's Clinic - KCK", "address": "1601 N 98th St Suite 103, Kansas City, KS 66111", "city": "Kansas City", "phone": "+1 913-299-2229", "website": "https://mymidwestphysician.com/locations/kansas-city-womens-clinic/%3Futm_campaign%3Dcorp_listings_mgmt%26utm_source%3Dgoogle%26utm_medium%3Dbusiness_listing", "rating": 4.1, "reviews": 113, "place_id": "ChIJuSFNOj2MwIcRIxsPduv9rOU", "latitude": 39.1234724, "longitude": -94.8069136, "care_type": "OB-GYN"}, {"name": "Dr. Carrie L. Wieneke Broghammer, MD", "address": "3901 Rainbow Blvd, Kansas City, KS 66103", "city": "Kansas City", "phone": "+1 913-588-6200", "website": "http://www.kumc.edu/", "rating": 4.2, "reviews": 5, "place_id": "ChIJc-0WAy_uwIcRPy_eCv6RU2Y", "latitude": 39.056171, "longitude": -94.610051, "care_type": "OB-GYN"}, {"name": "Valerie A French, MD", "address": "2000 Olathe Blvd, Kansas City, KS 66160", "city": "Kansas City", "phone": "+1 913-588-1227", "website": "https://findadoctor.kansashealthsystem.com/provider/Valerie%2BA%2BFrench/2305452%3Futm_source%3Dgmb%26utm_medium%3Dweb%26utm_term%3D%26utm_content%3D%26utm_campaign%3Dkyruus_brandify", "rating": 4.0, "reviews": 4, "place_id": "ChIJKX6N8rXvwIcRAwZimNge0yo", "latitude": 39.054626, "longitude": -94.60870849999999, "care_type": "OB-GYN"}, {"name": "Kelli E Krase, MD", "address": "2000 Olathe Blvd, Kansas City, KS 66160", "city": "Kansas City", "phone": "+1 913-588-1227", "website": "https://findadoctor.kansashealthsystem.com/provider/Kelli%2BE%2BKrase/1221071%3Futm_source%3Dgmb%26utm_medium%3Dweb%26utm_term%3D%26utm_content%3D%26utm_campaign%3Dkyruus_brandify", "rating": 5.0, "reviews": 2, "place_id": "ChIJuSt2V23vwIcRnj2iLECsyY0", "latitude": 39.054626, "longitude": -94.60870849999999, "care_type": "OB-GYN"}, {"name": "Providence Medical Group Gynecology", "address": "8101 Parallel Pkwy Suite 100, Kansas City, KS 66109", "city": "Kansas City", "phone": "+1 913-596-4929", "website": "https://providencemedicalgroupkc.com/our-services/obstetrics/%3Futm_source%3DGMB%26utm_medium%3DGoogle%2BBusiness%2BProfile%26utm_campaign%3DGBP", "rating": 3.3, "reviews": 4, "place_id": "ChIJH8d3bDWNwIcRh6rJI_11tFc", "latitude": 39.1282264, "longitude": -94.76752049999999, "care_type": "OB-GYN"}, {"name": "Calkins John W MD", "address": "3901 Rainbow Blvd, Kansas City, KS 66103", "city": "Kansas City", "phone": "+1 913-588-5000", "website": "", "rating": 3.0, "reviews": 2, "place_id": "ChIJc-0WAy_uwIcRenTqzEuOJYs", "latitude": 39.0561921, "longitude": -94.6114044, "care_type": "OB-GYN"}, {"name": "Kansas City Women's Clinic - Lansing", "address": "1004 Progress Dr Suite 120, Lansing, KS 66043", "city": "Lansing", "phone": "+1 913-680-1008", "website": "https://mymidwestphysician.com/locations/kansas-city-womens-clinic/%3Futm_campaign%3Dcorp_listings_mgmt%26utm_source%3Dgoogle%26utm_medium%3Dbusiness_listing", "rating": 4.3, "reviews": 81, "place_id": "ChIJT4lNZOd8wIcRWAQDv3JM4JY", "latitude": 39.2655546, "longitude": -94.91523939999999, "care_type": "OB-GYN"}, {"name": "Kansas City Pregnancy Clinic - Kansas City, KS", "address": "636 Tauromee Ave, Kansas City, KS 66101", "city": "Kansas City", "phone": "+1 913-340-7788", "website": "http://www.kcpregnancyclinic.org/", "rating": 4.8, "reviews": 55, "place_id": "ChIJKz4A4kfzwIcRM4vmfU1WCWk", "latitude": 39.1119913, "longitude": -94.6259582, "care_type": "OB-GYN"}, {"name": "Tessa M Johnson, MD", "address": "2000 Olathe Blvd, Kansas City, KS 66160", "city": "Kansas City", "phone": "+1 913-588-1227", "website": "https://findadoctor.kansashealthsystem.com/provider/Tessa%2BM%2BJohnson/3103786%3Futm_source%3Dgmb%26utm_medium%3Dweb%26utm_term%3D%26utm_content%3D%26utm_campaign%3Dkyruus_brandify", "rating": null, "reviews": 0, "place_id": "ChIJR7sto5rvwIcRz8eH4ZSJsl8", "latitude": 39.0547796, "longitude": -94.6089387, "care_type": "OB-GYN"}, {"name": "Laura M Parisi, MD", "address": "2000 Olathe Blvd, Kansas City, KS 66160", "city": "Kansas City", "phone": "+1 913-588-1227", "website": "https://findadoctor.kansashealthsystem.com/provider/Laura%2BM%2BParisi/2296638%3Futm_source%3Dgmb%26utm_medium%3Dweb%26utm_term%3D%26utm_content%3D%26utm_campaign%3Dkyruus_brandify", "rating": 5.0, "reviews": 1, "place_id": "ChIJ-z1ZysHvwIcRIdmVtw4KggQ", "latitude": 39.0546157, "longitude": -94.608755, "care_type": "OB-GYN"}, {"name": "Kristin J Holoch", "address": "3901 Rainbow Blvd, Kansas City, KS 66160", "city": "Kansas City", "phone": "+1 913-588-6300", "website": "", "rating": 1.0, "reviews": 1, "place_id": "ChIJq6pqLSnuwIcR6UkAhyZwHXw", "latitude": 39.0583401, "longitude": -94.610902, "care_type": "OB-GYN"}, {"name": "Univ of Kansas Medical Center: Snyder Thomas E MD", "address": "3901 Rainbow Blvd, Kansas City, KS 66103", "city": "Kansas City", "phone": "+1 913-588-5000", "website": "https://www.kumc.edu/", "rating": null, "reviews": 0, "place_id": "ChIJc-0WAy_uwIcRskxLYUjSs0Q", "latitude": 39.0559488, "longitude": -94.61062319999999, "care_type": "OB-GYN"}, {"name": "Dr. Corinna A. Cooper, MD", "address": "7440 W Frontage Rd, Merriam, KS 66203", "city": "Merriam", "phone": "+1 913-236-6455", "website": "http://www.joco-obgyn.com/", "rating": 4.3, "reviews": 11, "place_id": "ChIJPRhAg5LswIcRKevHLAlQWEY", "latitude": 38.9956673, "longitude": -94.6968673, "care_type": "OB-GYN"}, {"name": "Elizabeth A Riley, MD", "address": "12000 W 110th St, Overland Park, KS 66210", "city": "Overland Park", "phone": "+1 913-588-1227", "website": "https://findadoctor.kansashealthsystem.com/provider/Elizabeth%2BA%2BRiley/2624044%3Futm_source%3Dgmb%26utm_medium%3Dweb%26utm_term%3D%26utm_content%3D%26utm_campaign%3Dkyruus_brandify", "rating": 5.0, "reviews": 1, "place_id": "ChIJLbFHDrfrwIcRS7tf7p4PfjU", "latitude": 38.930654, "longitude": -94.726192, "care_type": "OB-GYN"}, {"name": "Dr. Henry R. Bishop, MD", "address": "10600 S Quivira Rd, Overland Park, KS 66215", "city": "Overland Park", "phone": "+1 913-894-8500", "website": "", "rating": 5.0, "reviews": 1, "place_id": "ChIJ5T1J-CrrwIcRyqT-y5R8nbI", "latitude": 38.936211, "longitude": -94.725138, "care_type": "OB-GYN"}, {"name": "Emily Bauer Holthus, MD", "address": "10600 Quivira Rd STE #200, Overland Park, KS 66215", "city": "Overland Park", "phone": "+1 913-541-0990", "website": "https://www.womenshealthcaregroupkc.com/our-providers/emily-bauer-holthus-md/", "rating": 4.3, "reviews": 3, "place_id": "ChIJXyTFByvrwIcRaYwZtr4-F6k", "latitude": 38.9361919, "longitude": -94.7254256, "care_type": "OB-GYN"}, {"name": "Dr. Rabiya Suleman", "address": "10601 Quivira Rd, Overland Park, KS 66215", "city": "Overland Park", "phone": "+1 913-894-7260", "website": "", "rating": 5.0, "reviews": 4, "place_id": "ChIJ__-_hCnrwIcRn7fhFdWXN0Q", "latitude": 38.9363372, "longitude": -94.7220207, "care_type": "OB-GYN"}, {"name": "Kellye McGuire, MD", "address": "12200 W 106th St #230, Overland Park, KS 66215", "city": "Overland Park", "phone": "+1 913-948-9636", "website": "https://mymidwestphysician.com/physicians/%3Futm_campaign%3Dcorp_listings_mgmt%26utm_source%3Dgoogle%26utm_medium%3Dbusiness_listing", "rating": null, "reviews": 0, "place_id": "ChIJjazVi-HrwIcRrK0RWy6ES2Q", "latitude": 38.93722169999999, "longitude": -94.7267523, "care_type": "OB-GYN"}, {"name": "Dr. Parul S. Nguyen, MD", "address": "10600 S Quivira Rd # 3, Overland Park, KS 66215", "city": "Overland Park", "phone": "+1 913-894-8500", "website": "", "rating": null, "reviews": 0, "place_id": "ChIJ5T1J-CrrwIcRYp0U7osj0Y4", "latitude": 38.9360775, "longitude": -94.7253738, "care_type": "OB-GYN"}, {"name": "Renee BeLieu, MD", "address": "10600 Quivira Rd Ste 320, Overland Park, KS 66215", "city": "Overland Park", "phone": "+1 913-894-8500", "website": "https://mymidwestphysician.com/physicians/profile/Dr-Renee-M-BeLieu-MD%3Futm_campaign%3Dcorp_listings_mgmt%26utm_source%3Dgoogle%26utm_medium%3Dbusiness_listing", "rating": 4.7, "reviews": 25, "place_id": "ChIJ5T1J-CrrwIcRIA91aE8nUoo", "latitude": 38.9361901, "longitude": -94.72548189999999, "care_type": "OB-GYN"}, {"name": "Austin D Findley, MD", "address": "12000 W 110th St, Overland Park, KS 66210", "city": "Overland Park", "phone": "+1 913-588-1227", "website": "https://findadoctor.kansashealthsystem.com/provider/Austin%2BD%2BFindley/1220336%3Futm_source%3Dgmb%26utm_medium%3Dweb%26utm_term%3D%26utm_content%3D%26utm_campaign%3Dkyruus_brandify", "rating": 3.8, "reviews": 13, "place_id": "ChIJi3XqnWDvwIcR1ww8Z5w6r5g", "latitude": 38.930595, "longitude": -94.7263416, "care_type": "OB-GYN"}, {"name": "Elizabeth Dempsey, MD", "address": "10600 Quivira Rd #200, Overland Park, KS 66215", "city": "Overland Park", "phone": "+1 913-541-0990", "website": "https://www.womenshealthcaregroupkc.com/", "rating": 4.3, "reviews": 6, "place_id": "ChIJCYT2LV3rwIcR8nReGiM7iow", "latitude": 38.937208, "longitude": -94.725279, "care_type": "OB-GYN"}, {"name": "Dr. Abigail Proffer, MD, FACOG", "address": "7440 W Frontage Rd, Shawnee, KS 66203", "city": "Shawnee", "phone": "+1 913-236-6455", "website": "http://www.joco-obgyn.com/", "rating": 4.1, "reviews": 8, "place_id": "ChIJbc1og5LswIcR_RbgMnzkwC0", "latitude": 38.9955837, "longitude": -94.6969659, "care_type": "OB-GYN"}, {"name": "Emily M Olig, MD", "address": "12000 W 110th St, Overland Park, KS 66210", "city": "Overland Park", "phone": "+1 913-588-1227", "website": "https://findadoctor.kansashealthsystem.com/provider/Emily%2BM%2BOlig/5807296", "rating": 5.0, "reviews": 1, "place_id": "ChIJdVBOlLfrwIcR73ZQFyRbjlA", "latitude": 38.93061, "longitude": -94.72654, "care_type": "OB-GYN"}, {"name": "Evelina Swartzman, MD", "address": "9119 W 74th St, Overland Park, KS 66204", "city": "Overland Park", "phone": "+1 913-677-3113", "website": "https://www.womenshealthkc.com/team/physicians/evelina-swartzman-md", "rating": 4.5, "reviews": 16, "place_id": "ChIJpZ9pZozswIcR6NKPEOhMb4g", "latitude": 38.9948472, "longitude": -94.69268729999999, "care_type": "OB-GYN"}, {"name": "Carrie L Wieneke Broghammer, MD", "address": "2000 Olathe Blvd, Kansas City, KS 66160", "city": "Kansas City", "phone": "+1 913-588-1227", "website": "https://findadoctor.kansashealthsystem.com/provider/Carrie%2BL%2BWieneke%2520Broghammer/1220079%3Futm_source%3Dgmb%26utm_medium%3Dweb%26utm_term%3D%26utm_content%3D%26utm_campaign%3Dkyruus_brandify", "rating": null, "reviews": 0, "place_id": "ChIJb82jR5HrwIcRkcHz1IPuODY", "latitude": 39.054626, "longitude": -94.60870849999999, "care_type": "OB-GYN"}, {"name": "Dr. Shekita S. Kizer, MD", "address": "3901 Rainbow Blvd, Kansas City, KS 66103", "city": "Kansas City", "phone": "+1 800-555-1212", "website": "", "rating": null, "reviews": 0, "place_id": "ChIJc-0WAy_uwIcRy_g-0uDCjAI", "latitude": 39.056152, "longitude": -94.610626, "care_type": "OB-GYN"}, {"name": "Vircks Julie A MD", "address": "3901 Rainbow Blvd # 2017, Kansas City, KS 66160", "city": "Kansas City", "phone": "+1 913-588-6381", "website": "http://www.kumc.edu/", "rating": null, "reviews": 0, "place_id": "ChIJc-0WAy_uwIcR0xjdt1CYhgs", "latitude": 39.0561921, "longitude": -94.6114044, "care_type": "OB-GYN"}, {"name": "Dr. Denny M. Thomas, MD", "address": "3901 Rainbow Blvd, Kansas City, KS 66103", "city": "Kansas City", "phone": "+1 913-588-1902", "website": "", "rating": null, "reviews": 0, "place_id": "ChIJ_4MGIS_uwIcR-536QH1bvBc", "latitude": 39.0560974, "longitude": -94.6101575, "care_type": "OB-GYN"}, {"name": "Natasha Ahmed, MD", "address": "2000 Olathe Blvd, Kansas City, KS 66160", "city": "Kansas City", "phone": "+1 913-588-6200", "website": "https://findadoctor.kansashealthsystem.com/provider/Natasha%2BAhmed/1220277", "rating": null, "reviews": 0, "place_id": "ChIJB1uMyE_vwIcRulxQVvF0Wj4", "latitude": 39.0546224, "longitude": -94.6091565, "care_type": "OB-GYN"}, {"name": "Lauren Vestal, MD", "address": "2000 Olathe Blvd, Kansas City, KS 66160", "city": "Kansas City", "phone": "+1 913-588-1227", "website": "https://findadoctor.kansashealthsystem.com/provider/Lauren%2BVestal/2638711%3Futm_source%3Dgmb%26utm_medium%3Dweb%26utm_term%3D%26utm_content%3D%26utm_campaign%3Dkyruus_brandify", "rating": null, "reviews": 0, "place_id": "ChIJbVLUtdLvwIcRwYt2q3Re6zM", "latitude": 39.0546157, "longitude": -94.608755, "care_type": "OB-GYN"}, {"name": "Nordwald Lindsay R MD", "address": "3901 Rainbow Blvd, Kansas City, KS 66103", "city": "Kansas City", "phone": "+1 913-588-6400", "website": "", "rating": null, "reviews": 0, "place_id": "ChIJc-0WAy_uwIcRpbXPk6iRjMY", "latitude": 39.0560977, "longitude": -94.6101621, "care_type": "OB-GYN"}, {"name": "Wiley John H MD", "address": "3901 Rainbow Blvd, Kansas City, KS 66160", "city": "Kansas City", "phone": "+1 913-588-5730", "website": "", "rating": null, "reviews": 0, "place_id": "ChIJc-0WAy_uwIcR6LQu_cladDY", "latitude": 39.0559488, "longitude": -94.61062319999999, "care_type": "OB-GYN"}, {"name": "Tara N Chettiar, MD", "address": "2000 Olathe Blvd, Kansas City, KS 66160", "city": "Kansas City", "phone": "+1 913-588-1227", "website": "https://findadoctor.kansashealthsystem.com/provider/Tara%2BN%2BChettiar/1999345%3Futm_source%3Dgmb%26utm_medium%3Dweb%26utm_term%3D%26utm_content%3D%26utm_campaign%3Dkyruus_brandify", "rating": null, "reviews": 0, "place_id": "ChIJGUNtbFvvwIcRCsZhz82mTLU", "latitude": 39.0546157, "longitude": -94.608755, "care_type": "OB-GYN"}, {"name": "Lee Gene MD", "address": "3901 Rainbow Blvd, Kansas City, KS 66103", "city": "Kansas City", "phone": "+1 913-588-6200", "website": "", "rating": null, "reviews": 0, "place_id": "ChIJc-0WAy_uwIcRGACHCJMd8UE", "latitude": 39.0561921, "longitude": -94.6114044, "care_type": "OB-GYN"}, {"name": "Saint Luke's Women's Health South", "address": "4061 Indian Creek Pkwy Suite 300, Overland Park, KS 66207", "city": "Overland Park", "phone": "+1 913-323-9000", "website": "http://www.saintlukeskc.org/locations/saint-lukes-womens-health-south%3Futm_source%3Dyext%26utm_medium%3Dlocal_listing%26utm_campaign%3Dyext_listing", "rating": 4.5, "reviews": 27, "place_id": "ChIJcXTLe23qwIcRoeqEPhPV-Gk", "latitude": 38.9340833, "longitude": -94.6315568, "care_type": "OB-GYN"}, {"name": "Lindsay R Nordwald, MD", "address": "2000 Olathe Blvd, Kansas City, KS 66160", "city": "Kansas City", "phone": "+1 913-588-1227", "website": "https://findadoctor.kansashealthsystem.com/provider/Lindsay%2BR%2BNordwald/1220941%3Futm_source%3Dgmb%26utm_medium%3Dweb%26utm_term%3D%26utm_content%3D%26utm_campaign%3Dkyruus_brandify", "rating": null, "reviews": 0, "place_id": "ChIJeaheOwfrwIcR7x3oMYkbcqA", "latitude": 39.054626, "longitude": -94.60870849999999, "care_type": "OB-GYN"}, {"name": "John W Calkins, MD", "address": "2000 Olathe Blvd, Kansas City, KS 66160", "city": "Kansas City", "phone": "+1 913-588-6200", "website": "", "rating": null, "reviews": 0, "place_id": "ChIJgWpzZo_vwIcR3FqEXBywGS4", "latitude": 39.0546259, "longitude": -94.60870849999999, "care_type": "OB-GYN"}, {"name": "Parrott Jessica E MD", "address": "3901 Rainbow Blvd # 2028, Kansas City, KS 66160", "city": "Kansas City", "phone": "+1 913-588-5000", "website": "http://www.kumc.edu/", "rating": null, "reviews": 0, "place_id": "ChIJc-0WAy_uwIcRtXGoowq2rF4", "latitude": 39.0561921, "longitude": -94.6114044, "care_type": "OB-GYN"}, {"name": "Katherine T Brophy, MD", "address": "2000 Olathe Blvd, Kansas City, KS 66160", "city": "Kansas City", "phone": "+1 913-588-1227", "website": "https://findadoctor.kansashealthsystem.com/provider/Katherine%2BT%2BBrophy/2338428%3Futm_source%3Dgmb%26utm_medium%3Dweb%26utm_term%3D%26utm_content%3D%26utm_campaign%3Dkyruus_brandify", "rating": null, "reviews": 0, "place_id": "ChIJhTu9_G7vwIcRBQZSWqNNvhM", "latitude": 39.0546228, "longitude": -94.608718, "care_type": "OB-GYN"}, {"name": "Carl P. Weiner, MD, MBA, FACOG", "address": "3901 Rainbow Blvd, Kansas City, KS 66160", "city": "Kansas City", "phone": "+1 913-588-5000", "website": "http://kumc.edu/", "rating": null, "reviews": 0, "place_id": "ChIJc-0WAy_uwIcRFii0qqYXX3g", "latitude": 39.0560974, "longitude": -94.6101575, "care_type": "OB-GYN"}, {"name": "Megan E Madrigal, MD", "address": "2000 Olathe Blvd, Kansas City, KS 66160", "city": "Kansas City", "phone": "+1 913-588-1227", "website": "https://findadoctor.kansashealthsystem.com/provider/Megan%2BE%2BMadrigal/2593845%3Futm_source%3Dgmb%26utm_medium%3Dweb%26utm_term%3D%26utm_content%3D%26utm_campaign%3Dkyruus_brandify", "rating": null, "reviews": 0, "place_id": "ChIJVXwehg7vwIcRdYcFm4lP0dY", "latitude": 39.0546228, "longitude": -94.608718, "care_type": "OB-GYN"}, {"name": "Dr. Melanie A. Martin, MD", "address": "7440 W Frontage Rd, Shawnee, KS 66203", "city": "Shawnee", "phone": "+1 913-236-6455", "website": "http://www.joco-obgyn.com/", "rating": 3.4, "reviews": 10, "place_id": "ChIJx5IbftnswIcRwxaVFGBP0Rc", "latitude": 38.9956481, "longitude": -94.6968519, "care_type": "OB-GYN"}, {"name": "Crystal Newby, MD", "address": "12200 W 106th St, Overland Park, KS 66215", "city": "Overland Park", "phone": "+1 913-948-9636", "website": "https://mymidwestphysician.com/locations/kc-obgyn/%3Futm_campaign%3Dcorp_listings_mgmt%26utm_source%3Dgoogle%26utm_medium%3Dbusiness_listing", "rating": 4.4, "reviews": 75, "place_id": "ChIJ5T1J-CrrwIcRm_NwVBh0Jpc", "latitude": 38.9375987, "longitude": -94.7266781, "care_type": "OB-GYN"}, {"name": "Dr. Daryoush Jahanian, MD", "address": "5701 State Ave # 100, Kansas City, KS 66102", "city": "Kansas City", "phone": "+1 913-287-7800", "website": "http://www.umghealth.com/", "rating": null, "reviews": 0, "place_id": "ChIJb-FaIzzzwIcR2l6zw9zuX8M", "latitude": 39.116027, "longitude": -94.7106862, "care_type": "OB-GYN"}, {"name": "Obstetrics and Gynecology, Olathe Medical Pavilion C", "address": "21120 W 152nd St #201, Olathe, KS 66061", "city": "Olathe", "phone": "+1 913-445-8228", "website": "https://www.kansashealthsystem.com/locations/obstetrics-and-gynecology-olathe-ks%3Futm_source%3Dgmb%26utm_medium%3Dweb%26utm_term%3D%26utm_content%3D%26utm_campaign%3Dkyruus_brandify", "rating": 1.0, "reviews": 2, "place_id": "ChIJASecUzC9wIcRIubp0M-Pp6A", "latitude": 38.853749, "longitude": -94.8297868, "care_type": "OB-GYN"}, {"name": "Dr. Bruce B. Snider, MD", "address": "20375 W 151st St Suite 250, Olathe, KS 66061", "city": "Olathe", "phone": "+1 913-764-6262", "website": "http://olathewomenscenter.com/index.php%3Foption%3Dcom_content%26view%3Darticle%26id%3D57%26Itemid%3D53", "rating": 3.8, "reviews": 28, "place_id": "ChIJbarnjc69wIcREI0atWcqVAs", "latitude": 38.8528779, "longitude": -94.8240201, "care_type": "OB-GYN"}, {"name": "Sara Talken, MD", "address": "16180 W 135th St Suite 103, Olathe, KS 66062", "city": "Olathe", "phone": "+1 913-441-4544", "website": "https://mymidwestphysician.com/physicians/profile/Dr-Sara-Talken-MD%3Futm_campaign%3Dcorp_listings_mgmt%26utm_source%3Dgoogle%26utm_medium%3Dbusiness_listing", "rating": 4.6, "reviews": 34, "place_id": "ChIJZ-XxoFqRwIcRYX_9hwX6WL8", "latitude": 38.884481, "longitude": -94.7707361, "care_type": "OB-GYN"}, {"name": "Olathe Pregnancy Clinic", "address": "1313 E Santa Fe St, Olathe, KS 66061", "city": "Olathe", "phone": "+1 913-600-2837", "website": "https://wyandottepregnancyclinic.org/", "rating": 4.0, "reviews": 16, "place_id": "ChIJHYcerna_wIcR4e9XL_pyJLs", "latitude": 38.882596, "longitude": -94.7963869, "care_type": "OB-GYN"}, {"name": "Kristi Weaver Rowe", "address": "16180 W 135th St, Olathe, KS 660621517", "city": "Olathe", "phone": "+1 913-441-4544", "website": "", "rating": null, "reviews": 0, "place_id": "ChIJq6o6lyy-wIcRd5dns1M-42M", "latitude": 38.884481, "longitude": -94.7707361, "care_type": "OB-GYN"}, {"name": "The Birth Place", "address": "20333 W 151st St, Olathe, KS 66061", "city": "Olathe", "phone": "+1 913-445-4200", "website": "https://www.kansashealthsystem.com/locations/the-birth-place%3Futm_source%3Dgmb%26utm_medium%3Dweb%26utm_term%3D%26utm_content%3D%26utm_campaign%3Dkyruus_brandify", "rating": 4.2, "reviews": 98, "place_id": "ChIJQwa1PM69wIcReOAFiUejlNs", "latitude": 38.8532985, "longitude": -94.8217232, "care_type": "OB-GYN"}, {"name": "Evers, CNM, DNP", "address": "16180 W 135th St Suite 320, Olathe, KS 66062", "city": "Olathe", "phone": "+1 913-441-4544", "website": "https://mymidwestphysician.com/physicians/profile/Christy-Evers-CNM%3Futm_campaign%3Dcorp_listings_mgmt%26utm_source%3Dgoogle%26utm_medium%3Dbusiness_listing", "rating": 5.0, "reviews": 2, "place_id": "ChIJr2kUn2-NwIcRB5KIbWvzx28", "latitude": 38.884481, "longitude": -94.7707361, "care_type": "OB-GYN"}, {"name": "Kari Farris, DO", "address": "10600 Quivira Rd Suite 350A, Overland Park, KS 66215", "city": "Overland Park", "phone": "+1 913-735-4726", "website": "https://mymidwestphysician.com/physicians/profile/Dr-Kari-C-Farris-DO%3Futm_campaign%3Dcorp_listings_mgmt%26utm_source%3Dgoogle%26utm_medium%3Dbusiness_listing", "rating": 4.3, "reviews": 87, "place_id": "ChIJVVWVtvvqwIcRW_L6qLJMWBs", "latitude": 38.9361747, "longitude": -94.7254342, "care_type": "OB-GYN"}, {"name": "Tiffany Swanson, DO", "address": "407 S Clairborne Rd #104, Olathe, KS 66062", "city": "Olathe", "phone": "+1 913-648-2266", "website": "https://hpcks.org/our-providers/tiffany-swanson/", "rating": null, "reviews": 0, "place_id": "ChIJbRfwSRjF6ocRwlLp_3P7e3U", "latitude": 38.8770732, "longitude": -94.7898464, "care_type": "OB-GYN"}, {"name": "College Hill Ob/gyn", "address": "3233 E 2nd St N #3202, Wichita, KS 67208", "city": "Wichita", "phone": "+1 316-683-6766", "website": "http://collegehillobgyn.com/", "rating": 2.7, "reviews": 225, "place_id": "ChIJM7rKRA3juocRXrr5KOR2U1k", "latitude": 37.6898302, "longitude": -97.29820289999999, "care_type": "OB-GYN"}, {"name": "Laura M. Birkholtz, DO", "address": "1515 S Clifton Ave #400, Wichita, KS 67218", "city": "Wichita", "phone": "+1 316-274-1550", "website": "https://healthcare.ascension.org/find-care/provider/1992298343/laura-birkholtz%3Futm_campaign%3Dgmb-website%26utm_medium%3Dorganic%26utm_source%3Dgoogle", "rating": 4.6, "reviews": 40, "place_id": "ChIJuTYCeFzluocRCeqv78ihCWE", "latitude": 37.6656548, "longitude": -97.29464709999999, "care_type": "OB-GYN"}, {"name": "College Hill Ob/Gyn", "address": "834 N Socora St # Lvl, 834 N Socora St, Wichita, KS 67212", "city": "Wichita", "phone": "+1 316-683-6766", "website": "http://collegehillobgyn.com/", "rating": 2.7, "reviews": 19, "place_id": "ChIJre_k9oHguocRrPbcElydjNE", "latitude": 37.6965199, "longitude": -97.4374172, "care_type": "OB-GYN"}, {"name": "Melissa Hodge, MD", "address": "551 N Hillside St Suite 101, Wichita, KS 67214", "city": "Wichita", "phone": "+1 316-858-7100", "website": "https://www.wesleycarephysicians.com/locations/heartland-womens-group/physicians/profile/Dr-Melissa-A-Hodge-MD%3Futm_campaign%3Dcorp_listings_mgmt%26utm_source%3Dgoogle%26utm_medium%3Dbusiness_listing", "rating": 4.3, "reviews": 29, "place_id": "ChIJY3V2RA7juocR_Sj_OGm1F1I", "latitude": 37.6960741, "longitude": -97.2998764, "care_type": "OB-GYN"}, {"name": "Pearl OBGYN", "address": "3560 N Maize Rd, Wichita, KS 67205", "city": "Wichita", "phone": "+1 316-687-3275", "website": "http://pearlobgynwichita.com/", "rating": 5.0, "reviews": 7, "place_id": "ChIJk0HUWdofu4cRgPH4suNbdyU", "latitude": 37.7476141, "longitude": -97.4619821, "care_type": "OB-GYN"}, {"name": "Damen Hershberger", "address": "3252 E Douglas Ave Suite 101, Wichita, KS 67208", "city": "Wichita", "phone": "+1 316-253-2704", "website": "https://www.pearlobgynwichita.com/team-1", "rating": 5.0, "reviews": 3, "place_id": "ChIJAQCUnW3juocRCEOhzv3oOPk", "latitude": 37.6865363, "longitude": -97.2967551, "care_type": "OB-GYN"}, {"name": "Associates in Women's Health", "address": "8710 W 13th St N #100, Wichita, KS 67212", "city": "Wichita", "phone": "+1 316-722-5141", "website": "https://www.awhobgyn.com/", "rating": 4.2, "reviews": 40, "place_id": "ChIJu2w50dbfuocRG4zyODIQdbA", "latitude": 37.7100903, "longitude": -97.44279329999999, "care_type": "OB-GYN"}, {"name": "Dr. Carl M. Christman IX, MD", "address": "551 N Hillside St # 510, Wichita, KS 67214", "city": "Wichita", "phone": "+1 316-685-0559", "website": "https://www.wichitaobgyn.org/carl-m-christman-m-d", "rating": 4.5, "reviews": 16, "place_id": "ChIJL4Gmcg7juocRcDBaKGZIgSs", "latitude": 37.6959583, "longitude": -97.2996672, "care_type": "OB-GYN"}, {"name": "Dr. Maggie Woods", "address": "3233 E 2nd St N #3202, Wichita, KS 67208", "city": "Wichita", "phone": "+1 316-683-6766", "website": "http://www.collegehillobgyn.com/", "rating": 3.2, "reviews": 9, "place_id": "ChIJn6qXUA3juocRb7HJNYSx5Rg", "latitude": 37.6897807, "longitude": -97.29811649999999, "care_type": "OB-GYN"}, {"name": "Amanda Twist, PA", "address": "3252 E Douglas Ave Suite 101, Wichita, KS 67214", "city": "Wichita", "phone": "+1 316-687-3275", "website": "http://www.pearlobgynwichita.com/", "rating": 5.0, "reviews": 2, "place_id": "ChIJnQGHBHP9uocRd0daX_bi2AY", "latitude": 37.6865363, "longitude": -97.2967551, "care_type": "OB-GYN"}, {"name": "Wesley Women's Care", "address": "3243 E Murdock St G Level, Wichita, KS 67208", "city": "Wichita", "phone": "+1 316-962-3102", "website": "https://www.wesleycarephysicians.com/locations/wesley-womens-care%3Futm_campaign%3Dcorp_listings_mgmt%26utm_source%3Dgoogle%26utm_medium%3Dbusiness_listing", "rating": 4.3, "reviews": 107, "place_id": "ChIJqd9lRSnjuocRiJqKfK3WC7c", "latitude": 37.696333, "longitude": -97.2998863, "care_type": "OB-GYN"}, {"name": "Maternal Fetal Associates Of Kansas", "address": "551 N Hillside St # 330, Wichita, KS 67214", "city": "Wichita", "phone": "+1 316-962-7188", "website": "https://www.wesleycarephysicians.com/locations/maternal-fetal-associates-of-kansas%3Futm_campaign%3Dcorp_listings_mgmt%26utm_source%3Dgoogle%26utm_medium%3Dbusiness_listing", "rating": 3.9, "reviews": 46, "place_id": "ChIJL4Gmcg7juocRqH5R7tYQTMk", "latitude": 37.6960162, "longitude": -97.2997718, "care_type": "OB-GYN"}, {"name": "Michael D. Wolfe, MD", "address": "1515 S Clifton Ave #400, Wichita, KS 67218", "city": "Wichita", "phone": "+1 316-274-5990", "website": "https://healthcare.ascension.org/find-care/provider/1821008285/michael-wolfe%3Futm_campaign%3Dgmb-website%26utm_medium%3Dorganic%26utm_source%3Dgoogle", "rating": 4.5, "reviews": 22, "place_id": "ChIJlflZ053kuocRraiyUevelmw", "latitude": 37.6656548, "longitude": -97.29464709999999, "care_type": "OB-GYN"}, {"name": "Wesley Medical Center Labor and Delivery", "address": "550 N Hillside St, Wichita, KS 67214", "city": "Wichita", "phone": "+1 316-962-2000", "website": "https://www.wesleymc.com/specialties/womens-care/labor-and-delivery%3Futm_campaign%3Dcorp_listings_mgmt%26utm_source%3Dgoogle%26utm_medium%3Dbusiness_listing", "rating": 4.1, "reviews": 64, "place_id": "ChIJzbBsLxDjuocRKVG-vVwvF1c", "latitude": 37.6964223, "longitude": -97.29863619999999, "care_type": "OB-GYN"}, {"name": "Teresa M. Craddock, MD", "address": "1515 S Clifton Ave #400, Wichita, KS 67218", "city": "Wichita", "phone": "", "website": "", "rating": 5.0, "reviews": 1, "place_id": "ChIJVcSCq53kuocRuc0AaMUeCYU", "latitude": 37.6656548, "longitude": -97.29464709999999, "care_type": "OB-GYN"}, {"name": "Taryn Schuknecht", "address": "1010 N Kansas St, Wichita, KS 67214", "city": "Wichita", "phone": "+1 316-962-3100", "website": "", "rating": 5.0, "reviews": 1, "place_id": "ChIJ____867juocRgcrB6uMJpv8", "latitude": 37.7022526, "longitude": -97.3162704, "care_type": "OB-GYN"}, {"name": "Jordan Meyer", "address": "551 N Hillside St # 510, Wichita, KS 672144928", "city": "Wichita", "phone": "+1 316-685-0559", "website": "", "rating": 5.0, "reviews": 2, "place_id": "ChIJL-JVQw7juocR48sSv8yMuP0", "latitude": 37.6960029, "longitude": -97.2996651, "care_type": "OB-GYN"}, {"name": "Stephanie Murray, MD", "address": "850 N Hillside St, Wichita, KS 67214", "city": "Wichita", "phone": "+1 316-962-3070", "website": "https://www.wesleycarephysicians.com/physicians/profile/Dr-Stephanie-Murray-MD%3Futm_campaign%3Dcorp_listings_mgmt%26utm_source%3Dgoogle%26utm_medium%3Dbusiness_listing", "rating": 5.0, "reviews": 4, "place_id": "ChIJ27bS6A_juocRmOVLMyny5no", "latitude": 37.6988998, "longitude": -97.2980309, "care_type": "OB-GYN"}, {"name": "Melissa A. Whiteside, APRN", "address": "817 N Emporia Ave #126, Wichita, KS 67214", "city": "Wichita", "phone": "+1 316-268-5791", "website": "https://healthcare.ascension.org/find-care/provider/1225760341/melissa-whiteside%3Futm_campaign%3Dgmb-website%26utm_medium%3Dorganic%26utm_source%3Dgoogle", "rating": 5.0, "reviews": 6, "place_id": "ChIJR1jSVdnjuocRj55ZWpjsahs", "latitude": 37.6980584, "longitude": -97.33388819999999, "care_type": "OB-GYN"}, {"name": "Dr. Kristin L. Harkins, MD", "address": "8710 W 13th St N, Wichita, KS 67212", "city": "Wichita", "phone": "+1 316-722-5141", "website": "http://www.awhobgyn.com/", "rating": 4.0, "reviews": 6, "place_id": "ChIJ1U12LNHfuocRv1EzAQCy5B0", "latitude": 37.7100903, "longitude": -97.44279329999999, "care_type": "OB-GYN"}, {"name": "Peyton Harjo, MD", "address": "551 N Hillside St Suite 101, Wichita, KS 67214", "city": "Wichita", "phone": "+1 316-858-7100", "website": "https://www.wesleycarephysicians.com/locations/heartland-womens-group/physicians/profile/Dr-Peyton-Harjo-MD%3Futm_campaign%3Dcorp_listings_mgmt%26utm_source%3Dgoogle%26utm_medium%3Dbusiness_listing", "rating": null, "reviews": 0, "place_id": "ChIJdxLj2U_juocRJAfcMSi_ceQ", "latitude": 37.6960741, "longitude": -97.2998764, "care_type": "OB-GYN"}, {"name": "Taylor L. Bertschy, DO", "address": "3460 N Ridge Rd #130, Wichita, KS 67205", "city": "Wichita", "phone": "+1 316-685-1277", "website": "", "rating": 5.0, "reviews": 1, "place_id": "ChIJvRl4kuIfu4cRp7coNnO9TR0", "latitude": 37.7457787, "longitude": -97.4252961, "care_type": "OB-GYN"}, {"name": "Brooke B. Grizzell, MD", "address": "1515 S Clifton Ave #400, Wichita, KS 67218", "city": "Wichita", "phone": "+1 316-636-1550", "website": "https://healthcare.ascension.org/find-care/provider/1720099781/brooke-grizzell%3Futm_campaign%3Dgmb-website%26utm_medium%3Dorganic%26utm_source%3Dgoogle", "rating": 5.0, "reviews": 1, "place_id": "ChIJVcSCq53kuocRuDD2_u6DI7w", "latitude": 37.6656548, "longitude": -97.29464709999999, "care_type": "OB-GYN"}, {"name": "Dr. Laura L. Tatpati, MD", "address": "9300 East 29th St N #102, Wichita, KS 67226", "city": "Wichita", "phone": "+1 316-687-2112", "website": "http://www.cfrm.net/", "rating": 4.5, "reviews": 4, "place_id": "ChIJnQGHBHP9uocRfbRg2dmjWu8", "latitude": 37.7384229, "longitude": -97.22998469999999, "care_type": "OB-GYN"}, {"name": "Leah A. Brantley, MD", "address": "1515 S Clifton Ave #400, Wichita, KS 67218", "city": "Wichita", "phone": "+1 316-274-1550", "website": "https://healthcare.ascension.org/find-care/provider/1275696130/leah-brantley%3Futm_campaign%3Dgmb-website%26utm_medium%3Dorganic%26utm_source%3Dgoogle", "rating": 5.0, "reviews": 1, "place_id": "ChIJIasjjInluocRDHUPusy6evk", "latitude": 37.6656548, "longitude": -97.29464709999999, "care_type": "OB-GYN"}, {"name": "Dr. Anna F. Stork Fury, DO", "address": "834 N Socora St, Wichita, KS 67212", "city": "Wichita", "phone": "+1 316-773-3979", "website": "http://collegehillobgyn.com/", "rating": 1.0, "reviews": 2, "place_id": "ChIJQZXi9oHguocRasEnEDGyt9w", "latitude": 37.6965199, "longitude": -97.4374172, "care_type": "OB-GYN"}, {"name": "Clifford S. Depew, MD, FACOG", "address": "3232 E Murdock St, Wichita, KS 67208", "city": "Wichita", "phone": "+1 316-219-6777", "website": "", "rating": 5.0, "reviews": 3, "place_id": "ChIJHQUwLBDjuocRRp4acotx5WA", "latitude": 37.6977342, "longitude": -97.2970436, "care_type": "OB-GYN"}, {"name": "Clifford S. Depew, MD, FACOG", "address": "8710 W 13th St N #100, Wichita, KS 67212", "city": "Wichita", "phone": "+1 316-722-5141", "website": "", "rating": 5.0, "reviews": 4, "place_id": "ChIJu2w50dbfuocRhDdTOfuQ3fg", "latitude": 37.7101413, "longitude": -97.442922, "care_type": "OB-GYN"}, {"name": "Kuhlmann Zachary C DO", "address": "8710 W 13th St N #100, Wichita, KS 67212", "city": "Wichita", "phone": "+1 316-722-5141", "website": "http://www.awhobgyn.com/", "rating": 5.0, "reviews": 2, "place_id": "ChIJu2w50dbfuocRRqQGMo74UQk", "latitude": 37.7100903, "longitude": -97.44279329999999, "care_type": "OB-GYN"}, {"name": "Kurt Kauffman, MD, FACOG", "address": "3232 E Murdock St, Wichita, KS 67208", "city": "Wichita", "phone": "+1 316-685-7234", "website": "http://www.awhobgyn.com/kurt-kauffman.html", "rating": 3.8, "reviews": 10, "place_id": "ChIJA0LCLxDjuocRVo-ldMtlDbo", "latitude": 37.6977342, "longitude": -97.2970436, "care_type": "OB-GYN"}, {"name": "Brown Michael P MD", "address": "3233 E 2nd St N #3202, Wichita, KS 67208", "city": "Wichita", "phone": "+1 316-683-6766", "website": "http://collegehillobgyn.com/", "rating": 3.3, "reviews": 7, "place_id": "ChIJM7rKRA3juocRk9s4ZblWlYY", "latitude": 37.6898277, "longitude": -97.2981137, "care_type": "OB-GYN"}, {"name": "Thalia J. Lopez, MD", "address": "3460 N Ridge Rd #130, Wichita, KS 67205", "city": "Wichita", "phone": "+1 316-685-1277", "website": "", "rating": 2.3, "reviews": 3, "place_id": "ChIJh0_Rk-Ifu4cR1L6zHlxdpoA", "latitude": 37.7458942, "longitude": -97.4254655, "care_type": "OB-GYN"}, {"name": "Patricia Wyatt-Harris, MD", "address": "834 N Socora St, Wichita, KS 67212", "city": "Wichita", "phone": "+1 316-773-3979", "website": "http://www.collegehillobgyn.com/", "rating": 1.0, "reviews": 1, "place_id": "ChIJre_k9oHguocRksRSdGlJ1jo", "latitude": 37.6965337, "longitude": -97.4372854, "care_type": "OB-GYN"}, {"name": "David Grainger, MD, MPH", "address": "9300 East 29th St N Reception, Wichita, KS 67226", "city": "Wichita", "phone": "+1 316-687-2112", "website": "http://www.cfrm.net/", "rating": 4.3, "reviews": 11, "place_id": "ChIJnQGHBHP9uocRXruvHBZTTA8", "latitude": 37.7388477, "longitude": -97.22974359999999, "care_type": "OB-GYN"}, {"name": "Sina Haeri, MD", "address": "551 N Hillside St, Wichita, KS 67214", "city": "Wichita", "phone": "+1 316-962-7188", "website": "https://www.wesleycarephysicians.com/locations/maternal-fetal-associates-of-kansas%3Futm_campaign%3Dcorp_listings_mgmt%26utm_source%3Dgoogle%26utm_medium%3Dbusiness_listing", "rating": 5.0, "reviews": 3, "place_id": "ChIJOy5mgkfjuocRZ9CElbQfTNI", "latitude": 37.6960741, "longitude": -97.2998764, "care_type": "OB-GYN"}, {"name": "Johanna H. Agustin, MD", "address": "3460 N Ridge Rd #130, Wichita, KS 67205", "city": "Wichita", "phone": "+1 316-540-2086", "website": "", "rating": null, "reviews": 0, "place_id": "ChIJpcnHnnLguocREhAAvKIowL4", "latitude": 37.7457787, "longitude": -97.4252961, "care_type": "OB-GYN"}, {"name": "Jennifer Thuener, MD", "address": "850 N Hillside St, Wichita, KS 67214", "city": "Wichita", "phone": "+1 316-962-3070", "website": "https://www.wesleycarephysicians.com/physicians/profile/Dr-Jennifer-E-Thuener-MD%3Futm_campaign%3Dcorp_listings_mgmt%26utm_source%3Dgoogle%26utm_medium%3Dbusiness_listing", "rating": 4.2, "reviews": 5, "place_id": "ChIJgfitqWHjuocRiO8lz36ero8", "latitude": 37.6988998, "longitude": -97.2980309, "care_type": "OB-GYN"}, {"name": "Choices Medical Clinic", "address": "538 S Bleckley Dr, Wichita, KS 67218", "city": "Wichita", "phone": "+1 316-687-2792", "website": "http://www.choicesmedicalclinic.org/", "rating": 4.1, "reviews": 36, "place_id": "ChIJq7GGkFrjuocRxJqp8TiWFes", "latitude": 37.6780959, "longitude": -97.2766762, "care_type": "OB-GYN"}, {"name": "Wichita Women's Pelvic Surgery Center", "address": "3232 E Murdock St, Wichita, KS 67208", "city": "Wichita", "phone": "+1 316-685-7234", "website": "http://www.awhobgyn.com/", "rating": null, "reviews": 0, "place_id": "ChIJRVMfMBDjuocRtetrvL67W_s", "latitude": 37.6977458, "longitude": -97.29696609999999, "care_type": "OB-GYN"}, {"name": "Trust Women Wichita", "address": "5107 E Kellogg Dr, Wichita, KS 67218", "city": "Wichita", "phone": "+1 316-260-6934", "website": "https://trustwomen.org/wichita/", "rating": 4.5, "reviews": 238, "place_id": "ChIJYRSyolrjuocR-o5yd9XNGvg", "latitude": 37.6790396, "longitude": -97.2769338, "care_type": "OB-GYN"}, {"name": "Ascension Medical Group Via Christi Urogynecology", "address": "1515 S Clifton Ave #400, Wichita, KS 67218", "city": "Wichita", "phone": "+1 316-274-1550", "website": "https://healthcare.ascension.org/locations/kansas/kswic/wichita-ascension-via-christi-st-joseph/departments/medical-office-building/urogynecology%3Futm_campaign%3Dgmb%26utm_medium%3Dorganic-search%26utm_content%3Dlocation-listing%26utm_source%3Dlocal", "rating": null, "reviews": 0, "place_id": "ChIJRzSVhzHluocR3aO5isDvvpk", "latitude": 37.6656548, "longitude": -97.29464709999999, "care_type": "OB-GYN"}, {"name": "Dr. Douthit", "address": "551 N Hillside St # 510, Wichita, KS 67214", "city": "Wichita", "phone": "+1 316-685-0559", "website": "http://www.wichitaobgyn.org/", "rating": null, "reviews": 0, "place_id": "ChIJL4Gmcg7juocRMTJgOdXq15g", "latitude": 37.6959583, "longitude": -97.2996671, "care_type": "OB-GYN"}, {"name": "Ashley M. Corkill, APRN", "address": "3311 E Murdock St fl 3, Wichita, KS 67208", "city": "Wichita", "phone": "+1 316-274-8325", "website": "https://healthcare.ascension.org/find-care/provider/1740683911/ashley-corkill%3Futm_campaign%3Dgmb-website%26utm_medium%3Dorganic%26utm_source%3Dgoogle", "rating": 4.8, "reviews": 52, "place_id": "ChIJn-DmtRHjuocRL16xqKFRTWc", "latitude": 37.6967821, "longitude": -97.2963328, "care_type": "OB-GYN"}, {"name": "Holly Montgomery, MD", "address": "8710 W 13th St N #100, Wichita, KS 67212", "city": "Wichita", "phone": "+1 316-219-6754", "website": "https://www.awhobgyn.com/provider/holly-montgomery-md-facog/", "rating": null, "reviews": 0, "place_id": "ChIJgU1qOtffuocRhkjKYuNHD0o", "latitude": 37.7100903, "longitude": -97.44279329999999, "care_type": "OB-GYN"}, {"name": "Dr. Michael S. Jackson, MD", "address": "3730 N Ridge Rd Suite 200, Wichita, KS 67205", "city": "Wichita", "phone": "+1 316-962-2229", "website": "http://heartlandwomensgroup.com/", "rating": null, "reviews": 0, "place_id": "ChIJ6UnSkeQfu4cRufJ88ZWVPkU", "latitude": 37.7508399, "longitude": -97.4251929, "care_type": "OB-GYN"}, {"name": "Kari Hamlin", "address": "550 N Hillside St, Wichita, KS 67214", "city": "Wichita", "phone": "", "website": "", "rating": null, "reviews": 0, "place_id": "ChIJsbZUAQ7juocR6QBXcTtZ2iw", "latitude": 37.6947708, "longitude": -97.2979975, "care_type": "OB-GYN"}, {"name": "Agustin Conrado M MD", "address": "2707 E 21st St N, Wichita, KS 67214", "city": "Wichita", "phone": "+1 316-691-0249", "website": "https://weence.com/medical/doctors/wichita/agustin-conrado-m-md/", "rating": null, "reviews": 0, "place_id": "ChIJv8x4EPfiuocRTxfkkZ-iGYA", "latitude": 37.7224717, "longitude": -97.3051244, "care_type": "OB-GYN"}, {"name": "Veerayyagari Annapurna", "address": "2131 N Ridge Rd, Wichita, KS 67212", "city": "Wichita", "phone": "+1 316-685-1277", "website": "", "rating": null, "reviews": 0, "place_id": "ChIJpS3SnnLguocRwvyAeFpv_Uo", "latitude": 37.72185109999999, "longitude": -97.4276386, "care_type": "OB-GYN"}, {"name": "Bruce Tjaden", "address": "9300 East 29th St N #102, Wichita, KS 67226", "city": "Wichita", "phone": "+1 316-687-2112", "website": "", "rating": null, "reviews": 0, "place_id": "ChIJp-RmqXP9uocR8u38EgUkM8M", "latitude": 37.7385605, "longitude": -97.2298637, "care_type": "OB-GYN"}, {"name": "Holdeman Angela S MD", "address": "1010 N Kansas St, Wichita, KS 67214", "city": "Wichita", "phone": "+1 316-293-2622", "website": "", "rating": null, "reviews": 0, "place_id": "ChIJ8RrxH6_juocR_bHCWfcNU2U", "latitude": 37.7015456, "longitude": -97.3157164, "care_type": "OB-GYN"}, {"name": "Dr. Michael N. Bates, MD", "address": "3460 N Ridge Rd, Wichita, KS 67205", "city": "Wichita", "phone": "+1 316-721-3122", "website": "", "rating": null, "reviews": 0, "place_id": "ChIJh0_Rk-Ifu4cRN_p22LM6f4c", "latitude": 37.7457221, "longitude": -97.42537399999999, "care_type": "OB-GYN"}, {"name": "Stalling Jullian MD", "address": "1010 N Kansas St, Wichita, KS 67214", "city": "Wichita", "phone": "+1 316-293-2622", "website": "", "rating": null, "reviews": 0, "place_id": "ChIJ8RrxH6_juocRH9jzQGt5hww", "latitude": 37.7015456, "longitude": -97.3157164, "care_type": "OB-GYN"}, {"name": "Veerayyagari Annapurna", "address": "550 N Hillside St, Wichita, KS 67214", "city": "Wichita", "phone": "+1 316-962-2080", "website": "", "rating": null, "reviews": 0, "place_id": "ChIJsbZUAQ7juocRIa6_lMD36B0", "latitude": 37.6947708, "longitude": -97.2979975, "care_type": "OB-GYN"}, {"name": "Taylor Lynn Bertschy", "address": "550 N Hillside St, Wichita, KS 67214", "city": "Wichita", "phone": "+1 316-686-1024", "website": "", "rating": null, "reviews": 0, "place_id": "ChIJsbZUAQ7juocRVRtGLT56UA8", "latitude": 37.6947708, "longitude": -97.2979975, "care_type": "OB-GYN"}, {"name": "Taylor Allison A MD", "address": "1855 N Webb Rd #1, Wichita, KS 67206", "city": "Wichita", "phone": "+1 316-634-0060", "website": "http://www.cwhwichita.com/", "rating": null, "reviews": 0, "place_id": "ChIJiVYV1AP9uocR6fQQKNU1kP4", "latitude": 37.717617, "longitude": -97.2279056, "care_type": "OB-GYN"}, {"name": "Ashley Robbins, M.D.", "address": "1010 N Kansas St, Wichita, KS 67214", "city": "Wichita", "phone": "+1 316-293-2622", "website": "", "rating": null, "reviews": 0, "place_id": "ChIJ8RrxH6_juocRxDaXAIuvluY", "latitude": 37.7015456, "longitude": -97.31571629999999, "care_type": "OB-GYN"}, {"name": "TARYN SCHUKNECHT", "address": "Wesley Medical Ctr, 550 N Hillside St, Wichita, KS 672144910", "city": "Wichita", "phone": "+1 316-962-2000", "website": "", "rating": 5.0, "reviews": 2, "place_id": "ChIJsbZUAQ7juocRqwLBPZDfmi8", "latitude": 37.6947708, "longitude": -97.2979975, "care_type": "OB-GYN"}, {"name": "Randall J. Morgan, MD, FACOG", "address": "8710 W 13th St N #100, Wichita, KS 67212", "city": "Wichita", "phone": "+1 316-722-5141", "website": "", "rating": null, "reviews": 0, "place_id": "ChIJu2w50dbfuocRZLDCcqfnb2A", "latitude": 37.7100133, "longitude": -97.44304869999999, "care_type": "OB-GYN"}, {"name": "Dr. Gretchen Irwin", "address": "1010 N Kansas St, Wichita, KS 67214", "city": "Wichita", "phone": "+1 316-293-2607", "website": "", "rating": 5.0, "reviews": 1, "place_id": "ChIJ____867juocRgZTCVwMoqDo", "latitude": 37.7022526, "longitude": -97.3162704, "care_type": "OB-GYN"}, {"name": "Angela Holdeman", "address": "550 N Hillside St, Wichita, KS 67214", "city": "Wichita", "phone": "+1 316-260-1690", "website": "https://www.kumc.edu/school-of-medicine/campuses/wichita/academics/obgyn-wichita/about/faculty.html", "rating": null, "reviews": 0, "place_id": "ChIJCUgPHQ7juocR6eCX1sfJNXE", "latitude": 37.6952735, "longitude": -97.29778309999999, "care_type": "OB-GYN"}, {"name": "Melinda R. Bron, MD", "address": "3460 N Ridge Rd #130, Wichita, KS 67205", "city": "Wichita", "phone": "+1 316-540-2086", "website": "", "rating": null, "reviews": 0, "place_id": "ChIJvRl4kuIfu4cR8qRvUFIkRZA", "latitude": 37.7457787, "longitude": -97.4252961, "care_type": "OB-GYN"}, {"name": "Cox Elizabeth D MD", "address": "3233 E 2nd St N #3202, Wichita, KS 67208", "city": "Wichita", "phone": "+1 316-683-6766", "website": "http://collegehillobgyn.com/", "rating": null, "reviews": 0, "place_id": "ChIJM7rKRA3juocRPqjHx7lj4ws", "latitude": 37.6898277, "longitude": -97.2981137, "care_type": "OB-GYN"}, {"name": "Women's Hospital At Wesley", "address": "The Womens Hospital At Wesle, Wichita, KS 67201", "city": "Wichita", "phone": "+1 316-962-2290", "website": "", "rating": null, "reviews": 0, "place_id": "ChIJ_____6vjuocRaVY1LL3m9Jw", "latitude": 37.6965356, "longitude": -97.3418145, "care_type": "OB-GYN"}, {"name": "Corle Jr Aldon E MD", "address": "3460 N Ridge Rd #130, Wichita, KS 67205", "city": "Wichita", "phone": "+1 316-721-3122", "website": "", "rating": null, "reviews": 0, "place_id": "ChIJh0_Rk-Ifu4cR9URRfuEzX0c", "latitude": 37.7457221, "longitude": -97.42537399999999, "care_type": "OB-GYN"}, {"name": "Taylor Bertschy", "address": "550 N Hillside St, Wichita, KS 67214", "city": "Wichita", "phone": "+1 316-857-7100", "website": "", "rating": null, "reviews": 0, "place_id": "ChIJCUgPHQ7juocRiIfbQdWvt9M", "latitude": 37.6952735, "longitude": -97.29778309999999, "care_type": "OB-GYN"}, {"name": "David Grainger", "address": "550 N Hillside St Bldg 1 Fl 4, Wichita, KS 67214", "city": "Wichita", "phone": "+1 316-857-7100", "website": "", "rating": null, "reviews": 0, "place_id": "ChIJsbZUAQ7juocRNJ1giAE3yKs", "latitude": 37.6947708, "longitude": -97.2979975, "care_type": "OB-GYN"}, {"name": "Sharon K Breit", "address": "550 N Hillside St, Wichita, KS 67214", "city": "Wichita", "phone": "+1 316-962-3102", "website": "", "rating": null, "reviews": 0, "place_id": "ChIJsbZUAQ7juocR640gKpMM9q4", "latitude": 37.6947708, "longitude": -97.2979975, "care_type": "OB-GYN"}, {"name": "Patricia Wyatt-Harris", "address": "3233 E 2nd St N #3202, Wichita, KS 67208", "city": "Wichita", "phone": "+1 316-683-6766", "website": "", "rating": null, "reviews": 0, "place_id": "ChIJn6qXUA3juocRojhXykLPjpM", "latitude": 37.6897807, "longitude": -97.29811649999999, "care_type": "OB-GYN"}, {"name": "Rockhill Women\u2019s Care", "address": "5701 W 119th St Suite 225, Overland Park, KS 66209", "city": "Overland Park", "phone": "+1 913-601-4020", "website": "http://www.rockhillwc.com/", "rating": 3.9, "reviews": 140, "place_id": "ChIJfVGp8FTowIcRoMOKu6tZHew", "latitude": 38.9111756, "longitude": -94.6523545, "care_type": "OB-GYN"}, {"name": "Center for Women's Health", "address": "4840 College Blvd, Overland Park, KS 66211", "city": "Overland Park", "phone": "+1 913-491-6878", "website": "http://www.hodesnauser.com/", "rating": 3.7, "reviews": 171, "place_id": "ChIJR4GCP4bpwIcRnjTl66RS3B4", "latitude": 38.9282536, "longitude": -94.6412189, "care_type": "OB-GYN"}, {"name": "Town Plaza Women's Health - Overland Park", "address": "5701 W 119th St # 345, Overland Park, KS 66209", "city": "Overland Park", "phone": "+1 913-340-7633", "website": "https://mymidwestphysician.com/locations/town-plaza-womens-health/%3Futm_campaign%3Dcorp_listings_mgmt%26utm_source%3Dgoogle%26utm_medium%3Dbusiness_listing", "rating": 3.8, "reviews": 12, "place_id": "ChIJEaC6HEzrwIcRpvQUdwljzFY", "latitude": 38.9114656, "longitude": -94.6522892, "care_type": "OB-GYN"}, {"name": "Johnson County OB/GYN", "address": "7440 W Frontage Rd, Merriam, KS 66203", "city": "Merriam", "phone": "+1 913-236-6455", "website": "http://www.joco-obgyn.com/", "rating": 4.2, "reviews": 134, "place_id": "ChIJx5IbftnswIcRyEPipNjEons", "latitude": 38.9956829, "longitude": -94.6970582, "care_type": "OB-GYN"}, {"name": "Carrie Grounds MD", "address": "5525 W 119th St #200, Overland Park, KS 66209", "city": "Overland Park", "phone": "+1 913-491-4020", "website": "http://www.wcjcobgyn.com/", "rating": 4.5, "reviews": 8, "place_id": "ChIJj_yIzx7qwIcRkIf5LjaspvM", "latitude": 38.9119521, "longitude": -94.64972379999999, "care_type": "OB-GYN"},