[{"name": "Methodist Women's Services - Henderson", "address": "1300 Merritt Dr, Henderson, KY 42420", "city": "Henderson", "phone": "+1 270-827-4000", "website": "https://www.deaconess.com/Deaconess-Clinic/Deaconess-Henderson-Women-s-Services", "rating": 4.3, "reviews": 7, "place_id": "ChIJ0_EfxAwpcIgRuqiV45Fnzk8", "latitude": 37.855023, "longitude": -87.58324379999999, "care_type": "OB-GYN"}, {"name": "Sarah O'Nan, DO", "address": "1300 Merritt Dr, Henderson, KY 42420", "city": "Henderson", "phone": "+1 270-827-4000", "website": "https://www.deaconess.com/DocBio/3239/Sarah_ONan_DO", "rating": 3.6, "reviews": 18, "place_id": "ChIJHwgmPDMpcIgRKxpsFwr6u24", "latitude": 37.8541085, "longitude": -87.58508379999999, "care_type": "OB-GYN"}, {"name": "Baptist Health Medical Group OB/GYN", "address": "1115 Woodland Dr, Elizabethtown, KY 42701", "city": "Elizabethtown", "phone": "+1 270-769-5963", "website": "https://www.baptisthealth.com/care-services/services/womens-services%3Futm_source%3Dgoogle%26utm_medium%3Dorganic%26utm_content%3Dgbp-website%26utm_campaign%3D046-loc-gbp-listing", "rating": 2.3, "reviews": 38, "place_id": "ChIJr-t-k4vpaIgRqY8kDnDJaKA", "latitude": 37.7141393, "longitude": -85.8801963, "care_type": "OB-GYN"}, {"name": "Elizabethtown Physicians for Women", "address": "1115 Woodland Dr, Elizabethtown, KY 42701", "city": "Elizabethtown", "phone": "+1 270-769-5963", "website": "https://www.baptisthealth.com/providers/shannon-holt-md-obstetrics-and-gynecology", "rating": 3.0, "reviews": 65, "place_id": "ChIJxyCplvLoaIgRAQrliTx_Azk", "latitude": 37.7141294, "longitude": -85.8802202, "care_type": "OB-GYN"}, {"name": "Baptist Health Medical Group OB/GYN", "address": "1324 Woodland Dr A, Elizabethtown, KY 42701", "city": "Elizabethtown", "phone": "+1 270-765-3301", "website": "https://www.baptisthealth.com/care-services/services/womens-services%3Futm_source%3Dgoogle%26utm_medium%3Dorganic%26utm_content%3Dgbp-website%26utm_campaign%3D046-loc-gbp-listing", "rating": 2.4, "reviews": 5, "place_id": "ChIJAbdKKa3paIgRL1g9RCuMEhI", "latitude": 37.7256133, "longitude": -85.88580499999999, "care_type": "OB-GYN"}, {"name": "Dr. Michael S. Nethers, MD", "address": "1201 Woodland Dr, Elizabethtown, KY 42701", "city": "Elizabethtown", "phone": "+1 270-737-2727", "website": "http://drnethers.com/contact-us/", "rating": 4.7, "reviews": 24, "place_id": "ChIJCxLJKo3oaIgRd--QWc4YlFc", "latitude": 37.71590339999999, "longitude": -85.881441, "care_type": "OB-GYN"}, {"name": "Heartland Woman's Healthcare", "address": "1201 Woodland Dr, Elizabethtown, KY 42701", "city": "Elizabethtown", "phone": "+1 270-737-2727", "website": "http://drnethers.com/", "rating": 3.0, "reviews": 14, "place_id": "ChIJCxLJKo3oaIgRAzNkushIR_w", "latitude": 37.715865, "longitude": -85.8814558, "care_type": "OB-GYN"}, {"name": "Myra Henderson MD", "address": "1115 Woodland Dr, Elizabethtown, KY 42701", "city": "Elizabethtown", "phone": "+1 270-769-5963", "website": "https://www.baptisthealth.com/providers/myra-a-henderson-do-obstetrics-and-gynecology%3Futm_source%3Dgoogle%26utm_medium%3Dorganic%26utm_content%3Dgbp-website%26utm_campaign%3D023-pro-gbp-listing", "rating": 4.0, "reviews": 17, "place_id": "ChIJI9SKjPLoaIgRvNrfZWqUS2Y", "latitude": 37.7141411, "longitude": -85.8802611, "care_type": "OB-GYN"}, {"name": "Amy Preen DO", "address": "1115 Woodland Dr, Elizabethtown, KY 42701", "city": "Elizabethtown", "phone": "+1 270-769-5963", "website": "https://www.baptisthealth.com/providers/amy-preen-do-obstetrics-and-gynecology%3Futm_source%3Dgoogle%26utm_medium%3Dorganic%26utm_content%3Dgbp-website%26utm_campaign%3D023-pro-gbp-listing", "rating": 4.4, "reviews": 7, "place_id": "ChIJI9SKjPLoaIgRhHthy_hlOxs", "latitude": 37.7141411, "longitude": -85.8802611, "care_type": "OB-GYN"}, {"name": "Norton Children's Gynecology - Elizabethtown", "address": "2412 Ring Rd Suite 100, Elizabethtown, KY 42701", "city": "Elizabethtown", "phone": "+1 502-559-1750", "website": "https://nortonchildrens.com/location/loc0000191809%3Futm_source%3Dthird-party%26utm_medium%3Dlistings%26utm_campaign%3Dncgyn-dtc%26utm_content%3Dlocation-page", "rating": 5.0, "reviews": 1, "place_id": "ChIJ1SlJEmXvaIgRsK68Kq-5Lck", "latitude": 37.7330615, "longitude": -85.8453552, "care_type": "OB-GYN"}, {"name": "Shannon Holt MD", "address": "1115 Woodland Dr, Elizabethtown, KY 42701", "city": "Elizabethtown", "phone": "+1 270-769-5963", "website": "https://www.baptisthealth.com/providers/shannon-holt-md-obstetrics-gynecology%3Futm_source%3Dgoogle%26utm_medium%3Dorganic%26utm_content%3Dgbp-website%26utm_campaign%3D023-pro-gbp-listing", "rating": 4.1, "reviews": 19, "place_id": "ChIJI9SKjPLoaIgR10lb2dXVZXA", "latitude": 37.7141416, "longitude": -85.8802683, "care_type": "OB-GYN"}, {"name": "Rachel Coomer MD", "address": "1115 Woodland Dr, Elizabethtown, KY 42701", "city": "Elizabethtown", "phone": "+1 270-769-5963", "website": "https://www.baptisthealth.com/providers/rachel-coomer-do-obstetrics-and-gynecology%3Futm_source%3Dgoogle%26utm_medium%3Dorganic%26utm_content%3Dgbp-website%26utm_campaign%3D023-pro-gbp-listing", "rating": 5.0, "reviews": 4, "place_id": "ChIJF_3m74fpaIgRTMjsRPXtyMI", "latitude": 37.7141393, "longitude": -85.8801963, "care_type": "OB-GYN"}, {"name": "Karlee Grace DO", "address": "1324 Woodland Dr A, Elizabethtown, KY 42701", "city": "Elizabethtown", "phone": "+1 270-765-3301", "website": "https://www.baptisthealth.com/providers/karlee-brooke-grace-do-obstetrics-and-gynecology%3Futm_source%3Dgoogle%26utm_medium%3Dorganic%26utm_content%3Dgbp-website%26utm_campaign%3D023-pro-gbp-listing", "rating": 1.0, "reviews": 1, "place_id": "ChIJazRhBA3paIgRRwNKT4jL4Hs", "latitude": 37.7256133, "longitude": -85.88580499999999, "care_type": "OB-GYN"}, {"name": "Dr. Elizabeth Sebree", "address": "1115 Woodland Dr, Elizabethtown, KY 42701", "city": "Elizabethtown", "phone": "+1 270-765-3301", "website": "", "rating": 2.6, "reviews": 5, "place_id": "ChIJOTOxlvLoaIgRwuQ8jO4lPMk", "latitude": 37.7141392, "longitude": -85.88019709999999, "care_type": "OB-GYN"}, {"name": "Jason Goodman MD", "address": "1115 Woodland Dr, Elizabethtown, KY 42701", "city": "Elizabethtown", "phone": "+1 270-769-5963", "website": "https://www.baptisthealth.com/providers/jason-goodman-md-obstetrics-and-gynecology%3Futm_source%3Dgoogle%26utm_medium%3Dorganic%26utm_content%3Dgbp-website%26utm_campaign%3D023-pro-gbp-listing", "rating": 5.0, "reviews": 2, "place_id": "ChIJ__-vlvLoaIgRssXW71KxDf0", "latitude": 37.7141393, "longitude": -85.8801963, "care_type": "OB-GYN"}, {"name": "Dr Canh Jeff V.Vo, D.O.,", "address": "551 Westport Rd STE D, Elizabethtown, KY 42701", "city": "Elizabethtown", "phone": "+1 270-765-3301", "website": "", "rating": 2.8, "reviews": 11, "place_id": "ChIJB9t_XPvoaIgRupCoR8uS8Go", "latitude": 37.6985348, "longitude": -85.87764419999999, "care_type": "OB-GYN"}, {"name": "LAUREN FORD", "address": "2409 Ring Rd Suite 114, Elizabethtown, KY 42701", "city": "Elizabethtown", "phone": "+1 270-982-3344", "website": "https://www.baptisthealth.com/providers/lauren-ford-aprn-obstetrics-and-gynecology", "rating": 2.3, "reviews": 6, "place_id": "ChIJq6pqhVTvaIgRbqSGTP-PSJU", "latitude": 37.731093, "longitude": -85.8466241, "care_type": "OB-GYN"}, {"name": "Ashley Ewert, DO", "address": "1115 Woodland Dr, Elizabethtown, KY 42701", "city": "Elizabethtown", "phone": "+1 270-769-5963", "website": "https://www.baptisthealth.com/providers/ashley-danielle-ewert-do-obstetrics-and-gynecology%3Futm_source%3Dgoogle%26utm_medium%3Dorganic%26utm_content%3Dgbp-website%26utm_campaign%3D023-pro-gbp-listing", "rating": null, "reviews": 0, "place_id": "ChIJlfpY953paIgRT2rHjrksnIY", "latitude": 37.7141252, "longitude": -85.880251, "care_type": "OB-GYN"}, {"name": "Victoria Shaw, DO", "address": "1115 Woodland Dr, Elizabethtown, KY 42701", "city": "Elizabethtown", "phone": "+1 270-769-5963", "website": "https://www.baptisthealth.com/providers/victoria-marie-shaw-do-obstetrics-and-gynecology%3Futm_source%3Dgoogle%26utm_medium%3Dorganic%26utm_content%3Dgbp-website%26utm_campaign%3D023-pro-gbp-listing", "rating": null, "reviews": 0, "place_id": "ChIJKa3matDpaIgRdjRd7-dygDU", "latitude": 37.7141252, "longitude": -85.880251, "care_type": "OB-GYN"}, {"name": "Basim Kahleifeh, MD", "address": "118 Patriot Dr #201, Bardstown, KY 40004", "city": "Bardstown", "phone": "+1 502-331-4710", "website": "https://www.baptisthealth.com/providers/basim-kahleifeh-md-obstetrics-and-gynecology%3Futm_source%3Dgoogle%26utm_medium%3Dorganic%26utm_content%3Dgbp-website%26utm_campaign%3D046-pro-gbp-listing", "rating": 4.2, "reviews": 25, "place_id": "ChIJE912I31TaIgRIeDjQ22cZtQ", "latitude": 37.8612144, "longitude": -85.5165761, "care_type": "OB-GYN"}, {"name": "Audra V Campbell, APRN", "address": "2412 Ring Rd Suite 100, Elizabethtown, KY 42701", "city": "Elizabethtown", "phone": "+1 502-559-1750", "website": "https://providers.nortonchildrens.com/provider/Audra%2BV%2BCampbell/479371%3Futm_source%3Dthird-party%26utm_medium%3Dlistings%26utm_campaign%3Dncgyn-dtc%26utm_content%3Dprovider-profile", "rating": null, "reviews": 0, "place_id": "ChIJPdyWo-XvaIgR4aFVKu5O6KM", "latitude": 37.7329997, "longitude": -85.8454096, "care_type": "OB-GYN"}, {"name": "Dr. George W. Bauer III, MD", "address": "1115 Woodland Dr, Elizabethtown, KY 42701", "city": "Elizabethtown", "phone": "+1 270-769-5963", "website": "", "rating": null, "reviews": 0, "place_id": "ChIJI9SKjPLoaIgRNj-HdKvcfH8", "latitude": 37.7141393, "longitude": -85.8801963, "care_type": "OB-GYN"}, {"name": "Kristine Y Lain, MD", "address": "2412 Ring Rd Suite 606, Elizabethtown, KY 42701", "city": "Elizabethtown", "phone": "+1 270-723-0458", "website": "https://providers.nortonhealthcare.com/provider/Kristine%2BY%2BLain/2613431/%3Futm_source%3DYext", "rating": null, "reviews": 0, "place_id": "ChIJZzG0r0rvaIgRELNIAiRPbJo", "latitude": 37.7330378, "longitude": -85.8453445, "care_type": "OB-GYN"}, {"name": "Rachel Coomer MD", "address": "1324 Woodland Dr A, Elizabethtown, KY 42701", "city": "Elizabethtown", "phone": "+1 270-765-3301", "website": "https://www.baptisthealth.com/providers/rachel-coomer-do-obstetrics-and-gynecology%3Futm_source%3Dgoogle%26utm_medium%3Dorganic%26utm_content%3Dgbp-website%26utm_campaign%3D023-pro-gbp-listing", "rating": null, "reviews": 0, "place_id": "ChIJIV4L-IPpaIgReYvJ9yh8X0Y", "latitude": 37.7256133, "longitude": -85.88580499999999, "care_type": "OB-GYN"}, {"name": "Susan P Hertweck, MD", "address": "2412 Ring Rd Suite 100, Elizabethtown, KY 42701", "city": "Elizabethtown", "phone": "+1 502-559-1750", "website": "https://providers.nortonchildrens.com/provider/Susan%2BP%2BHertweck/475243%3Futm_source%3DYext", "rating": null, "reviews": 0, "place_id": "ChIJIzTFsZXvaIgRIFHppgQfzDw", "latitude": 37.7329997, "longitude": -85.8454096, "care_type": "OB-GYN"}, {"name": "Lucy Koroma, APRN", "address": "2412 Ring Rd Suite 100, Elizabethtown, KY 42701", "city": "Elizabethtown", "phone": "+1 502-559-1750", "website": "https://providers.nortonchildrens.com/provider/Lucy%2B%2BKoroma/1139804%3Futm_source%3DYext", "rating": null, "reviews": 0, "place_id": "ChIJp_dpzcnvaIgRZQwCXmiLOuw", "latitude": 37.7329997, "longitude": -85.8454096, "care_type": "OB-GYN"}, {"name": "Rebecca P Walker, MD", "address": "2412 Ring Rd, Elizabethtown, KY 42701", "city": "Elizabethtown", "phone": "+1 502-449-6400", "website": "https://providers.nortonhealthcare.com/provider/Rebecca%2BP%2BWalker/477014%3Futm_source%3DYext", "rating": null, "reviews": 0, "place_id": "ChIJKfrLNpXvaIgRYyqj-l0jd8o", "latitude": 37.7330378, "longitude": -85.8453445, "care_type": "OB-GYN"}, {"name": "Kimberly S Huhmann, MD", "address": "2412 Ring Rd Suite 100, Elizabethtown, KY 42701", "city": "Elizabethtown", "phone": "+1 502-559-1750", "website": "https://providers.nortonchildrens.com/provider/Kimberly%2BS%2BHuhmann/1597952%3Futm_source%3Dthird-party%26utm_medium%3Dlistings%26utm_campaign%3Dncgyn-dtc%26utm_content%3Dprovider-profile", "rating": null, "reviews": 0, "place_id": "ChIJ4TwLTHvvaIgRVsE36npTzzE", "latitude": 37.7329997, "longitude": -85.8454096, "care_type": "OB-GYN"}, {"name": "Yuan Yuan Gong, MD", "address": "1301 Ring Rd, Elizabethtown, KY 42701", "city": "Elizabethtown", "phone": "+1 502-559-1750", "website": "https://providers.nortonchildrens.com/provider/Yuan%2BYuan%2B%25E2%2580%259CJackie%25E2%2580%259D%2BGong/1978389", "rating": null, "reviews": 0, "place_id": "ChIJ-yv-59TpaIgRPWAcEzUK9PA", "latitude": 37.7240958, "longitude": -85.8931511, "care_type": "OB-GYN"}, {"name": "Kristine Lain, MD", "address": "1301 Ring Rd, Elizabethtown, KY 42701", "city": "Elizabethtown", "phone": "+1 270-723-0458", "website": "https://providers.nortonhealthcare.com/provider/kristine-y-lain/2613431", "rating": null, "reviews": 0, "place_id": "ChIJ8WYQQ3zpaIgRP6vW54rqZiE", "latitude": 37.7240958, "longitude": -85.8931511, "care_type": "OB-GYN"}, {"name": "Shoff Dennis G MD", "address": "1310 Woodland Dr, Elizabethtown, KY 42701", "city": "Elizabethtown", "phone": "+1 270-765-6141", "website": "", "rating": null, "reviews": 0, "place_id": "ChIJMb7B04joaIgRNLuvXIxWMw4", "latitude": 37.7242941, "longitude": -85.8851078, "care_type": "OB-GYN"}, {"name": "Yuan Yuan \u201cJackie\u201d Gong, MD", "address": "2412 Ring Rd Suite 100, Elizabethtown, KY 42701", "city": "Elizabethtown", "phone": "+1 502-559-1750", "website": "https://providers.nortonchildrens.com/provider/Yuan-Yuan%2BGong/1978389%3Futm_source%3Dthird-party%26utm_medium%3Dlistings%26utm_campaign%3Dncgyn-dtc%26utm_content%3Dprovider-profile", "rating": null, "reviews": 0, "place_id": "ChIJqZz_9YnvaIgR8yFSnLFm_-I", "latitude": 37.7329997, "longitude": -85.8454096, "care_type": "OB-GYN"}, {"name": "Norton Children's Maternal - Fetal Medicine - Elizabethtown", "address": "2412 Ring Rd Suite 100, Elizabethtown, KY 42701", "city": "Elizabethtown", "phone": "+1 270-723-0458", "website": "https://nortonchildrens.com/location/LOC0000191844/%3Futm_source%3DYext", "rating": null, "reviews": 0, "place_id": "ChIJP2SGyGLvaIgRO_C7QePb2a0", "latitude": 37.7329997, "longitude": -85.8454096, "care_type": "OB-GYN"}, {"name": "Lexington Women's Health Brannon Crossing", "address": "615 E Brannon Rd, Nicholasville, KY 40356", "city": "Nicholasville", "phone": "+1 859-264-8811", "website": "https://axiawh.com/locations/lexington-womens-health-brannon-crossing/", "rating": 4.8, "reviews": 488, "place_id": "ChIJfaSWL-hdQogR7JBT1JfuAs0", "latitude": 37.9529988, "longitude": -84.522137, "care_type": "OB-GYN"}, {"name": "Lexington Women's Health - Baptist Campus", "address": "1720 Nicholasville Rd #702, Lexington, KY 40503", "city": "Lexington", "phone": "+1 859-264-8811", "website": "https://axiawh.com/locations/lexington-womens-health-baptist-campus/", "rating": 4.5, "reviews": 511, "place_id": "ChIJM_WT5lJbQogRpmq_cp9-JYI", "latitude": 38.0189043, "longitude": -84.5120518, "care_type": "OB-GYN"}, {"name": "Baptist Health Medical Group OB/GYN", "address": "1700 Nicholasville Rd Suite 701, 702, 704, Lexington, KY 40503", "city": "Lexington", "phone": "+1 859-278-0396", "website": "https://www.baptisthealth.com/care-services/services/womens-services%3Futm_source%3Dgoogle%26utm_medium%3Dorganic%26utm_content%3Dgbp-website%26utm_campaign%3D046-loc-gbp-listing", "rating": 3.2, "reviews": 74, "place_id": "ChIJX6m15lJbQogR0hRjteQEuXg", "latitude": 38.0196409, "longitude": -84.5111586, "care_type": "OB-GYN"}, {"name": "Marihelen Dooley", "address": "1401 Madison Ave, Covington, KY 41011", "city": "Covington", "phone": "+1 859-655-6100", "website": "", "rating": 5.0, "reviews": 1, "place_id": "ChIJDd3AVySxQYgRZQMgoGYMyOs", "latitude": 39.0746706, "longitude": -84.5085576, "care_type": "OB-GYN"}, {"name": "Seales Allan MD", "address": "806 Scott St, Covington, KY 41011", "city": "Covington", "phone": "+1 859-491-6411", "website": "", "rating": 5.0, "reviews": 1, "place_id": "ChIJSVYo3juxQYgRV-4LTn0QkP0", "latitude": 39.0822746, "longitude": -84.5079425, "care_type": "OB-GYN"}, {"name": "Dr. Edward C. Hall, MD", "address": "4307 Winston Ave, Covington, KY 41015", "city": "Covington", "phone": "+1 859-655-6100", "website": "http://www.healthpointfc.org/", "rating": 1.0, "reviews": 1, "place_id": "ChIJLUcDU7mwQYgR7n5LA1yOmy0", "latitude": 39.0385841, "longitude": -84.50874139999999, "care_type": "OB-GYN"}, {"name": "St. Elizabeth Physicians: Women's Health Cold Spring Northern Kentucky", "address": "2626 Alexandria Pike, Highland Heights, KY 41076", "city": "Highland Heights", "phone": "+1 859-912-6500", "website": "http://www.stelizabethphysicians.com/", "rating": 4.2, "reviews": 15, "place_id": "ChIJN1s9AEelQYgRwMY7Zh_ZKPU", "latitude": 39.0352745, "longitude": -84.4552459, "care_type": "OB-GYN"}, {"name": "Elizabeth A Ruchhoft, MD", "address": "1955 Dixie Hwy Suite H, Fort Wright, KY 41011", "city": "Fort Wright", "phone": "+1 513-936-5294", "website": "https://www.thechristhospital.com/physician-details%3FProvider%3DC21Q0VFDN3", "rating": 3.7, "reviews": 15, "place_id": "ChIJF6-3si64QYgRg3bJnUj-gqU", "latitude": 39.0554664, "longitude": -84.54617549999999, "care_type": "OB-GYN"}, {"name": "Anita L Weisberger, MD", "address": "1955 Dixie Hwy Suite C, Fort Wright, KY 41011", "city": "Fort Wright", "phone": "+1 859-292-9215", "website": "https://www.thechristhospital.com/physician-details%3FProvider%3DD2V40JSN09", "rating": 3.9, "reviews": 22, "place_id": "ChIJITAo0ha3QYgR-SoBClLyDU8", "latitude": 39.0555534, "longitude": -84.5460739, "care_type": "OB-GYN"}, {"name": "Lily Elsaidi Hahn,", "address": "1400 N Grand Ave, Newport, KY 41071", "city": "Newport", "phone": "+1 859-781-6222", "website": "https://www.stelizabethphysicians.com/care/providers/bio/lily-hahn-md", "rating": 4.5, "reviews": 8, "place_id": "ChIJAU9IiDuxQYgRn7s0hL8tuVs", "latitude": 39.0809957, "longitude": -84.4695022, "care_type": "OB-GYN"}, {"name": "Jacqueline Marie Carpenter,", "address": "1400 N Grand Ave, Newport, KY 41071", "city": "Newport", "phone": "+1 859-781-6222", "website": "https://www.stelizabethphysicians.com/care/providers/bio/jacqueline-carpenter-do", "rating": 5.0, "reviews": 2, "place_id": "ChIJ4fr73qmxQYgRxVBGq-3dGmE", "latitude": 39.0809286, "longitude": -84.4696467, "care_type": "OB-GYN"}, {"name": "Michael David Platt-Faulkner,", "address": "1400 N Grand Ave, Newport, KY 41071", "city": "Newport", "phone": "+1 859-781-6222", "website": "https://www.stelizabethphysicians.com/care/providers/bio/michael-platt-faulkner", "rating": 5.0, "reviews": 4, "place_id": "ChIJzbXXcm-xQYgRlocQdLE3H_g", "latitude": 39.0809286, "longitude": -84.4696467, "care_type": "OB-GYN"}, {"name": "Abby Loftus-Smith,", "address": "1400 N Grand Ave, Newport, KY 41071", "city": "Newport", "phone": "+1 859-781-6222", "website": "https://www.stelizabethphysicians.com/care/providers/bio/abby-loftus-smith-md", "rating": 4.1, "reviews": 18, "place_id": "ChIJBy70q7yxQYgRp28_d6ejuyU", "latitude": 39.0809957, "longitude": -84.4695022, "care_type": "OB-GYN"}, {"name": "Dr. John W. Sprague, MD", "address": "4307 Winston Ave, Covington, KY 41015", "city": "Covington", "phone": "+1 859-655-6100", "website": "http://www.healthpointfc.org/", "rating": null, "reviews": 0, "place_id": "ChIJLUcDU7mwQYgRLB8bw6reZvM", "latitude": 39.0385841, "longitude": -84.50874139999999, "care_type": "OB-GYN"}, {"name": "Kristin Marie Satterwhite,", "address": "1400 N Grand Ave, Newport, KY 41071", "city": "Newport", "phone": "+1 859-781-6222", "website": "https://www.stelizabethphysicians.com/care/providers/bio/kristin-satterwhite/", "rating": 5.0, "reviews": 4, "place_id": "ChIJbZZxGy-xQYgRC1hC3AIC5ZA", "latitude": 39.0809286, "longitude": -84.4696467, "care_type": "OB-GYN"}, {"name": "Christina Kathleen Green,", "address": "85 N Grand Ave, Fort Thomas, KY 41075", "city": "Fort Thomas", "phone": "+1 859-572-3830", "website": "https://www.stelizabethphysicians.com/care/providers/bio/christina-Green-md", "rating": 4.8, "reviews": 4, "place_id": "ChIJu-q_4MPHQYgRFtyTlnLALfg", "latitude": 39.0786773, "longitude": -84.46684789999999, "care_type": "OB-GYN"}, {"name": "Sarah Amarylis Roadhouse,", "address": "1400 N Grand Ave, Newport, KY 41071", "city": "Newport", "phone": "+1 859-781-6222", "website": "https://www.stelizabethphysicians.com/care/providers/bio/sarah-roadhouse", "rating": 5.0, "reviews": 1, "place_id": "ChIJzc3K75uxQYgRE-gmsphqfL8", "latitude": 39.0809286, "longitude": -84.4696467, "care_type": "OB-GYN"}, {"name": "The Christ Hospital Physicians - Obstetrics & Gynecology", "address": "1955 Dixie Hwy Suite C, Fort Wright, KY 41011", "city": "Fort Wright", "phone": "+1 859-292-9215", "website": "https://www.thechristhospital.com/services/womens-health/the-christ-hospital-physician-offices/obstetrics-and-gynecology", "rating": 3.6, "reviews": 8, "place_id": "ChIJXfpdozi3QYgRCyOqv2Z9L80", "latitude": 39.0555099, "longitude": -84.5461247, "care_type": "OB-GYN"}, {"name": "Samantha Sinclair", "address": "1955 Dixie Hwy Suite C, Fort Wright, KY 41011", "city": "Fort Wright", "phone": "+1 513-564-6624", "website": "https://www.thechristhospital.com/physician-details%3FProvider%3D%25230012V6SBE", "rating": 5.0, "reviews": 1, "place_id": "ChIJlwKd_ha3QYgR56uyGvE83ug", "latitude": 39.0555099, "longitude": -84.5461247, "care_type": "OB-GYN"}, {"name": "Dr. Tarek Toubia, MD, MSCR", "address": "1717 High St # 4B, Hopkinsville, KY 42240", "city": "Hopkinsville", "phone": "+1 270-887-9058", "website": "https://www.jenniestuarthealth.org/Jennie-Stuart-Health/physician%3FphysicianID%3D644", "rating": 5.0, "reviews": 10, "place_id": "ChIJSWSrrzY1ZYgREsFzjEgOtPU", "latitude": 36.8610828, "longitude": -87.49559839999999, "care_type": "OB-GYN"}, {"name": "Dr. Ian Sink", "address": "1717 High St # 4B, Hopkinsville, KY 42240", "city": "Hopkinsville", "phone": "+1 270-887-9058", "website": "https://www.jenniestuarthealth.org/providers/ian-s-sink-do/", "rating": 5.0, "reviews": 1, "place_id": "ChIJMUnt0GA0ZYgRvltYesQBCtU", "latitude": 36.8610828, "longitude": -87.49559839999999, "care_type": "OB-GYN"}, {"name": "Jennie Stuart Obstetrics and Gynecology", "address": "251 Hopkinsville Rd, Russellville, KY 42276", "city": "Russellville", "phone": "+1 270-887-9058", "website": "https://www.jenniestuarthealth.org/Jennie-Stuart-Medical-Group/Womens-Health", "rating": 4.5, "reviews": 8, "place_id": "ChIJ3yji3wCnZYgRuzXUq6U2Pa4", "latitude": 36.8443029, "longitude": -86.8992044, "care_type": "OB-GYN"}, {"name": "Dr. Sandra J. Murphy, MD", "address": "1717 High St, Hopkinsville, KY 42240", "city": "Hopkinsville", "phone": "+1 270-985-1376", "website": "", "rating": 2.6, "reviews": 13, "place_id": "ChIJR3UHO2c0ZYgRHLZPcPJOceM", "latitude": 36.8610828, "longitude": -87.49559839999999, "care_type": "OB-GYN"}, {"name": "Dr. Gregory A. Gapp, MD", "address": "1717 High St # 4A, Hopkinsville, KY 42240", "city": "Hopkinsville", "phone": "+1 270-887-9058", "website": "", "rating": 5.0, "reviews": 6, "place_id": "ChIJEwCRO2c0ZYgR_FCs7bVBDBU", "latitude": 36.8611266, "longitude": -87.4955001, "care_type": "OB-GYN"}, {"name": "Dr. Jonathan Abbott", "address": "1717 High St # 4B, Hopkinsville, KY 42240", "city": "Hopkinsville", "phone": "+1 270-887-9058", "website": "https://www.jenniestuarthealth.org/providers/jonathan-abbott-md/", "rating": 5.0, "reviews": 3, "place_id": "ChIJMUnt0GA0ZYgR9ayMwrGhPXQ", "latitude": 36.8610828, "longitude": -87.49559839999999, "care_type": "OB-GYN"}, {"name": "Hart Jerry T MD", "address": "1717 High St, Hopkinsville, KY 42240", "city": "Hopkinsville", "phone": "+1 270-887-9058", "website": "", "rating": 2.6, "reviews": 5, "place_id": "ChIJEwCRO2c0ZYgR45XiKGnOyOA", "latitude": 36.8611311, "longitude": -87.4953548, "care_type": "OB-GYN"}, {"name": "Sterling Women's Care - Mt. Sterling", "address": "635 Maysville Rd Suite A, Mt Sterling, KY 40353", "city": "Mt Sterling", "phone": "+1 859-498-2323", "website": "https://www.sterlinghealthky.org/", "rating": 2.9, "reviews": 37, "place_id": "ChIJf8iRfeG9Q4gRwA-mfnJPayA", "latitude": 38.0733126, "longitude": -83.9474115, "care_type": "OB-GYN"}, {"name": "Dr. Mary L. Eastham, MD", "address": "250 Foxglove Dr STE 6, Mt Sterling, KY 40353", "city": "Mt Sterling", "phone": "+1 859-498-6485", "website": "", "rating": 4.0, "reviews": 2, "place_id": "ChIJuYbT2MK9Q4gRqO5JEe9dLo0", "latitude": 38.0657469, "longitude": -83.9567871, "care_type": "OB-GYN"}, {"name": "Shane Hirst", "address": "635 Maysville Rd, Mt Sterling, KY 40353", "city": "Mt Sterling", "phone": "+1 859-498-2323", "website": "https://sterlinghealthky.org/providers/shane-hirst.html", "rating": 3.7, "reviews": 3, "place_id": "ChIJVVVp2uO9Q4gRN_Ew-6chRb0", "latitude": 38.0732608, "longitude": -83.9475294, "care_type": "OB-GYN"}, {"name": "Elizabeth Case", "address": "635 Maysville Rd Suite A, Mt Sterling, KY 40353", "city": "Mt Sterling", "phone": "+1 859-498-2323", "website": "", "rating": null, "reviews": 0, "place_id": "ChIJVVVp2uO9Q4gRO2y6zv6GNAk", "latitude": 38.0732608, "longitude": -83.9475294, "care_type": "OB-GYN"}, {"name": "Byram Ratliff", "address": "635 Maysville Rd Suite A, Mt Sterling, KY 403539767", "city": "Mt Sterling", "phone": "+1 859-498-2323", "website": "https://sterlinghealthky.org/providers/byram-ratliff.html", "rating": 5.0, "reviews": 1, "place_id": "ChIJVVVp2uO9Q4gR5SgZxBVyULM", "latitude": 38.0732608, "longitude": -83.9475294, "care_type": "OB-GYN"}, {"name": "Women's Care of the Commonwealth Danville", "address": "333 S 3rd St, Danville, KY 40422", "city": "Danville", "phone": "+1 859-236-7712", "website": "https://womenshealthdanville.com/", "rating": 2.8, "reviews": 59, "place_id": "ChIJlycvmoKQQogRaLQ8W46m2UY", "latitude": 37.6424946, "longitude": -84.7731263, "care_type": "OB-GYN"}, {"name": "Dr. Anne E. Turcea, MD", "address": "333 S 3rd St STE A, Danville, KY 40422", "city": "Danville", "phone": "+1 859-236-7712", "website": "https://emhealth.org/provider/anne-e-turcea/", "rating": 3.9, "reviews": 10, "place_id": "ChIJlycvmoKQQogRHiuA5KJlcfc", "latitude": 37.6424659, "longitude": -84.7729626, "care_type": "OB-GYN"}, {"name": "Stivers Jennifer E MD", "address": "333 S 3rd St, Danville, KY 40422", "city": "Danville", "phone": "+1 859-236-7712", "website": "", "rating": 1.0, "reviews": 4, "place_id": "ChIJlycvmoKQQogRD220zqrqDvA", "latitude": 37.6424532, "longitude": -84.77305369999999, "care_type": "OB-GYN"}, {"name": "Frazier Kim MD", "address": "333 S 3rd St STE A, Danville, KY 40422", "city": "Danville", "phone": "+1 859-236-7712", "website": "", "rating": 5.0, "reviews": 1, "place_id": "ChIJlycvmoKQQogRMQBRTbgfleg", "latitude": 37.6424171, "longitude": -84.77304699999999, "care_type": "OB-GYN"}, {"name": "James D Hourigan, MD", "address": "333 S 3rd St, Danville, KY 40422", "city": "Danville", "phone": "+1 859-236-7712", "website": "https://www.emhealth.org/doctor/james-d-hourigan/%3Futm_source%3Dg-local%26utm_medium%3Dorganic%26utm_content%3Dorg-local-provider%26utm_campaign%3Drich-local-listing", "rating": 4.0, "reviews": 8, "place_id": "ChIJbXNXvVJbQogRd8138vcUsHg", "latitude": 37.6424171, "longitude": -84.77304699999999, "care_type": "OB-GYN"}, {"name": "Dr. Kristen Lady, M.D.", "address": "333 S 3rd St, Danville, KY 40422", "city": "Danville", "phone": "+1 859-236-7712", "website": "", "rating": 1.0, "reviews": 1, "place_id": "ChIJSSwamoKQQogRuG7GzbEoB2I", "latitude": 37.6424659, "longitude": -84.7729626, "care_type": "OB-GYN"}, {"name": "Dr. James G. Alexander, MD", "address": "333 S 3rd St STE A, Danville, KY 40422", "city": "Danville", "phone": "+1 859-236-7712", "website": "http://womenshealthdanville.com/", "rating": null, "reviews": 0, "place_id": "ChIJlycvmoKQQogRou2TrVH3cbI", "latitude": 37.6424659, "longitude": -84.7729626, "care_type": "OB-GYN"}, {"name": "Glover Michael W MD", "address": "478 Whirlaway Dr #200, Danville, KY 40422", "city": "Danville", "phone": "", "website": "", "rating": null, "reviews": 0, "place_id": "ChIJnZ8G9POaQogRKkxbED_y76U", "latitude": 37.6590116, "longitude": -84.7953534, "care_type": "OB-GYN"}, {"name": "Daniel Sanford", "address": "333 S 3rd St, Danville, KY 40422", "city": "Danville", "phone": "+1 859-236-7712", "website": "", "rating": null, "reviews": 0, "place_id": "ChIJVVXlg4KQQogRTZ8E4bqXWbk", "latitude": 37.6424171, "longitude": -84.77304699999999, "care_type": "OB-GYN"}, {"name": "Mark Wainwright", "address": "333 S 3rd St, Danville, KY 40422", "city": "Danville", "phone": "+1 859-236-7712", "website": "", "rating": null, "reviews": 0, "place_id": "ChIJVVXlg4KQQogRDqYUiR6qdrc", "latitude": 37.6424171, "longitude": -84.77304699999999, "care_type": "OB-GYN"}, {"name": "Thrive Midwifery & Family Care", "address": "Entrance off, 461 S 4th St, Dillehay St #2, Danville, KY 40422", "city": "Danville", "phone": "+1 859-209-5015", "website": "https://thrivemfc.health/", "rating": 5.0, "reviews": 5, "place_id": "ChIJSUhS1ribQogRdmoSXlCTioE", "latitude": 37.6400804, "longitude": -84.775168, "care_type": "OB-GYN"}, {"name": "Dr. Leigh A. Delair, MD", "address": "640 E Lexington Ave B, Danville, KY 40422", "city": "Danville", "phone": "+1 859-236-1250", "website": "", "rating": null, "reviews": 0, "place_id": "ChIJe4L5n2KQQogRAiJXV8A22U4", "latitude": 37.6540421, "longitude": -84.7542227, "care_type": "OB-GYN"}, {"name": "Michael David Platt-Faulkner,", "address": "6105 First Financial Dr, Burlington, KY 41005", "city": "Burlington", "phone": "+1 859-525-1846", "website": "https://www.stelizabethphysicians.com/care/providers/bio/michael-platt-faulkner", "rating": 5.0, "reviews": 17, "place_id": "ChIJjQHCdi7FQYgRuz9hZuxpJgA", "latitude": 39.0209521, "longitude": -84.7072144, "care_type": "OB-GYN"}, {"name": "Women's Health - Burlington - St. Elizabeth Physicians", "address": "6105 First Financial Dr, Burlington, KY 41005", "city": "Burlington", "phone": "+1 859-525-1846", "website": "https://www.stelizabethphysicians.com/location/details/primary-care-burlington", "rating": 1.5, "reviews": 2, "place_id": "ChIJ-XL2OMLFQYgREEIeNoNwwfk", "latitude": 39.0209576, "longitude": -84.7074313, "care_type": "OB-GYN"}, {"name": "Jacqueline Marie Carpenter,", "address": "6105 First Financial Dr, Burlington, KY 41005", "city": "Burlington", "phone": "+1 859-525-1846", "website": "https://www.stelizabethphysicians.com/care/providers/bio/jacqueline-carpenter-do", "rating": 4.5, "reviews": 17, "place_id": "ChIJo_dC_rZyaYgRKkmbN7LuYmM", "latitude": 39.0210119, "longitude": -84.7072379, "care_type": "OB-GYN"}, {"name": "Lily Elsaidi Hahn,", "address": "6105 First Financial Dr, Burlington, KY 41005", "city": "Burlington", "phone": "+1 859-525-1846", "website": "https://www.stelizabethphysicians.com/care/providers/bio/lily-hahn-md", "rating": 5.0, "reviews": 6, "place_id": "ChIJeXJ3T-zFQYgRG2Hkzch9Abc", "latitude": 39.0209521, "longitude": -84.7072144, "care_type": "OB-GYN"}, {"name": "Steven Willett, MD", "address": "6105 First Financial Dr, Burlington, KY 41005", "city": "Burlington", "phone": "+1 859-525-1846", "website": "http://www.stelizabethphysicians.com/providers/bio/steven-willett-md", "rating": 3.4, "reviews": 10, "place_id": "ChIJMQzIor_HQYgRtCvlyL9NMmU", "latitude": 39.02106089999999, "longitude": -84.7075347, "care_type": "OB-GYN"}, {"name": "Women's Care of the Bluegrass Frankfort", "address": "279 Kings Daughters Dr Unit 301, Frankfort, KY 40601", "city": "Frankfort", "phone": "+1 502-227-2229", "website": "https://womenscarebluegrass.com/", "rating": 2.7, "reviews": 101, "place_id": "ChIJr-dxFal1QogRb-NqYo9i3Ws", "latitude": 38.1606389, "longitude": -84.9057079, "care_type": "OB-GYN"}, {"name": "Dr. Amanda S. Hess, DO", "address": "279 Kings Daughters Dr Unit 301, Frankfort, KY 40601", "city": "Frankfort", "phone": "+1 502-227-2229", "website": "http://www.wcotb.com/", "rating": 4.4, "reviews": 16, "place_id": "ChIJIeZxFal1QogRy6z7rpSbz0Q", "latitude": 38.1601674, "longitude": -84.9048455, "care_type": "OB-GYN"}, {"name": "Women's Care of the Bluegrass: Hall Stephen K MD", "address": "89 C Michael Davenport Blvd STE A, Frankfort, KY 40601", "city": "Frankfort", "phone": "+1 502-227-2229", "website": "", "rating": 5.0, "reviews": 1, "place_id": "ChIJLdzOxaZ1QogRS9L_Y122hVI", "latitude": 38.1606378, "longitude": -84.91376249999999, "care_type": "OB-GYN"}, {"name": "Hall Stephen K MD", "address": "279 Kings Daughters Dr Unit 301, Frankfort, KY 40601", "city": "Frankfort", "phone": "+1 502-227-2229", "website": "http://wcotb.com/", "rating": 5.0, "reviews": 2, "place_id": "ChIJr-dxFal1QogRO1JJJ8TBJJY", "latitude": 38.1602818, "longitude": -84.9064981, "care_type": "OB-GYN"}, {"name": "Dr. Angela S. Saxena, MD", "address": "279 Kings Daughters Dr, Frankfort, KY 40601", "city": "Frankfort", "phone": "+1 502-226-5172", "website": "http://frankfortregional.com/", "rating": 3.0, "reviews": 6, "place_id": "ChIJr-dxFal1QogRknZhldzQdAI", "latitude": 38.1602818, "longitude": -84.9064981, "care_type": "OB-GYN"}, {"name": "Dr. Everett J. Horn, MD", "address": "279 Kings Daughters Dr, Frankfort, KY 40601", "city": "Frankfort", "phone": "+1 502-227-2229", "website": "http://www.wcotb.com/", "rating": 4.4, "reviews": 7, "place_id": "ChIJLdzOxaZ1QogReepMA67PfwQ", "latitude": 38.1600982, "longitude": -84.90689569999999, "care_type": "OB-GYN"}, {"name": "Mark Wainwright, D.O.", "address": "279 Kings Daughters Dr Unit 301, Frankfort, KY 40601", "city": "Frankfort", "phone": "+1 502-227-2229", "website": "http://wcotb.com/", "rating": 4.0, "reviews": 8, "place_id": "ChIJr-dxFal1QogRBRKfObNz2G8", "latitude": 38.1601818, "longitude": -84.9068874, "care_type": "OB-GYN"}, {"name": "S. Paige Hertweck, MD", "address": "202 Limestone Dr, Frankfort, KY 40601", "city": "Frankfort", "phone": "+1 502-559-1750", "website": "https://providers.nortonchildrens.com/provider/Susan%2BP%2BHertweck/475243%3Futm_source%3DYext", "rating": null, "reviews": 0, "place_id": "ChIJVQzfNQ51QogRdnxOk3yeHm0", "latitude": 38.1691899, "longitude": -84.8960359, "care_type": "OB-GYN"}, {"name": "Wainwright Mark A DO", "address": "89 C Michael Davenport Blvd STE A, Frankfort, KY 40601", "city": "Frankfort", "phone": "+1 502-227-2229", "website": "", "rating": 5.0, "reviews": 3, "place_id": "ChIJLdzOxaZ1QogRx2yo4bfeaRo", "latitude": 38.1606378, "longitude": -84.91376249999999, "care_type": "OB-GYN"}, {"name": "Robertson Amanda S DO", "address": "279 Kings Daughters Dr, Frankfort, KY 40601", "city": "Frankfort", "phone": "+1 502-227-2229", "website": "http://www.wcotb.com/", "rating": null, "reviews": 0, "place_id": "ChIJr-dxFal1QogRp8_DV01s-lA", "latitude": 38.1601674, "longitude": -84.9048455, "care_type": "OB-GYN"}, {"name": "Dr. Nikolina O. Jonah, MD", "address": "101 Medical Heights Dr D, Frankfort, KY 40601", "city": "Frankfort", "phone": "+1 502-875-2468", "website": "", "rating": null, "reviews": 0, "place_id": "ChIJ56ATPql1QogRE__wGU3TZ-o", "latitude": 38.1595587, "longitude": -84.9049996, "care_type": "OB-GYN"}, {"name": "Lucy Koroma, APRN", "address": "202 Limestone Dr, Frankfort, KY 40601", "city": "Frankfort", "phone": "+1 502-559-1750", "website": "https://providers.nortonchildrens.com/provider/Lucy%2BKoroma/1139804%3Futm_source%3Dthird-party%26utm_medium%3Dlistings%26utm_campaign%3Dncgyn-dtc%26utm_content%3Dprovider-profile", "rating": null, "reviews": 0, "place_id": "ChIJO8SJvnZ1QogRIey0ltwGAJU", "latitude": 38.1691899, "longitude": -84.8960359, "care_type": "OB-GYN"}, {"name": "Lily Elsaidi Hahn,", "address": "1 Medical Village Dr, Edgewood, KY 41017", "city": "Edgewood", "phone": "+1 859-301-2000", "website": "https://www.stelizabethphysicians.com/care/providers/bio/lily-hahn-md", "rating": null, "reviews": 0, "place_id": "ChIJMehgbnC5QYgRx3UoTcWMpbE", "latitude": 39.0131479, "longitude": -84.5631539, "care_type": "OB-GYN"}, {"name": "Sarah Amarylis Roadhouse,", "address": "1 Medical Village Dr, Edgewood, KY 41017", "city": "Edgewood", "phone": "+1 859-301-2000", "website": "https://www.stelizabethphysicians.com/care/providers/bio/sarah-roadhouse", "rating": null, "reviews": 0, "place_id": "ChIJJyT-8VS5QYgRL7-qtP1uo-o", "latitude": 39.0131479, "longitude": -84.5631539, "care_type": "OB-GYN"}, {"name": "Abby Loftus-Smith", "address": "1 Medical Village Dr, Edgewood, KY 41017", "city": "Edgewood", "phone": "+1 859-331-4665", "website": "https://www.stelizabethphysicians.com/providers/bio/abby-loftus-smith-md/", "rating": null, "reviews": 0, "place_id": "ChIJGQRdhD65QYgRhKYQnj4XpYU", "latitude": 39.0131479, "longitude": -84.5631539, "care_type": "OB-GYN"}, {"name": "April Tillery, MD", "address": "7000 Houston Rd STE 19, Florence, KY 41042", "city": "Florence", "phone": "+1 859-341-5550", "website": "https://www.drapriltillery.com/", "rating": 4.8, "reviews": 528, "place_id": "ChIJKxD5F0vGQYgRlB15vn_lpxU", "latitude": 39.007865, "longitude": -84.64865999999999, "care_type": "OB-GYN"}, {"name": "Kristin Marie Satterwhite,", "address": "1 Medical Village Dr, Edgewood, KY 41017", "city": "Edgewood", "phone": "+1 859-301-2000", "website": "https://www.stelizabethphysicians.com/care/providers/bio/kristin-satterwhite", "rating": null, "reviews": 0, "place_id": "ChIJ5yyHcJW5QYgRqT4ebliQRpY", "latitude": 39.0131479, "longitude": -84.5631539, "care_type": "OB-GYN"}, {"name": "Katherin May Seilhamer,", "address": "1 Medical Village Dr, Edgewood, KY 41017", "city": "Edgewood", "phone": "+1 859-301-2000", "website": "https://www.stelizabethphysicians.com/care/providers/bio/katherin-seilhamer", "rating": null, "reviews": 0, "place_id": "ChIJC025hIu5QYgRe_EBku61UTg", "latitude": 39.0131479, "longitude": -84.5631539, "care_type": "OB-GYN"}, {"name": "Lisa Marie Guyton,", "address": "1 Medical Village Dr, Edgewood, KY 41017", "city": "Edgewood", "phone": "+1 859-301-2000", "website": "https://www.stelizabethphysicians.com/care/providers/bio/lisa-marie-guyton", "rating": null, "reviews": 0, "place_id": "ChIJu1qwT_C5QYgRxxuausrK0PQ", "latitude": 39.0131479, "longitude": -84.5631539, "care_type": "OB-GYN"}, {"name": "Emily M. Woeste, MD", "address": "6901 Burlington Pike, Florence, KY 41042", "city": "Florence", "phone": "+1 859-282-6700", "website": "https://www.womenshealthcenters.com/", "rating": 4.7, "reviews": 27, "place_id": "ChIJk0mAmb_HQYgRcu2TqMekF3c", "latitude": 39.009287, "longitude": -84.629239, "care_type": "OB-GYN"}, {"name": "Paul Allen Jacobs,", "address": "20 Medical Village Dr, Edgewood, KY 41017", "city": "Edgewood", "phone": "+1 859-341-2510", "website": "https://www.stelizabethphysicians.com/care/providers/bio/paul-jacobs-md", "rating": 4.9, "reviews": 41, "place_id": "ChIJ66z_qqPHQYgR5eLviLuSBT8", "latitude": 39.0134635, "longitude": -84.56129349999999, "care_type": "OB-GYN"}, {"name": "Erin Michelle Tuemler,", "address": "1 Medical Village Dr, Edgewood, KY 41017", "city": "Edgewood", "phone": "+1 859-301-2000", "website": "https://www.stelizabethphysicians.com/care/providers/bio/erin-tuemler-md", "rating": 5.0, "reviews": 1, "place_id": "ChIJw5lSYTi5QYgRqesgwb7G_-c", "latitude": 39.0131479, "longitude": -84.5631539, "care_type": "OB-GYN"}, {"name": "Meredith Himmler Donnelly,", "address": "7370 Turfway Rd, Florence, KY 41042", "city": "Florence", "phone": "+1 859-212-5125", "website": "https://www.stelizabethphysicians.com/care/providers/bio/meredith-donnelly-md", "rating": 4.9, "reviews": 16, "place_id": "ChIJJa0HXsy5QYgR7YNkfh3bLJk", "latitude": 39.0157268, "longitude": -84.6309842, "care_type": "OB-GYN"}, {"name": "Megan O. Schneider, MD", "address": "7348 US-42 STE 201, Florence, KY 41042", "city": "Florence", "phone": "+1 859-341-2510", "website": "https://www.womenshealthcenters.com/", "rating": 4.7, "reviews": 7, "place_id": "ChIJ04AaCUWFaYgRwqnXFzuKzhM", "latitude": 38.9974713, "longitude": -84.6297821, "care_type": "OB-GYN"}, {"name": "Seven Hills Women's Health Centers", "address": "20 Medical Village Dr # 302, Edgewood, KY 41017", "city": "Edgewood", "phone": "+1 859-341-2510", "website": "https://axiawh.com/locations/seven-hills-womens-health-centers-of-edgewood/", "rating": 4.0, "reviews": 189, "place_id": "ChIJJa0HXsy5QYgRouUeSjj1eVA", "latitude": 39.013795, "longitude": -84.561438, "care_type": "OB-GYN"}, {"name": "Seven Hills Women's Health Centers", "address": "2156 Chamber Center Dr, Fort Mitchell, KY 41017", "city": "Fort Mitchell", "phone": "+1 859-282-6700", "website": "https://axiawh.com/locations/seven-hills-womens-health-centers-turfway/", "rating": 4.6, "reviews": 358, "place_id": "ChIJk0mAmb_HQYgRu68c-mXVOK4", "latitude": 39.0442241, "longitude": -84.5675984, "care_type": "OB-GYN"}, {"name": "Richard B. Beaven, MD", "address": "6901 Burlington Pike, Florence, KY 41042", "city": "Florence", "phone": "+1 859-282-6700", "website": "https://www.womenshealthcenters.com/", "rating": 4.9, "reviews": 33, "place_id": "ChIJk0mAmb_HQYgR6CCZpwYWCyA", "latitude": 39.009287, "longitude": -84.629239, "care_type": "OB-GYN"}, {"name": "Jeanne M. Setters, APRN", "address": "7348 US-42 STE 201, Florence, KY 41042", "city": "Florence", "phone": "+1 859-341-2510", "website": "https://www.womenshealthcenters.com/", "rating": 4.8, "reviews": 11, "place_id": "ChIJF_ufALCFaYgR2FHLxvGs1Jc", "latitude": 38.9974594, "longitude": -84.6297749, "care_type": "OB-GYN"}, {"name": "Michael J. Gerwe,", "address": "20 Medical Village Dr # 302, Edgewood, KY 41017", "city": "Edgewood", "phone": "+1 859-341-2510", "website": "https://www.stelizabethphysicians.com/care/providers/bio/michael-gerwe-md", "rating": 4.1, "reviews": 24, "place_id": "ChIJJa0HXsy5QYgRMslykNYs4r4", "latitude": 39.013504, "longitude": -84.56111039999999, "care_type": "OB-GYN"}, {"name": "Michael R. Kirkwood, MD", "address": "20 Medical Village Dr # 302, Edgewood, KY 41017", "city": "Edgewood", "phone": "+1 859-341-2510", "website": "https://www.womenshealthcenters.com/", "rating": 5.0, "reviews": 3, "place_id": "ChIJJa0HXsy5QYgRkCfCBsnoLJA", "latitude": 39.0134635, "longitude": -84.56129349999999, "care_type": "OB-GYN"}, {"name": "John Andrew Darpel,", "address": "20 Medical Village Dr # 302, Edgewood, KY 41017", "city": "Edgewood", "phone": "+1 859-341-2510", "website": "https://www.stelizabethphysicians.com/care/providers/bio/john-darpel-md", "rating": 4.9, "reviews": 20, "place_id": "ChIJJa0HXsy5QYgR53_-k4flp2k", "latitude": 39.013504, "longitude": -84.56111039999999, "care_type": "OB-GYN"}, {"name": "Lily Elsaidi Hahn,", "address": "4900 Houston Rd, Florence, KY 41042", "city": "Florence", "phone": "+1 859-212-5200", "website": "https://www.stelizabethphysicians.com/care/providers/bio/lily-hahn-md", "rating": null, "reviews": 0, "place_id": "ChIJm9j7zkjHQYgRPyZaNlcTgPQ", "latitude": 39.015359, "longitude": -84.630889, "care_type": "OB-GYN"}, {"name": "UK HealthCare Women's Health - Georgetown", "address": "1150 Lexington Rd #102, Georgetown, KY 40324", "city": "Georgetown", "phone": "+1 859-562-8599", "website": "https://ukhealthcare.uky.edu/obstetrics-gynecology/services/obgyn/georgetown%3Futm_campaign%3Dwebsite-link%26utm_medium%3Dorganic%26utm_source%3Dlocal-listing", "rating": 4.0, "reviews": 23, "place_id": "ChIJebyIFAVBQogResCYHRP93q8", "latitude": 38.1857717, "longitude": -84.559317, "care_type": "OB-GYN"}, {"name": "Womens Health", "address": "351 Centre View Blvd, Crestview Hills, KY 41017", "city": "Crestview Hills", "phone": "", "website": "", "rating": null, "reviews": 0, "place_id": "ChIJydT9IQC5QYgRwnJ6UlqOcZc", "latitude": 39.022633, "longitude": -84.56353299999999, "care_type": "OB-GYN"}, {"name": "Rose Gynecology", "address": "437 Commonwealth Ave, Erlanger, KY 41018", "city": "Erlanger", "phone": "+1 513-321-7673", "website": "https://www.rosegynecology.com/", "rating": 5.0, "reviews": 1, "place_id": "ChIJ32OcBkvHQYgRILxFnv6E1Ms", "latitude": 39.021421, "longitude": -84.6061471, "care_type": "OB-GYN"}, {"name": "Megan O. Schneider, MD", "address": "20 Medical Village Dr # 302, Edgewood, KY 41017", "city": "Edgewood", "phone": "+1 859-341-2510", "website": "https://www.womenshealthcenters.com/", "rating": 4.3, "reviews": 6, "place_id": "ChIJA5XLGp25QYgRwYsR3v3MjkQ", "latitude": 39.0134635, "longitude": -84.56129349999999, "care_type": "OB-GYN"}, {"name": "John R. Jackson, MD", "address": "7348 US-42 STE 201, Florence, KY 41042", "city": "Florence", "phone": "+1 859-341-2510", "website": "https://www.womenshealthcenters.com/", "rating": 5.0, "reviews": 5, "place_id": "ChIJ66z_qqPHQYgRliJ2AGUDyi0", "latitude": 38.9974625, "longitude": -84.6297713, "care_type": "OB-GYN"}, {"name": "Christina Kathleen Green,", "address": "4900 Houston Rd, Florence, KY 41042", "city": "Florence", "phone": "+1 859-212-5200", "website": "https://www.stelizabethphysicians.com/care/providers/bio/christina-Green-md", "rating": null, "reviews": 0, "place_id": "ChIJR1_5UNXHQYgRvXui51UDuqM", "latitude": 39.015359, "longitude": -84.630889, "care_type": "OB-GYN"}, {"name": "Jeanne M. Setters, APRN", "address": "20 Medical Village Dr # 302, Edgewood, KY 41017", "city": "Edgewood", "phone": "+1 859-341-2510", "website": "https://www.stelizabeth.com/providers/bio/jeanne-setters-aprn", "rating": 5.0, "reviews": 11, "place_id": "ChIJWUxBnx65QYgRcr0TcmYOi08", "latitude": 39.0134635, "longitude": -84.56129349999999, "care_type": "OB-GYN"}, {"name": "Jacqueline Marie Carpenter,", "address": "4900 Houston Rd, Florence, KY 41042", "city": "Florence", "phone": "+1 859-212-5200", "website": "https://www.stelizabethphysicians.com/care/providers/bio/jacqueline-carpenter-do", "rating": null, "reviews": 0, "place_id": "ChIJpRlZ9GXHQYgRxUSFF4augqo", "latitude": 39.015359, "longitude": -84.630889, "care_type": "OB-GYN"}, {"name": "Erin Michelle Tuemler,", "address": "605 Man O War Blvd, Union, KY 41091", "city": "Union", "phone": "+1 859-578-5667", "website": "https://www.stelizabethphysicians.com/care/providers/bio/erin-tuemler-md", "rating": 4.1, "reviews": 31, "place_id": "ChIJJa0HXsy5QYgROnf8JrinmXM", "latitude": 38.9118564, "longitude": -84.6410157, "care_type": "OB-GYN"}, {"name": "Lisa Marie Guyton,", "address": "7370 Turfway Rd, Florence, KY 41042", "city": "Florence", "phone": "+1 859-212-5125", "website": "https://www.stelizabethphysicians.com/care/providers/bio/lisa-marie-guyton", "rating": 5.0, "reviews": 2, "place_id": "ChIJGbq3rOLHQYgRzZHNAukoEf4", "latitude": 39.0157268, "longitude": -84.6309842, "care_type": "OB-GYN"}, {"name": "St. Elizabeth Women\u2019s Health Center", "address": "610 Medical Village Dr, Edgewood, KY 41017", "city": "Edgewood", "phone": "+1 859-301-6382", "website": "https://www.stelizabeth.com/location/details/womens-health-center-mammography-and-dexa-edgewood", "rating": 3.0, "reviews": 2, "place_id": "ChIJv6a9b-e5QYgRE2UMkY-2Ro4", "latitude": 39.0100067, "longitude": -84.5643621, "care_type": "OB-GYN"}, {"name": "Jacqueline Marie Carpenter,", "address": "1 Medical Village Dr, Edgewood, KY 41017", "city": "Edgewood", "phone": "+1 859-301-2000", "website": "https://www.stelizabethphysicians.com/care/providers/bio/jacqueline-carpenter-do", "rating": null, "reviews": 0, "place_id": "ChIJKw7E4Qi5QYgRUOpBMvVMXbc", "latitude": 39.0131479, "longitude": -84.5631539, "care_type": "OB-GYN"}, {"name": "Stephanie Marie DeAngelis,", "address": "4900 Houston Rd, Florence, KY 41042", "city": "Florence", "phone": "+1 859-212-5200", "website": "https://www.stelizabethphysicians.com/care/providers/bio/stephanie-deangelis", "rating": null, "reviews": 0, "place_id": "ChIJtVGx41XHQYgRQ6VXV8NWXf8", "latitude": 39.015359, "longitude": -84.630889, "care_type": "OB-GYN"}, {"name": "Abby Loftus-Smith,", "address": "6105 First Financial Dr, Burlington, KY 41005", "city": "Burlington", "phone": "+1 859-525-1846", "website": "https://www.stelizabethphysicians.com/care/providers/bio/abby-loftus-smith-md", "rating": 4.5, "reviews": 8, "place_id": "ChIJZabJhS-lQYgR4zNLGIIc8Sw", "latitude": 39.0210119, "longitude": -84.7072379, "care_type": "OB-GYN"}, {"name": "All Women, Pllc", "address": "7000 Houston Rd Suite 19, Florence, KY 41042", "city": "Florence", "phone": "+1 859-341-5550", "website": "https://www.drapriltillery.com/", "rating": 1.0, "reviews": 5, "place_id": "ChIJJa0HXsy5QYgRaRgmz0lH-qA", "latitude": 39.0550573, "longitude": -84.5463784, "care_type": "OB-GYN"}, {"name": "Christina Kathleen Green,", "address": "1 Medical Village Dr, Edgewood, KY 41017", "city": "Edgewood", "phone": "+1 859-301-2000", "website": "https://www.stelizabethphysicians.com/care/providers/bio/christina-Green-md", "rating": 5.0, "reviews": 2, "place_id": "ChIJracSl8GxQYgRRly94KyPet4", "latitude": 39.0131479, "longitude": -84.5631539, "care_type": "OB-GYN"}, {"name": "Christina Kathleen Green,", "address": "7370 Turfway Rd, Florence, KY 41042", "city": "Florence", "phone": "+1 859-212-5125", "website": "https://www.stelizabethphysicians.com/care/providers/bio/christina-Green-md", "rating": null, "reviews": 0, "place_id": "ChIJd4UxopfHQYgRsnEUG2Lta5g", "latitude": 39.01587019999999, "longitude": -84.6311928, "care_type": "OB-GYN"}, {"name": "Sarah Amarylis Roadhouse,", "address": "6105 First Financial Dr, Burlington, KY 41005", "city": "Burlington", "phone": "+1 859-525-1846", "website": "https://www.stelizabethphysicians.com/care/providers/bio/sarah-roadhouse", "rating": 4.4, "reviews": 7, "place_id": "ChIJadutj3S5QYgRWWvNExYr8eY", "latitude": 39.0209576, "longitude": -84.7074313, "care_type": "OB-GYN"}, {"name": "Yasmeen Renee Daher,", "address": "7370 Turfway Rd, Florence, KY 41042", "city": "Florence", "phone": "+1 859-212-5125", "website": "https://www.stelizabethphysicians.com/care/providers/bio/yasmeendaher", "rating": null, "reviews": 0, "place_id": "ChIJd9vopZDHQYgRrdTVFbVae4E", "latitude": 39.01587019999999, "longitude": -84.6311928, "care_type": "OB-GYN"}, {"name": "Stephanie Marie DeAngelis,", "address": "1 Medical Village Dr, Edgewood, KY 41017", "city": "Edgewood", "phone": "+1 859-301-2000", "website": "https://www.stelizabethphysicians.com/care/providers/bio/stephanie-deangelis", "rating": null, "reviews": 0, "place_id": "ChIJYWE0f0G5QYgRXqzWOcL0TeA", "latitude": 39.0131479, "longitude": -84.5631539, "care_type": "OB-GYN"}, {"name": "Erin Michelle Tuemler", "address": "4900 Houston Rd, Florence, KY 41042", "city": "Florence", "phone": "+1 859-212-5200", "website": "https://www.stelizabethphysicians.com/providers/bio/erin-tuemler-md/", "rating": null, "reviews": 0, "place_id": "ChIJUxrSo1vHQYgRliGqiPW0UJc", "latitude": 39.015359, "longitude": -84.630889, "care_type": "OB-GYN"}, {"name": "Sarah J. Hawkins, MD", "address": "6901 Burlington Pike, Florence, KY 41042", "city": "Florence", "phone": "+1 859-282-6700", "website": "https://www.womenshealthcenters.com/", "rating": 5.0, "reviews": 1, "place_id": "ChIJWfClyDjHQYgRbjUSq0aMU5E", "latitude": 39.009287, "longitude": -84.629239, "care_type": "OB-GYN"}, {"name": "John Andrew Darpel,", "address": "1 Medical Village Dr, Edgewood, KY 41017", "city": "Edgewood", "phone": "+1 859-301-2000", "website": "https://www.stelizabethphysicians.com/care/providers/bio/john-darpel-md", "rating": null, "reviews": 0, "place_id": "ChIJVwtNZ8i5QYgR0wXBSRL9M_s", "latitude": 39.0131479, "longitude": -84.5631539, "care_type": "OB-GYN"}, {"name": "PrimaryPlus-OB/GYN", "address": "927 Kenton Station Dr # 101, Maysville, KY 41056", "city": "Maysville", "phone": "+1 606-759-5331", "website": "https://primaryplus.net/services/ob-gyn/", "rating": 3.7, "reviews": 38, "place_id": "ChIJ8QpXg99aQYgRQJOO_9DeJYs", "latitude": 38.6396984, "longitude": -83.806009, "care_type": "OB-GYN"}, {"name": "Vincent Lubrano, MD", "address": "20 Medical Village Dr, Edgewood, KY 41017", "city": "Edgewood", "phone": "+1 859-331-4665", "website": "https://www.stelizabethphysicians.com/providers/bio/vincent-lubrano-md-2", "rating": 3.6, "reviews": 12, "place_id": "ChIJJa0HXsy5QYgRsR-V2i0wmag", "latitude": 39.0134635, "longitude": -84.56129349999999, "care_type": "OB-GYN"}, {"name": "Erin Michelle Tuemler,", "address": "20 Medical Village Dr, Edgewood, KY 41017", "city": "Edgewood", "phone": "+1 859-341-2510", "website": "https://www.stelizabethphysicians.com/care/providers/bio/erin-tuemler-md", "rating": null, "reviews": 0, "place_id": "ChIJK2hNqJy5QYgRrXPUyt72fJk", "latitude": 39.013504, "longitude": -84.56111039999999, "care_type": "OB-GYN"}, {"name": "Stephanie Marie DeAngelis,", "address": "7370 Turfway Rd, Florence, KY 41042", "city": "Florence", "phone": "+1 859-212-5125", "website": "https://www.stelizabethphysicians.com/care/providers/bio/stephanie-deangelis", "rating": 4.3, "reviews": 6, "place_id": "ChIJ9VsVn7nHQYgRyhDb7G8OO-I", "latitude": 39.0157268, "longitude": -84.6309842, "care_type": "OB-GYN"}, {"name": "Lisa Marie Guyton,", "address": "2626 Alexandria Pike, Highland Heights, KY 41076", "city": "Highland Heights", "phone": "+1 859-912-6500", "website": "https://www.stelizabethphysicians.com/care/providers/bio/lisa-marie-guyton", "rating": 5.0, "reviews": 3, "place_id": "ChIJEQTrYMy5QYgRoa8okQnEVc0", "latitude": 39.0351939, "longitude": -84.4547189, "care_type": "OB-GYN"}, {"name": "Beth Ann Myers,", "address": "1 Medical Village Dr, Edgewood, KY 41017", "city": "Edgewood", "phone": "+1 859-301-2440", "website": "https://www.stelizabethphysicians.com/care/providers/bio/beth-myers-md", "rating": null, "reviews": 0, "place_id": "ChIJ6SzwTzW4QYgRLL-bN6okgDk", "latitude": 39.0134705, "longitude": -84.56300089999999, "care_type": "OB-GYN"}, {"name": "Dr. Abby Loftus-Smith", "address": "6907 Burlington Pike, Florence, KY 41042", "city": "Florence", "phone": "+1 859-344-5555", "website": "", "rating": null, "reviews": 0, "place_id": "ChIJMQzIor_HQYgRe-oSj8tUUeE", "latitude": 39.008802, "longitude": -84.628984, "care_type": "OB-GYN"}, {"name": "Yasmeen Renee Daher,", "address": "2626 Alexandria Pike, Highland Heights, KY 41076", "city": "Highland Heights", "phone": "+1 859-912-6500", "website": "https://www.stelizabethphysicians.com/care/providers/bio/yasmeendaher", "rating": null, "reviews": 0, "place_id": "ChIJ1XPFZcuxQYgRInPA96QCHXU", "latitude": 39.0356269, "longitude": -84.4546792, "care_type": "OB-GYN"}, {"name": "Stephanie Marie DeAngelis,", "address": "2626 Alexandria Pike, Highland Heights, KY 41076", "city": "Highland Heights", "phone": "+1 859-912-6500", "website": "https://www.stelizabethphysicians.com/care/providers/bio/stephanie-deangelis/", "rating": 5.0, "reviews": 1, "place_id": "ChIJcWkE6WKxQYgRkToj26ljkiw", "latitude": 39.0353481, "longitude": -84.45493429999999, "care_type": "OB-GYN"}, {"name": "Christina Kathleen Green,", "address": "2626 Alexandria Pike, Highland Heights, KY 41076", "city": "Highland Heights", "phone": "+1 859-912-6500", "website": "https://www.stelizabethphysicians.com/care/providers/bio/christina-Green-md", "rating": null, "reviews": 0, "place_id": "ChIJe7J0kf6xQYgRsZuqzv9u_Hk", "latitude": 39.0356269, "longitude": -84.4546792, "care_type": "OB-GYN"}, {"name": "Andria Berry", "address": "7370 Turfway Rd #390, Florence, KY 41042", "city": "Florence", "phone": "+1 859-212-5125", "website": "", "rating": null, "reviews": 0, "place_id": "ChIJ82ew4MPHQYgRE9iWxaC7qKc", "latitude": 39.0157662, "longitude": -84.6309562, "care_type": "OB-GYN"}, {"name": "Kristin Marie Satterwhite,", "address": "6105 First Financial Dr, Burlington, KY 41005", "city": "Burlington", "phone": "+1 859-525-1846", "website": "https://www.stelizabethphysicians.com/care/providers/bio/kristin-satterwhite", "rating": 5.0, "reviews": 5, "place_id": "ChIJmU5ugezFQYgRVdGqIKF13Tc", "latitude": 39.0209576, "longitude": -84.7074313, "care_type": "OB-GYN"}, {"name": "Yvon Parent", "address": "1 Medical Village Dr, Edgewood, KY 41017", "city": "Edgewood", "phone": "+1 859-212-4468", "website": "", "rating": null, "reviews": 0, "place_id": "ChIJq6qqv8y5QYgR2hp0XTxd1_w", "latitude": 39.0134705, "longitude": -84.56300089999999, "care_type": "OB-GYN"}, {"name": "Brittny M. Schadler, MD", "address": "7348 US-42 STE 201, Florence, KY 41042", "city": "Florence", "phone": "+1 859-282-1248", "website": "https://womenshealthcenters.com/", "rating": null, "reviews": 0, "place_id": "ChIJy_A2u9rHQYgRdXt_xLJ_aDE", "latitude": 38.9974378, "longitude": -84.6297354, "care_type": "OB-GYN"}, {"name": "Mcginnis Kevin T MD", "address": "1 Medical Village Dr, Edgewood, KY 41017", "city": "Edgewood", "phone": "+1 859-301-2000", "website": "http://www.stelizabeth.com/", "rating": null, "reviews": 0, "place_id": "ChIJCSvwTzW4QYgRezOQWTj-B0g", "latitude": 39.0132266, "longitude": -84.5626515, "care_type": "OB-GYN"}, {"name": "Dr. Laura M. Moore, MD", "address": "1400 N Grand Ave, Newport, KY 41071", "city": "Newport", "phone": "+1 859-781-6222", "website": "http://www.stelizabethphysicians.com/", "rating": 5.0, "reviews": 1, "place_id": "ChIJ_____7ixQYgRfbSeJjotxGQ", "latitude": 39.0809957, "longitude": -84.4695021, "care_type": "OB-GYN"}, {"name": "Select Ob/Gyn", "address": "6907 Burlington Pike, Florence, KY 41042", "city": "Florence", "phone": "+1 859-525-1846", "website": "", "rating": null, "reviews": 0, "place_id": "ChIJMQzIor_HQYgRrdrnaDnMUEU", "latitude": 39.008802, "longitude": -84.628984, "care_type": "OB-GYN"}, {"name": "Natalie S. Adams, DO", "address": "2156 Chamber Center Dr, Lakeside Park, KY 41017", "city": "Lakeside Park", "phone": "+1 859-282-6700", "website": "https://directory.trihealthpho.com/provider/Natalie%2BS.%2BAdams/4340951", "rating": null, "reviews": 0, "place_id": "ChIJVecTyU-3QYgRtuU1ViYQZgg", "latitude": 39.0444438, "longitude": -84.56888099999999, "care_type": "OB-GYN"}, {"name": "Dr. Michael Karram", "address": "1955 Dixie Hwy suite m, Fort Wright, KY 41011", "city": "Fort Wright", "phone": "+1 513-585-2062", "website": "", "rating": null, "reviews": 0, "place_id": "ChIJY9gZ_Ba3QYgRFp5CNR3uJUE", "latitude": 39.0554664, "longitude": -84.54617549999999, "care_type": "OB-GYN"}, {"name": "Dr. Adam T. Crawford, MD", "address": "20 Medical Village Dr # 302, Edgewood, KY 41017", "city": "Edgewood", "phone": "+1 859-341-2510", "website": "http://www.obgynnky.com/", "rating": null, "reviews": 0, "place_id": "ChIJJa0HXsy5QYgRFeeif0mmTKk", "latitude": 39.013582, "longitude": -84.56121, "care_type": "OB-GYN"}, {"name": "Scheiber Michael D MD", "address": "6900 Houston Rd # 15, Florence, KY 41042", "city": "Florence", "phone": "+1 859-282-0364", "website": "http://www.cincinnatifertility.com/about-us/our-staff/dr-scheiber", "rating": null, "reviews": 0, "place_id": "ChIJ22D3MLXHQYgR66cqQ62CRQ8", "latitude": 39.0092037, "longitude": -84.64738109999999, "care_type": "OB-GYN"}, {"name": "Emily Michelle Woeste, MD", "address": "2156 Chamber Center Dr, Lakeside Park, KY 41017", "city": "Lakeside Park", "phone": "+1 859-282-6700", "website": "https://directory.trihealthpho.com/provider/Emily%2BMichelle%2BWoeste/4219604", "rating": null, "reviews": 0, "place_id": "ChIJSyCr6He3QYgR5eFbWUX2fYc", "latitude": 39.0444438, "longitude": -84.56888099999999, "care_type": "OB-GYN"}, {"name": "Steven Lee Willett", "address": "6907 Burlington Pike, Florence, KY 41042", "city": "Florence", "phone": "+1 859-525-1846", "website": "", "rating": 1.0, "reviews": 1, "place_id": "ChIJMQzIor_HQYgR50_b6ihwLFA", "latitude": 39.008802, "longitude": -84.628984, "care_type": "OB-GYN"}, {"name": "Maureen Pelletier", "address": "1 Medical Village Dr, Edgewood, KY 41017", "city": "Edgewood", "phone": "+1 859-301-2000", "website": "", "rating": null, "reviews": 0, "place_id": "ChIJq6qqv8y5QYgR2d_zGMvMbcA", "latitude": 39.0134705, "longitude": -84.56300089999999, "care_type": "OB-GYN"}, {"name": "Dooley Marihelen MD", "address": "1 Medical Village Dr, Edgewood, KY 41017", "city": "Edgewood", "phone": "+1 859-301-2000", "website": "", "rating": null, "reviews": 0, "place_id": "ChIJ6SzwTzW4QYgR_mA6pSJZgfY", "latitude": 39.0134705, "longitude": -84.56300089999999, "care_type": "OB-GYN"}, {"name": "Jessica Marie Yarr Zandri,", "address": "1 Medical Village Dr, Edgewood, KY 41017", "city": "Edgewood", "phone": "+1 859-301-2440", "website": "https://www.stelizabethphysicians.com/care/providers/bio/jessica-zandri", "rating": null, "reviews": 0, "place_id": "ChIJq6qqv8y5QYgR7iXMl959O1w", "latitude": 39.0134705, "longitude": -84.56300089999999, "care_type": "OB-GYN"}, {"name": "Sarah J Hawkins,", "address": "1 Medical Village Dr, Edgewood, KY 41017", "city": "Edgewood", "phone": "+1 859-301-2440", "website": "https://www.stelizabethphysicians.com/care/providers/bio/sarah-hawkins", "rating": null, "reviews": 0, "place_id": "ChIJfU-kWVS5QYgRtBl7xms8ptk", "latitude": 39.0131557, "longitude": -84.5618867, "care_type": "OB-GYN"}, {"name": "Steven Willett, MD", "address": "1400 N Grand Ave, Newport, KY 41071", "city": "Newport", "phone": "+1 859-781-6222", "website": "http://www.stelizabethphysicians.com/providers/bio/steven-willett-md", "rating": 3.4, "reviews": 8, "place_id": "ChIJp9YKrV6xQYgR2K1As7deoF0", "latitude": 39.0809957, "longitude": -84.4695022, "care_type": "OB-GYN"}, {"name": "Shaughnessy Nancy N MD", "address": "1 Medical Village Dr, Edgewood, KY 41017", "city": "Edgewood", "phone": "+1 859-301-2000", "website": "http://www.stelizabeth.com/", "rating": null, "reviews": 0, "place_id": "ChIJeyvwTzW4QYgRV-JbqaIEoxo", "latitude": 39.0134705, "longitude": -84.56300089999999, "care_type": "OB-GYN"}, {"name": "Angela Sue Beale Martin,", "address": "1 Medical Village Dr, Edgewood, KY 41017", "city": "Edgewood", "phone": "+1 859-301-2440", "website": "https://www.stelizabethphysicians.com/care/providers/bio/angela-martin", "rating": null, "reviews": 0, "place_id": "ChIJ0W66Pbu5QYgRAokt-Z3Iahg", "latitude": 39.0131557, "longitude": -84.5618867, "care_type": "OB-GYN"}, {"name": "Katherin May Seilhamer,", "address": "7370 Turfway Rd, Florence, KY 41042", "city": "Florence", "phone": "+1 859-212-5125", "website": "https://www.stelizabethphysicians.com/care/providers/bio/katherin-seilhamer/", "rating": null, "reviews": 0, "place_id": "ChIJ-UIKwFi5QYgR1kK6mQipc_s", "latitude": 39.0157268, "longitude": -84.6309842, "care_type": "OB-GYN"}, {"name": "Dr. Gary J. Kanter, MD", "address": "6903 Burlington Pike, Florence, KY 41042", "city": "Florence", "phone": "+1 859-282-6700", "website": "", "rating": null, "reviews": 0, "place_id": "ChIJk0mAmb_HQYgR2A0475wTZHM", "latitude": 39.009209, "longitude": -84.629103, "care_type": "OB-GYN"}, {"name": "Dr. Hooshang Silanee, MD", "address": "1801 Alexandria Pike, Newport, KY 41076", "city": "Newport", "phone": "+1 859-441-6300", "website": "", "rating": null, "reviews": 0, "place_id": "ChIJN5GG8iSwQYgRN3j8O0BBQdU", "latitude": 39.0493063, "longitude": -84.445368, "care_type": "OB-GYN"}, {"name": "Brittny Marie Schadler,", "address": "1 Medical Village Dr, Edgewood, KY 41017", "city": "Edgewood", "phone": "+1 859-301-2000", "website": "https://www.stelizabethphysicians.com/care/providers/bio/brittny-schadler-md", "rating": null, "reviews": 0, "place_id": "ChIJZftjEzC5QYgRoOrhIHGX4Sk", "latitude": 39.0131557, "longitude": -84.5618867, "care_type": "OB-GYN"}, {"name": "Christine Pennesi MD", "address": "2765 Chapel Pl, Crestview Hills, KY 41017", "city": "Crestview Hills", "phone": "+1 859-344-5390", "website": "https://www.cincinnatichildrens.org/bio/p/christine-pennesi%3Futm_source%3Dgoogle%26utm_medium%3Dorganic%26utm_campaign%3Dprofile_listing", "rating": null, "reviews": 0, "place_id": "ChIJT3cgMZy5QYgRcn2uAB9tDU0", "latitude": 39.0242784, "longitude": -84.5629263, "care_type": "OB-GYN"}, {"name": "Ob-Gyn Specialists-Northern Ky", "address": "7348 US-42 STE 201, Florence, KY 41042", "city": "Florence", "phone": "+1 859-282-1248", "website": "http://www.obgynnky.com/", "rating": null, "reviews": 0, "place_id": "ChIJ66z_qqPHQYgRnXhwFA-V4k8", "latitude": 38.9974111, "longitude": -84.6297342, "care_type": "OB-GYN"}, {"name": "Seven Hills Women's Health Centers", "address": "7348 US-42 STE 201, Florence, KY 41042", "city": "Florence", "phone": "+1 859-341-2510", "website": "", "rating": 4.6, "reviews": 103, "place_id": "ChIJSd8396LHQYgRQRBBUDbKdOM", "latitude": 38.9974477, "longitude": -84.6296936, "care_type": "OB-GYN"}, {"name": "Dr. Adam T. Crawford, MD", "address": "7348 US-42 STE 201, Florence, KY 41042", "city": "Florence", "phone": "+1 859-282-1248", "website": "", "rating": null, "reviews": 0, "place_id": "ChIJ66z_qqPHQYgR1tiGY5aBKxI", "latitude": 38.9974259, "longitude": -84.6297232, "care_type": "OB-GYN"}, {"name": "Women's Health Specialists", "address": "523 Park St Suite 606, Bowling Green, KY 42101", "city": "Bowling Green", "phone": "+1 270-781-0075", "website": "https://medcenterhealth.org/service/womens-health-and-newborn/", "rating": 4.3, "reviews": 173, "place_id": "ChIJZcCuCU_vZYgRTNg5o-kUduE", "latitude": 36.9940984, "longitude": -86.4348232, "care_type": "OB-GYN"}, {"name": "Andrea Brooks, M.D.", "address": "201 Park St, Bowling Green, KY 42101", "city": "Bowling Green", "phone": "+1 270-393-2761", "website": "http://gravesgilbert.com/physicians/andrea-brooks-m-d/", "rating": 4.3, "reviews": 12, "place_id": "ChIJczf140_vZYgRmXyPndNpGLE", "latitude": 36.996808, "longitude": -86.430229, "care_type": "OB-GYN"}, {"name": "Hewitt OB/GYN", "address": "523 Park St, Bowling Green, KY 42101", "city": "Bowling Green", "phone": "+1 270-781-3415", "website": "https://drhewitt.com/", "rating": 3.3, "reviews": 59, "place_id": "ChIJJeLlkL3oZYgRDqT7_haWXyo", "latitude": 36.9940984, "longitude": -86.4348232, "care_type": "OB-GYN"}, {"name": "Sara L. Mangold, M.D.", "address": "201 Park St, Bowling Green, KY 42101", "city": "Bowling Green", "phone": "+1 270-783-3335", "website": "http://gravesgilbert.com/physicians/sara-mangold-m-d/", "rating": 4.0, "reviews": 21, "place_id": "ChIJczf140_vZYgRKRsaEvOXxf0", "latitude": 36.996808, "longitude": -86.430229, "care_type": "OB-GYN"}, {"name": "Todd A. Drexel, D.O.", "address": "201 Park St, Bowling Green, KY 42101", "city": "Bowling Green", "phone": "+1 270-783-3331", "website": "http://gravesgilbert.com/physicians/todd-a-drexel-d-o-m-p-h/", "rating": 4.4, "reviews": 38, "place_id": "ChIJczf140_vZYgRuS0Rt7Ju0CA", "latitude": 36.996808, "longitude": -86.430229, "care_type": "OB-GYN"}, {"name": "Ashley D. Hill, D.O.", "address": "201 Park St, Bowling Green, KY 42101", "city": "Bowling Green", "phone": "+1 270-780-0596", "website": "https://www.gravesgilbert.com/physicians/ashley-d-hill-d-o/%3Fhighlight%3DAshley%2520D%2520Hill", "rating": 4.3, "reviews": 17, "place_id": "ChIJrxMfxBLvZYgRQ3eZ01S9QN4", "latitude": 36.9968512, "longitude": -86.4301977, "care_type": "OB-GYN"}, {"name": "Joseph C. Gass, M.D.", "address": "201 Park St, Bowling Green, KY 42101", "city": "Bowling Green", "phone": "+1 270-780-0561", "website": "https://www.gravesgilbert.com/physicians/joseph-c-gass-m-d/%3Fhighlight%3DJoseph%2520C.%2520Gass", "rating": 4.8, "reviews": 26, "place_id": "ChIJczf140_vZYgRuwQ5J7RgsyY", "latitude": 36.9968814, "longitude": -86.43018839999999, "care_type": "OB-GYN"}, {"name": "Loubna Hatem, D.O.", "address": "201 Park St, Bowling Green, KY 42101", "city": "Bowling Green", "phone": "+1 270-783-0451", "website": "https://www.gravesgilbert.com/physicians/loubna-hatem-do/", "rating": 4.6, "reviews": 39, "place_id": "ChIJD6NKGdnvZYgRVwUdOff_LPQ", "latitude": 36.9968512, "longitude": -86.4301977, "care_type": "OB-GYN"}, {"name": "Roger Sandelin, MD", "address": "201 Park St, Bowling Green, KY 42101", "city": "Bowling Green", "phone": "+1 270-780-0562", "website": "https://www.gravesgilbert.com/physicians/roger-sandelin-m-d/", "rating": 4.6, "reviews": 56, "place_id": "ChIJMSM8f3PvZYgRRUi5tQ5kG1s", "latitude": 36.9967916, "longitude": -86.4301279, "care_type": "OB-GYN"}, {"name": "Nathan D. Stice, M.D.", "address": "201 Park St, Bowling Green, KY 42101", "city": "Bowling Green", "phone": "+1 270-393-2777", "website": "http://gravesgilbert.com/physicians/nathan-stice-m-d/", "rating": 4.0, "reviews": 34, "place_id": "ChIJQ3rljE_vZYgR3w3SmHzbXjQ", "latitude": 36.996808, "longitude": -86.430229, "care_type": "OB-GYN"}, {"name": "Trevor Devin MD", "address": "Medical Arts Building, 350 Park St #203, Bowling Green, KY 42101", "city": "Bowling Green", "phone": "+1 270-781-0075", "website": "https://medcenterhealth.org/person/devin-trevor-md-2/", "rating": 5.0, "reviews": 15, "place_id": "ChIJZcCuCU_vZYgRhME9YAiKe5A", "latitude": 36.9949106, "longitude": -86.43150059999999, "care_type": "OB-GYN"}, {"name": "Dr. Joe T. Davis, MD", "address": "1805 Scottsville Rd, Bowling Green, KY 42103", "city": "Bowling Green", "phone": "+1 270-781-3415", "website": "", "rating": 2.3, "reviews": 3, "place_id": "ChIJJeLlkL3oZYgRYHNCPnaoCNQ", "latitude": 36.9655305, "longitude": -86.43263859999999, "care_type": "OB-GYN"}, {"name": "Kayla Robinson, D.O.", "address": "201 Park St, Bowling Green, KY 42101", "city": "Bowling Green", "phone": "+1 270-781-2111", "website": "https://www.gravesgilbert.com/physicians/kayla-robinson-do/", "rating": 5.0, "reviews": 3, "place_id": "ChIJBWfyLs3vZYgRF8gfABdvfIg", "latitude": 36.9968113, "longitude": -86.43020279999999, "care_type": "OB-GYN"}, {"name": "Dr. Steven M. Beverly, MD", "address": "201 Park St 2nd floor, Bowling Green, KY 42101", "city": "Bowling Green", "phone": "+1 270-781-2111", "website": "", "rating": 5.0, "reviews": 2, "place_id": "ChIJfbE2cL_oZYgRbItH_fej8YY", "latitude": 36.9683918, "longitude": -86.4379273, "care_type": "OB-GYN"}, {"name": "The Perinatal Group", "address": "720 E 2nd Ave #305, Bowling Green, KY 42101", "city": "Bowling Green", "phone": "+1 270-495-1200", "website": "http://www.theperinatalgroup.com/", "rating": 3.7, "reviews": 3, "place_id": "ChIJ81PMaD3vZYgR8Dc1vTdhybM", "latitude": 36.9965092, "longitude": -86.4285766, "care_type": "OB-GYN"}, {"name": "Heath Sutton, M.D.", "address": "201 Park St, Bowling Green, KY 42101", "city": "Bowling Green", "phone": "+1 270-780-5235", "website": "https://www.gravesgilbert.com/physicians/heath-sutton-md/", "rating": 5.0, "reviews": 3, "place_id": "ChIJ-2c-fOPvZYgRY5sBO0dfC38", "latitude": 36.9968113, "longitude": -86.43020279999999, "care_type": "OB-GYN"}, {"name": "Jeffery W. Nemec, M.D., FACOG", "address": "523 Park St Suite 606, Bowling Green, KY 42101", "city": "Bowling Green", "phone": "+1 270-781-0075", "website": "https://medcenterhealth.org/person/jeffery-nemec-md/", "rating": 4.6, "reviews": 10, "place_id": "ChIJZcCuCU_vZYgR9StLPPIGPdI", "latitude": 36.9940984, "longitude": -86.4348232, "care_type": "OB-GYN"}, {"name": "Norton Children's Maternal - Fetal Medicine - Bowling Green", "address": "523 Park St, Bowling Green, KY 42101", "city": "Bowling Green", "phone": "+1 270-796-4169", "website": "https://nortonchildrens.com/location/loc0000191842%3Futm_source%3Dthird-party%26utm_medium%3Dlistings%26utm_campaign%3Dwom-dtc%26utm_content%3Dlocation-page", "rating": 3.0, "reviews": 2, "place_id": "ChIJSaSHt7jvZYgRhfFJvyYHQvs", "latitude": 36.9940431, "longitude": -86.43484889999999, "care_type": "OB-GYN"}, {"name": "Sandhu Manmeet K MD", "address": "350 Park St, Bowling Green, KY 42101", "city": "Bowling Green", "phone": "+1 270-781-0075", "website": "", "rating": 4.0, "reviews": 12, "place_id": "ChIJLcGuCU_vZYgRLAdRFE6rnrk", "latitude": 36.9949362, "longitude": -86.43148169999999, "care_type": "OB-GYN"}, {"name": "Dr. Deborah A. Kasica, MD", "address": "Medical Arts Building, 350 Park St #203, Bowling Green, KY 42101", "city": "Bowling Green", "phone": "+1 270-781-0075", "website": "", "rating": 3.4, "reviews": 5, "place_id": "ChIJZcCuCU_vZYgRoQVNL21kuEs", "latitude": 36.9949361, "longitude": -86.43148169999999, "care_type": "OB-GYN"}, {"name": "Parisa Samimi, M.D.", "address": "201 Park St, Bowling Green, KY 42101", "city": "Bowling Green", "phone": "+1 270-783-0452", "website": "", "rating": 5.0, "reviews": 2, "place_id": "ChIJBRLzCczvZYgREBcrmzJJl0c", "latitude": 36.9968512, "longitude": -86.4301977, "care_type": "OB-GYN"}, {"name": "Dr. Martha L. Morgan, DO", "address": "720 E 2nd Ave # 303, Bowling Green, KY 42101", "city": "Bowling Green", "phone": "", "website": "", "rating": 1.0, "reviews": 1, "place_id": "ChIJ-SaX_E_vZYgRoV_RBrUfq1A", "latitude": 36.9965092, "longitude": -86.4285766, "care_type": "OB-GYN"}, {"name": "Jay Tomes Davis, M.D.", "address": "546 Park St #200, Bowling Green, KY 42101", "city": "Bowling Green", "phone": "+1 270-843-5133", "website": "", "rating": 3.3, "reviews": 3, "place_id": "ChIJ-5_eM0nvZYgR8Mv6yWH69_w", "latitude": 36.9931629, "longitude": -86.4344428, "care_type": "OB-GYN"}, {"name": "Leigh K. Lindsey, CNM", "address": "Medical Arts Building, 350 Park St #203, Bowling Green, KY 42101", "city": "Bowling Green", "phone": "+1 270-781-0075", "website": "http://www.womenshealthspecialists.net/our_providers/leigh_lindsey_phd_cnm.aspx", "rating": 4.0, "reviews": 4, "place_id": "ChIJZcCuCU_vZYgRpz6IXIHfojc", "latitude": 36.9949482, "longitude": -86.43142, "care_type": "OB-GYN"}, {"name": "Dr. Lizy Andrews, MD", "address": "Medical Arts Building, 350 Park St #203, Bowling Green, KY 42101", "city": "Bowling Green", "phone": "+1 270-781-0075", "website": "", "rating": null, "reviews": 0, "place_id": "ChIJZcCuCU_vZYgRlfmKzOyJld8", "latitude": 36.995286, "longitude": -86.43132, "care_type": "OB-GYN"}, {"name": "Kristin E Reeve, MD", "address": "523 Park St, Bowling Green, KY 42101", "city": "Bowling Green", "phone": "+1 270-796-4169", "website": "https://providers.nortonhealthcare.com/provider/Kristin%2BE%2BReeve/1978394/%3Futm_source%3DYext", "rating": null, "reviews": 0, "place_id": "ChIJg04YFKXvZYgRaVI9YNWYwF0", "latitude": 36.9940984, "longitude": -86.4348232, "care_type": "OB-GYN"}, {"name": "Mureena A Turnquest Wells, MD", "address": "523 Park St, Bowling Green, KY 42101", "city": "Bowling Green", "phone": "+1 270-796-4169", "website": "https://providers.nortonhealthcare.com/provider/Mureena%2BA%2BTurnquest-Wells/477660%3Futm_source%3Dthird-party%26utm_medium%3Dlistings%26utm_campaign%3Dwom-dtc%26utm_content%3Dprovider-profile", "rating": null, "reviews": 0, "place_id": "ChIJd1QNG6bvZYgRTAnKfKoeOXo", "latitude": 36.9940984, "longitude": -86.4348232, "care_type": "OB-GYN"}, {"name": "Kendal K Stephens, MD", "address": "523 Park St Suite 606, Bowling Green, KY 42101", "city": "Bowling Green", "phone": "+1 270-796-4169", "website": "https://providers.nortonhealthcare.com/provider/Kendal%2BK%2BStephens/499042%3Futm_source%3Dthird-party%26utm_medium%3Dlistings%26utm_campaign%3Dwom-dtc%26utm_content%3Dprovider-profile", "rating": null, "reviews": 0, "place_id": "ChIJBa4uxmrvZYgRzVv3PTkj_rg", "latitude": 36.9940984, "longitude": -86.4348232, "care_type": "OB-GYN"}, {"name": "Kristine Y Lain, MD", "address": "523 Park St Suite 606, Bowling Green, KY 42101", "city": "Bowling Green", "phone": "+1 270-796-4169", "website": "https://providers.nortonhealthcare.com/provider/Kristine%2BY%2BLain/2613431%3Futm_source%3Dthird-party%26utm_medium%3Dlistings%26utm_campaign%3Dwom-dtc%26utm_content%3Dprovider-profile", "rating": null, "reviews": 0, "place_id": "ChIJ3aptYhDvZYgRt5V9hxkfQMQ", "latitude": 36.9940984, "longitude": -86.4348232, "care_type": "OB-GYN"}, {"name": "Dr. Farhan J. Malik, MD", "address": "201 Park St, Bowling Green, KY 42101", "city": "Bowling Green", "phone": "+1 270-781-5111", "website": "http://gravesgilbert.com/", "rating": null, "reviews": 0, "place_id": "ChIJczf140_vZYgRGREbUNciyjA", "latitude": 36.9968814, "longitude": -86.43018839999999, "care_type": "OB-GYN"}, {"name": "Kristine Y Lain, MD", "address": "225 Natchez Trace Ave Suite 606, Bowling Green, KY 42103", "city": "Bowling Green", "phone": "+1 270-723-0458", "website": "https://providers.nortonhealthcare.com/provider/Kristine%2BY%2BLain/2613431%3Futm_source%3Dthird-party%26utm_medium%3Dlistings%26utm_campaign%3Dwom-dtc%26utm_content%3Dprovider-profile", "rating": null, "reviews": 0, "place_id": "ChIJY7SUQ_TnZYgRIu5yyFjFIi4", "latitude": 36.9671926, "longitude": -86.3997905, "care_type": "OB-GYN"}, {"name": "Dr. Randy A. Mccool, MD", "address": "201 Park St, Bowling Green, KY 42101", "city": "Bowling Green", "phone": "+1 270-781-5111", "website": "http://gravesgilbert.com/", "rating": null, "reviews": 0, "place_id": "ChIJczf140_vZYgRkadHvbNajok", "latitude": 36.9968512, "longitude": -86.4301977, "care_type": "OB-GYN"}, {"name": "Mureena Turnquest Wells, MD", "address": "720 E 2nd Ave Suite 103, Bowling Green, KY 42101", "city": "Bowling Green", "phone": "+1 270-723-0458", "website": "", "rating": null, "reviews": 0, "place_id": "ChIJax5wk7XvZYgRldqZpE95s4w", "latitude": 36.9965092, "longitude": -86.4285766, "care_type": "OB-GYN"}, {"name": "Dr. Lisa R. Edge, MD", "address": "201 Park St, Bowling Green, KY 42101", "city": "Bowling Green", "phone": "+1 270-781-5111", "website": "http://gravesgilbert.com/", "rating": null, "reviews": 0, "place_id": "ChIJczf140_vZYgRgLDbpWSG5VI", "latitude": 36.9968512, "longitude": -86.4301977, "care_type": "OB-GYN"}, {"name": "Karen Lyons", "address": "825 E 4th Ave, Bowling Green, KY 42101", "city": "Bowling Green", "phone": "+1 270-526-2145", "website": "https://medcenterhealth.org/person/karen-lyons-md/", "rating": null, "reviews": 0, "place_id": "ChIJ__-vZ07vZYgRRmOpjlQV-o0", "latitude": 36.9931313, "longitude": -86.4308544, "care_type": "OB-GYN"}, {"name": "Kristin E Reeve, MD", "address": "225 Natchez Trace Ave Suite 606, Bowling Green, KY 42103", "city": "Bowling Green", "phone": "+1 270-723-0458", "website": "https://providers.nortonhealthcare.com/provider/Kristin%2BE%2BReeve/1978394/%3Futm_source%3DYext", "rating": null, "reviews": 0, "place_id": "ChIJd2QfFPfnZYgR-HXp-xaRhrc", "latitude": 36.9671926, "longitude": -86.3997905, "care_type": "OB-GYN"}, {"name": "Whitney E Jamie, MD", "address": "523 Park St Suite 606, Bowling Green, KY 42101", "city": "Bowling Green", "phone": "+1 270-796-4169", "website": "https://providers.nortonhealthcare.com/provider/Whitney%2BE%2BJamie/484146%3Futm_source%3Dthird-party%26utm_medium%3Dlistings%26utm_campaign%3Dwom-dtc%26utm_content%3Dprovider-profile", "rating": null, "reviews": 0, "place_id": "ChIJPzzxdhDvZYgR3MiFD8lCu3I", "latitude": 36.9940984, "longitude": -86.4348232, "care_type": "OB-GYN"}, {"name": "Whitney Jamie, MD", "address": "720 E 2nd Ave Suite 103, Bowling Green, KY 42101", "city": "Bowling Green", "phone": "+1 270-723-0458", "website": "https://providers.nortonhealthcare.com/provider/Whitney%2BE%2BJamie/484146", "rating": null, "reviews": 0, "place_id": "ChIJLWoDmdbvZYgRnNDp4l2ptp8", "latitude": 36.9965092, "longitude": -86.4285766, "care_type": "OB-GYN"}, {"name": "Thomas M Jenkins, MD", "address": "523 Park St Suite 606, Bowling Green, KY 42101", "city": "Bowling Green", "phone": "+1 270-796-4169", "website": "https://providers.nortonhealthcare.com/provider/Thomas%2BM%2BJenkins/482551%3Futm_source%3Dthird-party%26utm_medium%3Dlistings%26utm_campaign%3Dwom-dtc%26utm_content%3Dprovider-profile", "rating": null, "reviews": 0, "place_id": "ChIJ_X5gUO_vZYgRhXlQc3BDh_E", "latitude": 36.9940984, "longitude": -86.4348232, "care_type": "OB-GYN"}, {"name": "William Cuthrell, MD", "address": "720 E 2nd Ave Suite 103, Bowling Green, KY 42101", "city": "Bowling Green", "phone": "+1 270-723-0458", "website": "https://providers.nortonhealthcare.com/provider/W%2BVance%2BCuthrell/467494%3Futm_source%3DYext", "rating": null, "reviews": 0, "place_id": "ChIJfxwV_rZyaYgR4Ae3-EVvC1s", "latitude": 36.9965092, "longitude": -86.4285766, "care_type": "OB-GYN"}, {"name": "Helen Y How, MD", "address": "523 Park St Suite 606, Bowling Green, KY 42101", "city": "Bowling Green", "phone": "+1 270-796-4169", "website": "https://providers.nortonhealthcare.com/provider/Helen%2BY%2BHow/469702%3Futm_source%3Dthird-party%26utm_medium%3Dlistings%26utm_campaign%3Dwom-dtc%26utm_content%3Dprovider-profile", "rating": null, "reviews": 0, "place_id": "ChIJZ7zf0Q3vZYgRNyqTZI7FSV8", "latitude": 36.9940984, "longitude": -86.4348232, "care_type": "OB-GYN"}, {"name": "Jamil T ElFarra, MD", "address": "523 Park St Suite 606, Bowling Green, KY 42101", "city": "Bowling Green", "phone": "+1 270-796-4169", "website": "https://providers.nortonhealthcare.com/provider/Jamil%2BT%2BElFarra/517927%3Futm_source%3Dthird-party%26utm_medium%3Dlistings%26utm_campaign%3Dwom-dtc%26utm_content%3Dprovider-profile", "rating": null, "reviews": 0, "place_id": "ChIJvwZ4jnnvZYgRc-1ZAq6KK8M", "latitude": 36.9940984, "longitude": -86.4348232, "care_type": "OB-GYN"}, {"name": "Thomas Jenkins, MD", "address": "720 E 2nd Ave Suite 103, Bowling Green, KY 42101", "city": "Bowling Green", "phone": "+1 270-723-0458", "website": "https://providers.nortonhealthcare.com/provider/Thomas%2BM%2BJenkins/482551%3Futm_source%3DYext", "rating": null, "reviews": 0, "place_id": "ChIJe2d5aioLaYgRFI-N_PffNwI", "latitude": 36.9965092, "longitude": -86.4285766, "care_type": "OB-GYN"}, {"name": "Dr. Elizabeth Ottman", "address": "2851 New Hartford Rd, Owensboro, KY 42303", "city": "Owensboro", "phone": "+1 270-688-6035", "website": "http://www.womenshealthcarepartners.net/procedures.asp", "rating": 4.8, "reviews": 28, "place_id": "ChIJ1Stt6PO6b4gRk-FN2v0RUyM", "latitude": 37.7473793, "longitude": -87.0962371, "care_type": "OB-GYN"}, {"name": "Owensboro Health Women's Pavilion", "address": "2200 E Parrish Ave Building B, Suite 201, Owensboro, KY 42303", "city": "Owensboro", "phone": "+1 270-926-3700", "website": "https://www.owensborohealth.org/locations/ohmg-profile/womens-pavilion-psc%3Futm_source%3Dlocal-listing%26utm_medium%3Dorganic%26utm_campaign%3Dwebsite-link", "rating": 4.1, "reviews": 114, "place_id": "ChIJP5OLxoa6b4gRF3D4i7JnVCo", "latitude": 37.7591325, "longitude": -87.0780511, "care_type": "OB-GYN"}, {"name": "Summit Obstetrics & Gynecology, PSC", "address": "3821 Vincent Station Dr, Owensboro, KY 42303", "city": "Owensboro", "phone": "+1 270-478-5334", "website": "https://summitowensboro.com/", "rating": 3.6, "reviews": 100, "place_id": "ChIJQwAdPr26b4gR2OWoTUjvJOY", "latitude": 37.781904, "longitude": -87.060643, "care_type": "OB-GYN"}, {"name": "Suzanne Rashidian, DO", "address": "3821 Vincent Station Dr, Owensboro, KY 42303", "city": "Owensboro", "phone": "+1 270-478-5334", "website": "http://www.owensborohealth.org/find-doctor/basic-profile/%3Fid%3D3945", "rating": 3.9, "reviews": 33, "place_id": "ChIJffzafQawb4gRJXgY6skvIg0", "latitude": 37.781904, "longitude": -87.060643, "care_type": "OB-GYN"}, {"name": "Maria E. Smith, MD", "address": "1921 Leitchfield Rd, Owensboro, KY 42303", "city": "Owensboro", "phone": "+1 270-478-5334", "website": "http://www.owensborohealth.org/find-doctor/basic-profile/maria-smith/", "rating": 4.3, "reviews": 18, "place_id": "ChIJbfo3RbP3MhURtPnp6UNsqHM", "latitude": 37.7611956, "longitude": -87.08112009999999, "care_type": "OB-GYN"}, {"name": "Angela Dawson, MD", "address": "2200 E Parrish Ave Building B, Suite 201, Owensboro, KY 42303", "city": "Owensboro", "phone": "+1 270-926-3700", "website": "https://www.owensborohealth.org/find-doctor/basic-profile/angela-dawson%3Futm_source%3Dlocal-listing%26utm_medium%3Dorganic%26utm_campaign%3Dwebsite-link", "rating": 4.0, "reviews": 7, "place_id": "ChIJyZtwcLu6b4gRtddVPHfzeKg", "latitude": 37.7591307, "longitude": -87.077989, "care_type": "OB-GYN"}, {"name": "Good Richard MD", "address": "3240 Mt Moriah Ave, Owensboro, KY 42303", "city": "Owensboro", "phone": "+1 270-926-4449", "website": "", "rating": 3.8, "reviews": 60, "place_id": "ChIJ17ZVZhW6b4gRKeeDqzVGU4A", "latitude": 37.7539647, "longitude": -87.05962749999999, "care_type": "OB-GYN"}, {"name": "Julie Taylor, DO", "address": "2200 E Parrish Ave Building B, Suite 201, Owensboro, KY 42303", "city": "Owensboro", "phone": "+1 270-926-3700", "website": "https://www.owensborohealth.org/find-doctor/basic-profile/julie-taylor", "rating": 5.0, "reviews": 1, "place_id": "ChIJ4ZvLhDu7b4gRnjfbbhk04HY", "latitude": 37.7591008, "longitude": -87.0780173, "care_type": "OB-GYN"}, {"name": "Andrea Moore, MD, FACOG", "address": "2200 E Parrish Ave Building B, Suite 201, Owensboro, KY 42303", "city": "Owensboro", "phone": "+1 270-926-3700", "website": "https://www.owensborohealth.org/find-doctor/basic-profile/andrea-moore%3Futm_source%3Dlocal-listing%26utm_medium%3Dorganic%26utm_campaign%3Dwebsite-link", "rating": 3.3, "reviews": 7, "place_id": "ChIJP5OLxoa6b4gR1z4u4uCQsVk", "latitude": 37.7590975, "longitude": -87.0780466, "care_type": "OB-GYN"}, {"name": "Owensboro Health Obstetrics & Gynecology in Leitchfield", "address": "910 Wallace Ave, Leitchfield, KY 42754", "city": "Leitchfield", "phone": "+1 270-259-2700", "website": "https://www.owensborohealth.org/locations/profile/obgyn-leitchfield/%3Futm_source%3Dlocal-listing%26utm_medium%3Dorganic%26utm_campaign%3Dwebsite-link", "rating": 4.8, "reviews": 16, "place_id": "ChIJzYzkWO1Mb4gRawo6P6NIDqk", "latitude": 37.4727496, "longitude": -86.2885366, "care_type": "OB-GYN"}, {"name": "Owensboro Health Obstetrics & Gynecology in Powderly", "address": "Owensboro Health Muhlenberg Healthplex, 2025 W Everly Brothers Blvd Suite 2A, Powderly, KY 42367", "city": "Powderly", "phone": "+1 270-377-2600", "website": "https://www.owensborohealth.org/locations/ohmg-profile/owensboro-health-medical-group-obstetrics-gynecology%3Futm_source%3Dlocal-listing%26utm_medium%3Dorganic%26utm_campaign%3Dwebsite-link", "rating": 4.9, "reviews": 10, "place_id": "ChIJGSrnaSlhZYgREBTDxD1W2xQ", "latitude": 37.2397513, "longitude": -87.151406, "care_type": "OB-GYN"}, {"name": "Owensboro Health Maternal & Fetal Medicine", "address": "1301 Pleasant Valley Rd Third Floor, Suite 301, Owensboro, KY 42303", "city": "Owensboro", "phone": "+1 270-417-7720", "website": "https://www.owensborohealth.org/locations/profile/maternal-fetal-location/%3Futm_source%3Dlocal-listing%26utm_medium%3Dorganic%26utm_campaign%3Dwebsite-link", "rating": 4.5, "reviews": 17, "place_id": "ChIJJbZVZhW6b4gRI0tQh4xYE9w", "latitude": 37.7782056, "longitude": -87.0640854, "care_type": "OB-GYN"}, {"name": "Women's Healthcare Partners", "address": "2851 New Hartford Rd, Owensboro, KY 42303", "city": "Owensboro", "phone": "+1 270-688-6035", "website": "https://womenshealthcarepartners.net/", "rating": null, "reviews": 0, "place_id": "ChIJ__8_6PO6b4gRxqX3SXW0fis", "latitude": 37.7473248, "longitude": -87.09621279999999, "care_type": "OB-GYN"}, {"name": "Owensboro Health Obstetrics & Gynecology in Henderson", "address": "1200 Barret Blvd, Henderson, KY 42420", "city": "Henderson", "phone": "+1 270-844-8600", "website": "https://www.owensborohealth.org/locations/profile/henderson-obgyn/%3Futm_source%3Dlocal-listing%26utm_medium%3Dorganic%26utm_campaign%3Dwebsite-link", "rating": 5.0, "reviews": 2, "place_id": "ChIJD7d-Fv0pcIgRUT_vigc2kfY", "latitude": 37.8543198, "longitude": -87.5683967, "care_type": "OB-GYN"}, {"name": "Lisa Wimsatt, APRN, CNM", "address": "2200 E Parrish Ave Building B, Suite 201, Owensboro, KY 42303", "city": "Owensboro", "phone": "+1 270-926-3700", "website": "https://www.owensborohealth.org/find-doctor/basic-profile/lisa-wimsatt%3Futm_source%3Dlocal-listing%26utm_medium%3Dorganic%26utm_campaign%3Dwebsite-link", "rating": 5.0, "reviews": 5, "place_id": "ChIJ1Stt6PO6b4gRwvqopXwrLr8", "latitude": 37.7591008, "longitude": -87.0780173, "care_type": "OB-GYN"}, {"name": "Marlena Masavage, MD", "address": "2200 E Parrish Ave Building B, Suite 201, Owensboro, KY 42303", "city": "Owensboro", "phone": "+1 270-926-3700", "website": "https://www.owensborohealth.org/find-doctor/basic-profile/marlena-masavage%3Futm_source%3Dlocal-listing%26utm_medium%3Dorganic%26utm_campaign%3Dwebsite-link", "rating": null, "reviews": 0, "place_id": "ChIJ2-orPR-7b4gRkHU8UovYDRU", "latitude": 37.7591008, "longitude": -87.0780173, "care_type": "OB-GYN"}, {"name": "Megan Metcalf, MD", "address": "2200 E Parrish Ave Building B, Suite 201, Owensboro, KY 42303", "city": "Owensboro", "phone": "+1 270-926-3700", "website": "https://www.owensborohealth.org/find-doctor/basic-profile/megan-metcalf%3Futm_source%3Dlocal-listing%26utm_medium%3Dorganic%26utm_campaign%3Dwebsite-link", "rating": null, "reviews": 0, "place_id": "ChIJa1JKzvi7b4gRPLVbwh9mUSM", "latitude": 37.7591008, "longitude": -87.0780173, "care_type": "OB-GYN"}, {"name": "Ki\u2019ara Branham, MD", "address": "2200 E Parrish Ave Building B, Suite 201, Owensboro, KY 42303", "city": "Owensboro", "phone": "+1 270-926-3700", "website": "https://www.owensborohealth.org/find-doctor/basic-profile/kiara-branham%3Futm_source%3Dlocal-listing%26utm_medium%3Dorganic%26utm_campaign%3Dwebsite-link", "rating": 4.3, "reviews": 4, "place_id": "ChIJBWv7iJ27b4gR7zgTHQmBHMg", "latitude": 37.7591008, "longitude": -87.0780173, "care_type": "OB-GYN"}, {"name": "Myra Henderson", "address": "1201 Pleasant Valley Rd, Owensboro, KY 42303", "city": "Owensboro", "phone": "+1 270-417-2000", "website": "https://www.owensborohealth.org/find-doctor/basic-profile/myra-henderson", "rating": null, "reviews": 0, "place_id": "ChIJ____QwKwb4gRUDN-Nm-PX04", "latitude": 37.7792914, "longitude": -87.0639872, "care_type": "OB-GYN"}, {"name": "Rashada Kim B MD", "address": "811 E Parrish Ave, Owensboro, KY 42303", "city": "Owensboro", "phone": "+1 270-417-5340", "website": "", "rating": 1.9, "reviews": 13, "place_id": "ChIJMQhGgoe6b4gRLhDg7F_JARw", "latitude": 37.7657416, "longitude": -87.1019986, "care_type": "OB-GYN"}, {"name": "Louis Riley", "address": "1201 Pleasant Valley Rd, Owensboro, KY 42303", "city": "Owensboro", "phone": "+1 270-417-2000", "website": "", "rating": null, "reviews": 0, "place_id": "ChIJ____QwKwb4gR3np1oIFoHk0", "latitude": 37.7792914, "longitude": -87.0639872, "care_type": "OB-GYN"}, {"name": "Jorge Cardenas", "address": "1201 Pleasant Valley Rd, Owensboro, KY 42303", "city": "Owensboro", "phone": "+1 864-908-3530", "website": "", "rating": 1.0, "reviews": 1, "place_id": "ChIJ____QwKwb4gRDlnh5sC01F4", "latitude": 37.7792914, "longitude": -87.0639872, "care_type": "OB-GYN"}, {"name": "Dr. Linda Mcclain", "address": "1201 Pleasant Valley Rd, Owensboro, KY 42303", "city": "Owensboro", "phone": "+1 270-417-2000", "website": "", "rating": null, "reviews": 0, "place_id": "ChIJ____QwKwb4gRfkNidPyD1pY", "latitude": 37.7792914, "longitude": -87.0639872, "care_type": "OB-GYN"}, {"name": "Dr. Donald Shackleford", "address": "1201 Pleasant Valley Rd, Owensboro, KY 42303", "city": "Owensboro", "phone": "+1 270-417-2000", "website": "", "rating": null, "reviews": 0, "place_id": "ChIJ____QwKwb4gRB9mTzc3dn6c", "latitude": 37.7792914, "longitude": -87.0639872, "care_type": "OB-GYN"}, {"name": "Briones Christine C MD", "address": "1102 Triplett St # 2100, Owensboro, KY 42303", "city": "Owensboro", "phone": "+1 270-685-8235", "website": "", "rating": 5.0, "reviews": 1, "place_id": "ChIJFdeovH26b4gRj984tn_t1SE", "latitude": 37.7660411, "longitude": -87.1039222, "care_type": "OB-GYN"}, {"name": "Kelly Dirig, MD", "address": "310 N L Rogers Wells Blvd, Glasgow, KY 42141", "city": "Glasgow", "phone": "+1 270-651-1111", "website": "https://www.tjregionalhealth.org/provider-directory/provider/kelly-dirig-md/", "rating": 4.1, "reviews": 15, "place_id": "ChIJQdH0OAo9ZogRjqBpMNHZdQU", "latitude": 37.0071753, "longitude": -85.9287873, "care_type": "OB-GYN"}, {"name": "Dr. Catherine Feese, MD,", "address": "310 N L Rogers Wells Blvd, Glasgow, KY 42141", "city": "Glasgow", "phone": "+1 270-659-5865", "website": "http://www.tjregionalhealth.org/", "rating": 2.8, "reviews": 17, "place_id": "ChIJ4SGxABJyaIgRPJ3CaDjS7Q8", "latitude": 37.0078521, "longitude": -85.9299561, "care_type": "OB-GYN"}, {"name": "John Craddock, MD", "address": "310 N L Rogers Wells Blvd, Glasgow, KY 42141", "city": "Glasgow", "phone": "+1 270-651-1111", "website": "https://www.tjregionalhealth.org/provider-directory/provider/john-craddock-md/", "rating": 3.7, "reviews": 15, "place_id": "ChIJQdH0OAo9ZogRbwd5M0EvDVg", "latitude": 37.0071753, "longitude": -85.9287873, "care_type": "OB-GYN"}, {"name": "T J Health Partners", "address": "1008 Glenview Dr, Glasgow, KY 42141", "city": "Glasgow", "phone": "+1 270-629-3331", "website": "https://weence.com/medical/doctors/glasgow-2/t-j-health-partners/", "rating": 4.0, "reviews": 1, "place_id": "ChIJ2bIhHAg9ZogRy6mLV2-06fk", "latitude": 37.0122028, "longitude": -85.9019321, "care_type": "OB-GYN"}, {"name": "Margaret Stanley, CNM", "address": "310 N L Rogers Wells Blvd, Glasgow, KY 42141", "city": "Glasgow", "phone": "+1 270-651-1111", "website": "https://www.tjregionalhealth.org/provider-directory/provider/maggie-stanley-cnm/", "rating": 5.0, "reviews": 2, "place_id": "ChIJRWA2Ooc9ZogRQ-HZTPyVaag", "latitude": 37.0071753, "longitude": -85.9287873, "care_type": "OB-GYN"}, {"name": "Dr. Gerald Thorpe", "address": "310 N L Rogers Wells Blvd, Glasgow, KY 42141", "city": "Glasgow", "phone": "+1 270-651-1111", "website": "", "rating": 2.3, "reviews": 3, "place_id": "ChIJRWA2Ooc9ZogRKSG6nm1qe08", "latitude": 37.0071753, "longitude": -85.9287873, "care_type": "OB-GYN"}, {"name": "Nellie Bell, CNMNP", "address": "310 N L Rogers Wells Blvd, Glasgow, KY 42141", "city": "Glasgow", "phone": "+1 270-651-1111", "website": "https://www.tjregionalhealth.org/provider-directory/provider/nellie-bell-cnm/", "rating": 5.0, "reviews": 1, "place_id": "ChIJRWA2Ooc9ZogRMgWB0_rXYb8", "latitude": 37.0071753, "longitude": -85.9287873, "care_type": "OB-GYN"}, {"name": "Women's Clinic", "address": "310 N L Rogers Wells Blvd, Glasgow, KY 42141", "city": "Glasgow", "phone": "+1 270-651-9755", "website": "http://www.tjsamson.org/", "rating": null, "reviews": 0, "place_id": "ChIJU9f0OAo9ZogR7jEMORAbwJk", "latitude": 37.0071754, "longitude": -85.9287873, "care_type": "OB-GYN"}, {"name": "Dr. Gerald Thorpe", "address": "1301 N Race St, Glasgow, KY 42141", "city": "Glasgow", "phone": "+1 270-651-1111", "website": "", "rating": 1.0, "reviews": 2, "place_id": "ChIJq6qqNqc9ZogR0kX_6Uu527I", "latitude": 37.0108419, "longitude": -85.9045766, "care_type": "OB-GYN"}, {"name": "Glasgow Ob/Gyn Specialists", "address": "301 Professional Park Dr, Glasgow, KY 42141", "city": "Glasgow", "phone": "+1 270-651-5004", "website": "", "rating": null, "reviews": 0, "place_id": "ChIJz1B4iKg9ZogR6AVjBbYyNCs", "latitude": 37.0103274, "longitude": -85.8985695, "care_type": "OB-GYN"}, {"name": "Kelly Dirig", "address": "1301 N Race St, Glasgow, KY 42141", "city": "Glasgow", "phone": "+1 270-651-1111", "website": "https://www.tjregionalhealth.org/provider-directory/provider/kelly-dirig-md/", "rating": null, "reviews": 0, "place_id": "ChIJq6qqNqc9ZogRcKU2Gv9YZd8", "latitude": 37.0108419, "longitude": -85.9045766, "care_type": "OB-GYN"}, {"name": "Ray A. Gibson, MD", "address": "310 N L Rogers Wells Blvd, Glasgow, KY 42141", "city": "Glasgow", "phone": "+1 270-651-9755", "website": "http://www.tjsamson.org/", "rating": null, "reviews": 0, "place_id": "ChIJVbpsOoQ9ZogRGO4wxNn2gmU", "latitude": 37.0071753, "longitude": -85.9287873, "care_type": "OB-GYN"}, {"name": "John Craddock", "address": "1330 N Race St, Glasgow, KY 42141", "city": "Glasgow", "phone": "+1 270-651-4444", "website": "https://www.tjregionalhealth.org/provider-directory/provider/john-craddock-md/", "rating": null, "reviews": 0, "place_id": "ChIJq6raBgo9ZogRlBA7FmWv448", "latitude": 37.013614, "longitude": -85.9048163, "care_type": "OB-GYN"}, {"name": "Bharati Mody", "address": "201 Professional Park Dr, Glasgow, KY 42141", "city": "Glasgow", "phone": "+1 270-651-7441", "website": "", "rating": 2.0, "reviews": 1, "place_id": "ChIJAQAQvKc9ZogRRFbD-TlR9L0", "latitude": 37.0107751, "longitude": -85.90142089999999, "care_type": "OB-GYN"}, {"name": "Dr. Jon H. Voss, MD", "address": "305 Estill St, Berea, KY 40403", "city": "Berea", "phone": "+1 859-986-6715", "website": "", "rating": null, "reviews": 0, "place_id": "ChIJPYnEvu3hQogRtsJNLJNTmBY", "latitude": 37.5766235, "longitude": -84.28630559999999, "care_type": "OB-GYN"}, {"name": "R. Paige Walker, MD", "address": "4420 Dixie Hwy Suite 128, Louisville, KY 40216", "city": "Louisville", "phone": "+1 502-449-6400", "website": "https://providers.nortonhealthcare.com/provider/Rebecca%2BP%2BWalker/477014%3Futm_source%3Dthird-party%26utm_medium%3Dlistings%26utm_campaign%3Dwom-dtc%26utm_content%3Dprovider-profile", "rating": 5.0, "reviews": 6, "place_id": "ChIJJ8xzcrcTaYgR80dgjz2yCCk", "latitude": 38.1823347, "longitude": -85.816969, "care_type": "OB-GYN"}, {"name": "Walker Paige MD", "address": "4420 Dixie Hwy #116, Louisville, KY 40216", "city": "Louisville", "phone": "+1 502-449-6400", "website": "https://providers.nortonhealthcare.com/provider/r-paige-walker/477014", "rating": 5.0, "reviews": 2, "place_id": "ChIJv8kqpLcTaYgR_1DS2eVjPAA", "latitude": 38.1824865, "longitude": -85.8169018, "care_type": "OB-GYN"}, {"name": "Norton Women's Specialists - Dixie", "address": "4420 Dixie Hwy Suite 128, Louisville, KY 40216", "city": "Louisville", "phone": "+1 502-449-6400", "website": "https://nortonhealthcare.com/location/loc0000192206%3Futm_source%3Dthird-party%26utm_medium%3Dlistings%26utm_campaign%3Dwom-dtc%26utm_content%3Dlocation-page", "rating": 3.0, "reviews": 57, "place_id": "ChIJJ8xzcrcTaYgRzjXEMq2jyz8", "latitude": 38.1818323, "longitude": -85.81700719999999, "care_type": "OB-GYN"}, {"name": "UofL Physicians \u2013 Urogynecology Associates", "address": "4331 Churchman Ave, Louisville, KY 40215", "city": "Louisville", "phone": "+1 502-977-5907", "website": "https://uoflhealth.org/locations/uofl-physicians-urogynecology-associates-2/%3Futm_source%3DGMBSocialClimb%26utm_medium%3DUofLPhysicians%25E2%2580%2593UrogynecologyAssociates", "rating": 5.0, "reviews": 21, "place_id": "ChIJ9WNLOIsTaYgRPO1owTxWlKI", "latitude": 38.1783463, "longitude": -85.7922504, "care_type": "OB-GYN"}, {"name": "UofL Physicians \u2013 OB/GYN & Women\u2019s Health", "address": "401 E Chestnut St Suites 410 & 470, Louisville, KY 40202", "city": "Louisville", "phone": "+1 502-588-4400", "website": "https://uoflhealth.org/locations/uofl-physicians-ob-gyn-womens-health/%3Futm_source%3DGMBSocialClimb%26utm_medium%3DUofLPhysicians%25E2%2580%2593OB%252FGYN%2526Women%25E2%2580%2599sHealth", "rating": 4.5, "reviews": 312, "place_id": "ChIJ4aR90rdyaYgRCH8hal9ug9o", "latitude": 38.2480521, "longitude": -85.7467891, "care_type": "OB-GYN"}, {"name": "Ankita Gupta, MD, MPH", "address": "4331 Churchman Ave, Louisville, KY 40215", "city": "Louisville", "phone": "+1 502-977-5907", "website": "https://uoflhealth.org/provider/ankita-gupta/", "rating": 5.0, "reviews": 34, "place_id": "ChIJLTFmq4ITaYgRVLv_iHOzU_A", "latitude": 38.1783508, "longitude": -85.79225459999999, "care_type": "OB-GYN"}, {"name": "UofL Health \u2013 Center for Women\u2019s Health", "address": "4500 Churchman Ave, Louisville, KY 40215", "city": "Louisville", "phone": "+1 502-977-5907", "website": "https://uoflhealth.org/locations/uofl-health-center-for-womens-health/%3Futm_source%3DGMBSocialClimb%26utm_medium%3DUofLHealth%25E2%2580%2593CenterforWomen%25E2%2580%2599sHealth", "rating": 4.8, "reviews": 62, "place_id": "ChIJmUovqjgSaYgRzHlFMluDzs4", "latitude": 38.1763684, "longitude": -85.7933049, "care_type": "OB-GYN"}, {"name": "Maria R Schweichler, MD", "address": "4123 Dutchmans Ln Suite 500, Louisville, KY 40207", "city": "Louisville", "phone": "+1 502-894-9494", "website": "https://providers.nortonhealthcare.com/provider/Maria%2BR%2BSchweichler/493944%3Futm_source%3Dthird-party%26utm_medium%3Dlistings%26utm_campaign%3Dwom-dtc%26utm_content%3Dprovider-profile", "rating": 5.0, "reviews": 11, "place_id": "ChIJyRr_tjJ1aYgRL7iU26xDkJ8", "latitude": 38.235725, "longitude": -85.6318308, "care_type": "OB-GYN"}, {"name": "Dr. Karen E. Duckwall, MD", "address": "4100 Taylor Blvd, Louisville, KY 40215", "city": "Louisville", "phone": "+1 502-366-4747", "website": "http://www.fhclouisville.org/", "rating": 5.0, "reviews": 1, "place_id": "ChIJg78z0WsSaYgRJU7oMgSO_bE", "latitude": 38.182778, "longitude": -85.784178, "care_type": "OB-GYN"},