[{"name": "OBGYN West - Premier Women's Health of Minnesota", "address": "14001 Ridgedale Dr # 200, Hopkins, MN 55305", "city": "Hopkins", "phone": "+1 952-249-2000", "website": "https://premierwomenshealthmn.com/practice/obgyn-west/", "rating": 4.6, "reviews": 217, "place_id": "ChIJM8QlyOZKs1IRhxUpHKgjHRo", "latitude": 44.9699562, "longitude": -93.4566406, "care_type": "OB-GYN"}, {"name": "Dr. Gregg A. Teigen, MD", "address": "14001 Ridgedale Dr, Minnetonka, MN 55305", "city": "Minnetonka", "phone": "+1 952-249-2000", "website": "http://www.obgynwest.net/", "rating": 4.9, "reviews": 11, "place_id": "ChIJM8QlyOZKs1IR6h2DhAnq1D4", "latitude": 44.96994429999999, "longitude": -93.45670299999999, "care_type": "OB-GYN"}, {"name": "OBGYN West - Premier Women's Health of Minnesota", "address": "800 Prairie Center Dr #130, Eden Prairie, MN 55344", "city": "Eden Prairie", "phone": "+1 952-249-2000", "website": "https://premierwomenshealthmn.com/practice/obgyn-west/", "rating": 4.3, "reviews": 151, "place_id": "ChIJ1aq2Mr8Y9ocRRJU9i7dLCiU", "latitude": 44.8598002, "longitude": -93.4377641, "care_type": "OB-GYN"}, {"name": "Dr. Andrea L. Messina, MD", "address": "15111 Twelve Oaks Center Dr, Minnetonka, MN 55305", "city": "Minnetonka", "phone": "+1 952-993-4500", "website": "http://www.parknicollet.com/", "rating": 5.0, "reviews": 2, "place_id": "ChIJaWK1VRpLs1IRUsL2rDclj7M", "latitude": 44.9729474, "longitude": -93.47116319999999, "care_type": "OB-GYN"}, {"name": "Dr. Terri S. Johnson, MD", "address": "14001 Ridgedale Dr, Minnetonka, MN 55305", "city": "Minnetonka", "phone": "+1 952-249-2000", "website": "http://www.obgynwest.net/", "rating": 5.0, "reviews": 5, "place_id": "ChIJM8QlyOZKs1IREMCz7yISHUM", "latitude": 44.96994429999999, "longitude": -93.45670299999999, "care_type": "OB-GYN"}, {"name": "Dr. Wesley R. Grootwassink, MD", "address": "14001 Ridgedale Dr, Minnetonka, MN 55305", "city": "Minnetonka", "phone": "+1 952-249-2000", "website": "http://www.obgynwest.net/", "rating": 4.7, "reviews": 13, "place_id": "ChIJM8QlyOZKs1IRXJpx_VohFtw", "latitude": 44.96994429999999, "longitude": -93.45670299999999, "care_type": "OB-GYN"}, {"name": "Ashley Andersen", "address": "14001 Ridgedale Dr # 200, Minnetonka, MN 553051747", "city": "Minnetonka", "phone": "+1 952-249-2000", "website": "", "rating": 3.0, "reviews": 2, "place_id": "ChIJ__8_x-ZKs1IRuN6Qbk91gKY", "latitude": 44.9699562, "longitude": -93.4566406, "care_type": "OB-GYN"}, {"name": "Oakdale OBGYN - Premier Women's Health of Minnesota", "address": "3007 Harbor Ln N Suite 1400, Plymouth, MN 55447", "city": "Plymouth", "phone": "+1 763-587-7000", "website": "https://premierwomenshealthmn.com/oakdaleobgyn/", "rating": 4.2, "reviews": 100, "place_id": "ChIJP-iSBDtKs1IRto9z5vXX6mM", "latitude": 45.0133318, "longitude": -93.46334809999999, "care_type": "OB-GYN"}, {"name": "Park Nicollet Women's Center", "address": "6500 Excelsior Blvd, St Louis Park, MN 55426", "city": "St Louis Park", "phone": "+1 952-993-3282", "website": "https://www.healthpartners.com/care/specialty-centers/womens-center/%3Futm_campaign%3Dwomens_locallistings_20m1_care_pn%26utm_source%3Dgooglemybusiness_%26utm_medium%3Dorganic%26utm_content%3Dpark-nicollet-womens-center_localpack_conversion%26utm_term%3D_v1__", "rating": 3.7, "reviews": 40, "place_id": "ChIJh947Xukg9ocRtSMcBoNnjJs", "latitude": 44.9286719, "longitude": -93.3620766, "care_type": "OB-GYN"}, {"name": "Almara Haugen Plymouth", "address": "2805 Campus Dr #315, Plymouth, MN 55441", "city": "Plymouth", "phone": "+1 763-577-7460", "website": "https://helloalmara.com/locations/haugen-plymouth/", "rating": 3.8, "reviews": 12, "place_id": "ChIJp6tLdTtKs1IRWBTyjoo3sIM", "latitude": 45.01080349999999, "longitude": -93.4541244, "care_type": "OB-GYN"}, {"name": "Dr. Kathryn R. Babich, MD", "address": "15111 Twelve Oaks Center Dr, Minnetonka, MN 55305", "city": "Minnetonka", "phone": "+1 952-993-4500", "website": "http://www.parknicollet.com/", "rating": null, "reviews": 0, "place_id": "ChIJaWK1VRpLs1IRJLSl1Sr9VcI", "latitude": 44.9729474, "longitude": -93.47116319999999, "care_type": "OB-GYN"}, {"name": "Toft Katie J MD", "address": "14001 Ridgedale Dr #100, Hopkins, MN 55305", "city": "Hopkins", "phone": "+1 952-249-2000", "website": "", "rating": null, "reviews": 0, "place_id": "ChIJM8QlyOZKs1IRWYyTApuMxWg", "latitude": 44.96993399999999, "longitude": -93.4567512, "care_type": "OB-GYN"}, {"name": "Dr. Rachel J. Miller, MD", "address": "6060 Clearwater Dr, Minnetonka, MN 55343", "city": "Minnetonka", "phone": "+1 651-220-5999", "website": "http://www.childrensmn.org/", "rating": null, "reviews": 0, "place_id": "ChIJ8_GYUxUf9ocR3z2LPKhvixw", "latitude": 44.8919416, "longitude": -93.4413948, "care_type": "OB-GYN"}, {"name": "Dr. Vanessa Knoedler MD", "address": "15111 Twelve Oaks Center Dr, Minnetonka, MN 55305", "city": "Minnetonka", "phone": "", "website": "", "rating": 4.6, "reviews": 11, "place_id": "ChIJSStZaLcq9ocRjpBcMLhxuMw", "latitude": 44.9729229, "longitude": -93.4704307, "care_type": "OB-GYN"}, {"name": "Dr. Judith A. Swauger, MD", "address": "6500 Excelsior Blvd Floor 5, St Louis Park, MN 55426", "city": "St Louis Park", "phone": "+1 952-993-3282", "website": "http://www.parknicollet.com/", "rating": 4.9, "reviews": 8, "place_id": "ChIJv6SqTrYg9ocRZ8BvVDZz79w", "latitude": 44.930104, "longitude": -93.3620971, "care_type": "OB-GYN"}, {"name": "Dr. Susan J. Cushman, MD", "address": "14001 Ridgedale Dr, Minnetonka, MN 55305", "city": "Minnetonka", "phone": "+1 952-249-2000", "website": "http://www.obgynwest.net/", "rating": null, "reviews": 0, "place_id": "ChIJM8QlyOZKs1IRu3o2yDbVp08", "latitude": 44.96994429999999, "longitude": -93.45670299999999, "care_type": "OB-GYN"}, {"name": "OBGYN West - Premier Women's Health of Minnesota", "address": "111 Hundertmark Rd UNIT 410, Chaska, MN 55318", "city": "Chaska", "phone": "+1 952-249-2000", "website": "https://premierwomenshealthmn.com/practice/obgyn-west/", "rating": 4.7, "reviews": 71, "place_id": "ChIJrU8JmiAF9ocRN4fNMf9o4Wc", "latitude": 44.8181681, "longitude": -93.600917, "care_type": "OB-GYN"}, {"name": "Eric English, MD", "address": "800 Prairie Center Dr #130, Eden Prairie, MN 55344", "city": "Eden Prairie", "phone": "+1 952-249-2000", "website": "https://premierwomenshealthmn.com/providers/eric-j-english/", "rating": 4.9, "reviews": 40, "place_id": "ChIJWcvNV50Z9ocRHj_0kL9igIE", "latitude": 44.859795, "longitude": -93.43780699999999, "care_type": "OB-GYN"}, {"name": "Christine M. Ellison, WHNP-BC", "address": "2805 Campus Dr #315, Plymouth, MN 55441", "city": "Plymouth", "phone": "+1 763-577-7461", "website": "https://helloalmara.com/physicians/christine-ellison-dnp/", "rating": 4.8, "reviews": 16, "place_id": "ChIJ2VfEFHtLs1IR7cu0naxSHeo", "latitude": 45.0108513, "longitude": -93.4541636, "care_type": "OB-GYN"}, {"name": "Dr. Eric W. Locher (MD) : Park Nicollet Health Services", "address": "15111 Twelve Oaks Center Dr, Minnetonka, MN 55305", "city": "Minnetonka", "phone": "+1 952-993-4500", "website": "https://www.healthpartners.com/care/", "rating": null, "reviews": 0, "place_id": "ChIJaWK1VRpLs1IRA9c69QAehQs", "latitude": 44.9732391, "longitude": -93.4707974, "care_type": "OB-GYN"}, {"name": "Christine \u201cTina\u201d M. Larson, MD", "address": "800 Prairie Center Dr #130, Eden Prairie, MN 55344", "city": "Eden Prairie", "phone": "+1 952-249-2000", "website": "http://obgynwest.net/", "rating": 5.0, "reviews": 22, "place_id": "ChIJ1aq2Mr8Y9ocRMDjjuLtGQvw", "latitude": 44.85978, "longitude": -93.4378232, "care_type": "OB-GYN"}, {"name": "Erin Hanson, DO", "address": "2805 Campus Dr #315, Plymouth, MN 55441", "city": "Plymouth", "phone": "+1 763-577-7460", "website": "https://helloalmara.com/physicians/erin-hanson-do/", "rating": null, "reviews": 0, "place_id": "ChIJCX0vVQBLs1IRnG6EUDNzw14", "latitude": 45.0108513, "longitude": -93.4541636, "care_type": "OB-GYN"}, {"name": "Larson Christine M MD", "address": "14001 Ridgedale Dr # 200, Hopkins, MN 55305", "city": "Hopkins", "phone": "+1 952-473-0211", "website": "", "rating": null, "reviews": 0, "place_id": "ChIJM8QlyOZKs1IRDsZt_iHuXFM", "latitude": 44.96993399999999, "longitude": -93.4567512, "care_type": "OB-GYN"}, {"name": "Megan Schmitt", "address": "6500 Excelsior Blvd, St Louis Park, MN 55426", "city": "St Louis Park", "phone": "+1 952-993-3123", "website": "https://www.healthpartners.com/care/find/doctor/98779/", "rating": 5.0, "reviews": 1, "place_id": "ChIJSSbmTOog9ocR4STOfPQhNdY", "latitude": 44.9291267, "longitude": -93.3614762, "care_type": "OB-GYN"}, {"name": "Kristen Latta, DO", "address": "2805 Campus Dr #315, Plymouth, MN 55441", "city": "Plymouth", "phone": "+1 763-577-7460", "website": "https://www.haugenobgyn.com/our-providers/our-doctors/kristen-latta-d-o/", "rating": 5.0, "reviews": 11, "place_id": "ChIJBeWaOANLs1IRHerbhFrMabk", "latitude": 45.0108513, "longitude": -93.4541636, "care_type": "OB-GYN"}, {"name": "Laura Hanson", "address": "15111 Twelve Oaks Center Dr, Minnetonka, MN 55305", "city": "Minnetonka", "phone": "+1 952-993-3282", "website": "", "rating": null, "reviews": 0, "place_id": "ChIJAQAAqxtLs1IRJ-HliDoWu-Q", "latitude": 44.9729229, "longitude": -93.4704307, "care_type": "OB-GYN"}, {"name": "Mary T. Dahling, MD", "address": "2805 Campus Dr #315, Plymouth, MN 55441", "city": "Plymouth", "phone": "+1 763-577-7460", "website": "http://www.haugenobgyn.com/", "rating": 5.0, "reviews": 14, "place_id": "ChIJP-iSBDtKs1IR5Q4LJ-bwCmY", "latitude": 45.0108513, "longitude": -93.4541636, "care_type": "OB-GYN"}, {"name": "MedStudio Private Medical Clinics", "address": "130 Cheshire Ln Suite 100, Minnetonka, MN 55305", "city": "Minnetonka", "phone": "+1 952-807-0415", "website": "https://medstudio.com/%3Futm_source%3Dgmb%26utm_medium%3Dorganic%26utm_campaign%3Dminnetonka%26utm_content%3Dlisting", "rating": 4.6, "reviews": 30, "place_id": "ChIJcxGx7_pKs1IRthlJL_a4kP4", "latitude": 44.9776258, "longitude": -93.45489909999999, "care_type": "OB-GYN"}, {"name": "Caron Marcia A MD", "address": "3800 Park Nicollet Blvd, St Louis Park, MN 55416", "city": "St Louis Park", "phone": "+1 952-993-3282", "website": "http://parknicollet.com/", "rating": 5.0, "reviews": 2, "place_id": "ChIJv6SqTrYg9ocRduPBYbpS0Ls", "latitude": 44.9336373, "longitude": -93.3457368, "care_type": "OB-GYN"}, {"name": "Dr. Robert D. Junnila, MD", "address": "15111 Twelve Oaks Center Dr, Minnetonka, MN 55305", "city": "Minnetonka", "phone": "+1 952-993-4500", "website": "http://www.parknicollet.com/", "rating": null, "reviews": 0, "place_id": "ChIJaWK1VRpLs1IRZqLiMlrHXhY", "latitude": 44.9729474, "longitude": -93.47116319999999, "care_type": "OB-GYN"}, {"name": "Sheryl A. Louie, MD", "address": "2805 Campus Dr #315, Plymouth, MN 55441", "city": "Plymouth", "phone": "+1 763-577-7460", "website": "http://www.haugenobgyn.com/", "rating": 5.0, "reviews": 3, "place_id": "ChIJ90FTX1VLs1IRb9B73Bd4uaw", "latitude": 45.0108513, "longitude": -93.4541636, "care_type": "OB-GYN"}, {"name": "Western OBGYN", "address": "675 Water St, Excelsior, MN 55331", "city": "Excelsior", "phone": "+1 952-442-2137", "website": "https://westernobgyn.com/locations/excelsior/", "rating": null, "reviews": 0, "place_id": "ChIJvcKD0LYd9ocRpKGwqCn5Khc", "latitude": 44.8986745, "longitude": -93.5693421, "care_type": "OB-GYN"}, {"name": "Annelise Swigert, MD", "address": "3625 W 65th St, Edina, MN 55435", "city": "Edina", "phone": "+1 855-324-7843", "website": "", "rating": 4.9, "reviews": 13, "place_id": "ChIJKfW01oIn9ocRgQxXVJN7Izk", "latitude": 44.8851299, "longitude": -93.32535879999999, "care_type": "OB-GYN"}, {"name": "Allison K. West, MD", "address": "2805 Campus Dr #315, Plymouth, MN 55441", "city": "Plymouth", "phone": "+1 763-577-7460", "website": "https://helloalmara.com/physicians/allison-west/", "rating": 5.0, "reviews": 5, "place_id": "ChIJp6tLdTtKs1IRwDmCaR0anLA", "latitude": 45.0108513, "longitude": -93.4541636, "care_type": "OB-GYN"}, {"name": "Terri Wood, FNP-BC", "address": "2805 Campus Dr #315, Plymouth, MN 55441", "city": "Plymouth", "phone": "+1 763-577-7461", "website": "http://haugenobgyn.com/", "rating": 5.0, "reviews": 3, "place_id": "ChIJp6tLdTtKs1IRlfKCK7BxNF0", "latitude": 45.0108513, "longitude": -93.4541636, "care_type": "OB-GYN"}, {"name": "Dr. Jill Garnier", "address": "15111 Twelve Oaks Center Dr, Minnetonka, MN 55305", "city": "Minnetonka", "phone": "+1 952-993-3246", "website": "", "rating": null, "reviews": 0, "place_id": "ChIJAQAAqxtLs1IRnoKrxjKMjeg", "latitude": 44.9729229, "longitude": -93.4704307, "care_type": "OB-GYN"}, {"name": "Almara Maternal Fetal Edina", "address": "6545 France Ave S Suite 510, Edina, MN 55435", "city": "Edina", "phone": "+1 952-285-3880", "website": "https://helloalmara.com/locations/maternal-fetal-edina/", "rating": 4.8, "reviews": 40, "place_id": "ChIJ9XjtVCEn9ocRwrxeY9T_pTk", "latitude": 44.8846024, "longitude": -93.3274386, "care_type": "OB-GYN"}, {"name": "Western OB/GYN, A Division of Ridgeview Clinics", "address": "Ridgeview Westonka Clinic, 4695 Shoreline Dr, Spring Park, MN 55384", "city": "Spring Park", "phone": "+1 952-442-2137", "website": "https://www.ridgeviewmedical.org/care-treatment/obstetrics-gynecology/%3Futm_source%3DRidgeviewSpringParkWesternOBGYN%26utm_campaign%3DLocal-Listings%26utm_medium%3DGoogle-My-Business", "rating": 1.0, "reviews": 1, "place_id": "ChIJ-5VLKXMC9ocRHRLGoRo_pq0", "latitude": 44.9356471, "longitude": -93.641657, "care_type": "OB-GYN"}, {"name": "Dr. Lisa Ohman Erhard, MD", "address": "1120 Wayzata Blvd Ste 100, Wayzata, MN 55391", "city": "Wayzata", "phone": "+1 952-800-9335", "website": "http://www.lakmedspa.com/", "rating": 5.0, "reviews": 1, "place_id": "ChIJw-E7aaAys1IRf3pTKf4ZiJA", "latitude": 44.9706949, "longitude": -93.5006571, "care_type": "OB-GYN"}, {"name": "Jancy A. Eddy, WHNP-BC", "address": "2805 Campus Dr #315, Plymouth, MN 55441", "city": "Plymouth", "phone": "+1 763-577-7460", "website": "https://helloalmara.com/physicians/jancy-eddy-whnp/", "rating": 4.6, "reviews": 9, "place_id": "ChIJ9dLspztKs1IRUMdh9DFPWKc", "latitude": 45.0108513, "longitude": -93.4541636, "care_type": "OB-GYN"}, {"name": "Almara OGI Edina", "address": "6405 France Ave S Suite W400, Edina, MN 55435", "city": "Edina", "phone": "+1 952-920-2730", "website": "https://helloalmara.com/locations/ogi-edina/", "rating": 3.6, "reviews": 39, "place_id": "ChIJM5-tNqUm9ocR7mx4Rv-XN8I", "latitude": 44.8864802, "longitude": -93.32851339999999, "care_type": "OB-GYN"}, {"name": "Dr. Brenda Harris", "address": "2855 Campus Dr Ste 101, Plymouth, MN 55441", "city": "Plymouth", "phone": "+1 612-333-4822", "website": "", "rating": 5.0, "reviews": 1, "place_id": "ChIJoRnJBTtKs1IRE9mf812u6bk", "latitude": 45.011243, "longitude": -93.4544205, "care_type": "OB-GYN"}, {"name": "Kimberly C. Naruko-Stewart, MD", "address": "6405 France Ave S w400, Edina, MN 55435", "city": "Edina", "phone": "+1 952-920-2730", "website": "https://www.obgynmn.com/", "rating": 5.0, "reviews": 13, "place_id": "ChIJWVKiq7om9ocRvfgI3qfzDQs", "latitude": 44.8860193, "longitude": -93.3272556, "care_type": "OB-GYN"}, {"name": "Isabel Anderson - MD", "address": "3800 Park Nicollet Blvd, St Louis Park, MN 55416", "city": "St Louis Park", "phone": "+1 952-993-3282", "website": "http://parknicollet.com/", "rating": 5.0, "reviews": 5, "place_id": "ChIJv6SqTrYg9ocRERiSHa1SEmo", "latitude": 44.93371, "longitude": -93.34624149999999, "care_type": "OB-GYN"}, {"name": "Almara OGS Edina", "address": "6565 France Ave S Suite 200, Edina, MN 55435", "city": "Edina", "phone": "+1 952-920-2200", "website": "https://helloalmara.com/locations/ogs-edina/", "rating": 4.2, "reviews": 65, "place_id": "ChIJB5kUDqUm9ocRM8lcp-omYpw", "latitude": 44.8841348, "longitude": -93.32715209999999, "care_type": "OB-GYN"}, {"name": "Judith Swauger", "address": "6500 Excelsior Blvd, St Louis Park, MN 55426", "city": "St Louis Park", "phone": "+1 952-993-3123", "website": "https://www.healthpartners.com/care/find/doctor/21401/", "rating": null, "reviews": 0, "place_id": "ChIJSSbmTOog9ocRbfY5MTimf9o", "latitude": 44.9291267, "longitude": -93.3614762, "care_type": "OB-GYN"}, {"name": "Oakdale OBGYN - Premier Women's Health of Minnesota", "address": "9825 Hospital Dr UNIT 205, Maple Grove, MN 55369", "city": "Maple Grove", "phone": "+1 763-587-7000", "website": "https://premierwomenshealthmn.com/practice/oakdale-obgyn/", "rating": 4.1, "reviews": 221, "place_id": "ChIJUd0j7KpHs1IRGoDrF06tQfc", "latitude": 45.1315815, "longitude": -93.48055509999999, "care_type": "OB-GYN"}, {"name": "Voyage Healthcare - Center for Women's Health", "address": "15655 37th Ave N #180, Plymouth, MN 55446", "city": "Plymouth", "phone": "+1 763-587-7916", "website": "https://www.voyagehealthcare.com/center-for-womens-health", "rating": 3.5, "reviews": 31, "place_id": "ChIJp0-UunxJs1IRCOLk3VlCptk", "latitude": 45.0240625, "longitude": -93.4794926, "care_type": "OB-GYN"}, {"name": "Sarah A. Freitas, MD", "address": "7907 Powers Blvd, Chanhassen, MN 55317", "city": "Chanhassen", "phone": "+1 952-556-0071", "website": "", "rating": 5.0, "reviews": 1, "place_id": "ChIJewbedXob9ocRzE6YkC1Sg4o", "latitude": 44.8609089, "longitude": -93.5472716, "care_type": "OB-GYN"}, {"name": "Hope E. Frisch, DO", "address": "2805 Campus Dr #315, Plymouth, MN 55441", "city": "Plymouth", "phone": "+1 763-577-7460", "website": "https://helloalmara.com/physicians/hope-frisch-do/", "rating": 4.5, "reviews": 8, "place_id": "ChIJp6tLdTtKs1IRXcpKjyh15CM", "latitude": 45.0108513, "longitude": -93.4541636, "care_type": "OB-GYN"}, {"name": "Lindsay J. Darrah, MD", "address": "6405 France Ave S w400, Edina, MN 55435", "city": "Edina", "phone": "+1 952-920-2730", "website": "https://www.obgynmn.com/", "rating": 5.0, "reviews": 17, "place_id": "ChIJB2UhVqUm9ocRdsOni1f1yN0", "latitude": 44.8860193, "longitude": -93.3272556, "care_type": "OB-GYN"}, {"name": "Dr. Marcia Caron", "address": "6500 Excelsior Blvd, St Louis Park, MN 55426", "city": "St Louis Park", "phone": "+1 952-993-3282", "website": "http://www.parknicollet.com/bios/caron-a-marcia", "rating": null, "reviews": 0, "place_id": "ChIJwTw-Xukg9ocRBmcinzARrKg", "latitude": 44.9290058, "longitude": -93.3620564, "care_type": "OB-GYN"}, {"name": "Dr. Barbara Vaneeckhout", "address": "15111 Twelve Oaks Center Dr, Minnetonka, MN 55305", "city": "Minnetonka", "phone": "+1 952-993-4500", "website": "https://www.healthpartners.com/care/find/doctor/151559/", "rating": null, "reviews": 0, "place_id": "ChIJAQAAqxtLs1IRr5DULnD2vWc", "latitude": 44.9729229, "longitude": -93.4704307, "care_type": "OB-GYN"}, {"name": "Almara Haugen Edina", "address": "3400 W 66th St #385, Edina, MN 55435", "city": "Edina", "phone": "+1 952-927-6561", "website": "https://helloalmara.com/locations/edina-womens-health/", "rating": 3.8, "reviews": 39, "place_id": "ChIJX_pi_qIm9ocR-5sm1C8hhnE", "latitude": 44.8840069, "longitude": -93.32433639999999, "care_type": "OB-GYN"}, {"name": "Schaffer Janet MD", "address": "3800 Park Nicollet Blvd, St Louis Park, MN 55416", "city": "St Louis Park", "phone": "+1 952-993-3282", "website": "http://parknicollet.com/", "rating": 5.0, "reviews": 3, "place_id": "ChIJv6SqTrYg9ocRRvxkFYZ8dnU", "latitude": 44.9335047, "longitude": -93.34547669999999, "care_type": "OB-GYN"}, {"name": "Amy M. Brown, MD", "address": "6405 France Ave S w400, Edina, MN 55435", "city": "Edina", "phone": "+1 952-920-2730", "website": "https://www.obgynmn.com/", "rating": 5.0, "reviews": 18, "place_id": "ChIJw0MBJson9ocRM51fw8dGfNc", "latitude": 44.8860193, "longitude": -93.3272556, "care_type": "OB-GYN"}, {"name": "Dr. Anjali Wilcox", "address": "1665 Utica Ave S #100, St Louis Park, MN 55416", "city": "St Louis Park", "phone": "+1 952-541-2500", "website": "https://www.healthpartners.com/care/find/doctor/98840/", "rating": 5.0, "reviews": 1, "place_id": "ChIJBxcLFqE0s1IRMU_HKZ2s4qU", "latitude": 44.9664009, "longitude": -93.34411469999999, "care_type": "OB-GYN"}, {"name": "Jennifer C. Metherd, MD", "address": "2805 Campus Dr #315, Plymouth, MN 55441", "city": "Plymouth", "phone": "+1 763-577-7460", "website": "http://www.haugenobgyn.com/", "rating": 5.0, "reviews": 2, "place_id": "ChIJeVCbqXtLs1IRpu5LrvWZCFM", "latitude": 45.0108513, "longitude": -93.4541636, "care_type": "OB-GYN"}, {"name": "BIOHARMONY Health", "address": "7250 Metro Blvd Suite 100, Office #3, Edina, MN 55439", "city": "Edina", "phone": "+1 612-778-6240", "website": "https://www.bioharmony-health.com/", "rating": 5.0, "reviews": 13, "place_id": "ChIJOf1Xo2Qj9ocRdlPbID5bXug", "latitude": 44.8719723, "longitude": -93.3525121, "care_type": "OB-GYN"}, {"name": "Children\u2019s Minnesota Specialty Center - Minnetonka", "address": "6060 Clearwater Dr Suite 220, Minnetonka, MN 55343", "city": "Minnetonka", "phone": "", "website": "https://www.childrensmn.org/locations/minnetonka/%3Futm_source%3Dgoogle%26utm_medium%3Dorganic%26utm_campaign%3Dgmb%26utm_id%3Dminnetonka-speciality-clinic%26utm_content%3Dwebsite-link", "rating": 4.5, "reviews": 17, "place_id": "ChIJg_2e3z8f9ocRX8ay5aFfjmg", "latitude": 44.8919416, "longitude": -93.4413948, "care_type": "OB-GYN"}, {"name": "Dr. Christine M. Sarkinen, MD", "address": "2855 Campus Dr #600, Plymouth, MN 55441", "city": "Plymouth", "phone": "+1 763-587-7025", "website": "", "rating": null, "reviews": 0, "place_id": "ChIJP-iSBDtKs1IRMFVdZd6iycs", "latitude": 45.0112526, "longitude": -93.45452879999999, "care_type": "OB-GYN"}, {"name": "Dr. Monica L. Norwick, MD", "address": "6500 Excelsior Blvd #500, St Louis Park, MN 55426", "city": "St Louis Park", "phone": "+1 952-993-3282", "website": "http://www.parknicollet.com/", "rating": null, "reviews": 0, "place_id": "ChIJv6SqTrYg9ocRyEZpjvMUYys", "latitude": 44.9288274, "longitude": -93.3620885, "care_type": "OB-GYN"}, {"name": "Almara AWH Edina", "address": "6565 France Ave S Suite 200, Edina, MN 55435", "city": "Edina", "phone": "+1 952-806-0011", "website": "https://helloalmara.com/locations/awh-edina/", "rating": 3.8, "reviews": 73, "place_id": "ChIJVxvU7aQm9ocRawZTuvtHJT0", "latitude": 44.8841207, "longitude": -93.3271169, "care_type": "OB-GYN"}, {"name": "Jennifer H. Ambur, MD", "address": "2805 Campus Dr #315, Plymouth, MN 55441", "city": "Plymouth", "phone": "+1 763-577-7460", "website": "http://www.haugenobgyn.com/", "rating": 5.0, "reviews": 5, "place_id": "ChIJp6tLdTtKs1IRnSNqXf1lLgk", "latitude": 45.0108513, "longitude": -93.4541636, "care_type": "OB-GYN"}, {"name": "Park Nicollet: Berven Erica L MD", "address": "3800 Park Nicollet Blvd, St Louis Park, MN 55416", "city": "St Louis Park", "phone": "+1 952-993-3282", "website": "https://www.healthpartners.com/care/", "rating": 3.0, "reviews": 2, "place_id": "ChIJv6SqTrYg9ocRFrBnK8F27Q0", "latitude": 44.9336852, "longitude": -93.34550349999999, "care_type": "OB-GYN"}, {"name": "Beth Helgerson", "address": "6500 Excelsior Blvd, St Louis Park, MN 55426", "city": "St Louis Park", "phone": "+1 952-993-3123", "website": "", "rating": null, "reviews": 0, "place_id": "ChIJSSbmTOog9ocRqTxqcq2XvIw", "latitude": 44.9291267, "longitude": -93.3614762, "care_type": "OB-GYN"}, {"name": "Dr. Kathleen M. Pfleghaar, MD", "address": "5050 Excelsior Blvd, Minneapolis, MN 55416", "city": "Minneapolis", "phone": "+1 952-993-3123", "website": "http://www.parknicollet.com/", "rating": null, "reviews": 0, "place_id": "ChIJqwK458kg9ocRE5gPhrT_m8M", "latitude": 44.9320795, "longitude": -93.34554279999999, "care_type": "OB-GYN"}, {"name": "Dr. Arlyn A. Hamann, MD", "address": "3800 Park Nicollet Blvd, St Louis Park, MN 55416", "city": "St Louis Park", "phone": "+1 952-993-3123", "website": "", "rating": null, "reviews": 0, "place_id": "ChIJv6SqTrYg9ocRKI0-u08hvrE", "latitude": 44.9336852, "longitude": -93.34550349999999, "care_type": "OB-GYN"}, {"name": "Kathryn Babich, MD", "address": "6500 Excelsior Blvd, Minneapolis, MN 55426", "city": "Minneapolis", "phone": "+1 952-993-5000", "website": "http://parknicollet.com/", "rating": null, "reviews": 0, "place_id": "ChIJew_BEusg9ocR7Br9HHJldAw", "latitude": 44.9296241, "longitude": -93.3618328, "care_type": "OB-GYN"}, {"name": "Erin Hennen, MD", "address": "2805 Campus Dr #315, Plymouth, MN 55441", "city": "Plymouth", "phone": "+1 763-577-7460", "website": "https://helloalmara.com/physicians/erin-hennen-md/", "rating": null, "reviews": 0, "place_id": "ChIJrWLoh19Ls1IReyvQJ_jdThI", "latitude": 45.0108513, "longitude": -93.4541636, "care_type": "OB-GYN"}, {"name": "Dr. Jillian Hallstrom", "address": "800 Prairie Center Dr, Eden Prairie, MN 55344", "city": "Eden Prairie", "phone": "+1 952-249-2000", "website": "", "rating": null, "reviews": 0, "place_id": "ChIJ962i0rgY9ocRDfy8v-GFVz4", "latitude": 44.8597945, "longitude": -93.4378074, "care_type": "OB-GYN"}, {"name": "Dr. Diana R. Danilenko, MD", "address": "5050 Excelsior Blvd, Minneapolis, MN 55416", "city": "Minneapolis", "phone": "+1 952-993-7672", "website": "", "rating": null, "reviews": 0, "place_id": "ChIJqwK458kg9ocRdtQ9bGMbv-0", "latitude": 44.9320814, "longitude": -93.3454089, "care_type": "OB-GYN"}, {"name": "Minnesota Women's Care", "address": "15000 Garrett Ave, Apple Valley, MN 55124", "city": "Apple Valley", "phone": "+1 651-600-3035", "website": "https://mnwcare.com/", "rating": 4.7, "reviews": 342, "place_id": "ChIJF6DIgm069ocRCVNwT_z1LWs", "latitude": 44.7322536, "longitude": -93.21223839999999, "care_type": "OB-GYN"}, {"name": "Barbara Grazette, MD : Minnesota Women's Care", "address": "15000 Garrett Ave, Apple Valley, MN 55124", "city": "Apple Valley", "phone": "+1 651-600-3035", "website": "https://mnwcare.com/our-providers/dr-barbara-grazette-obgyn", "rating": 4.7, "reviews": 50, "place_id": "ChIJPTRe2gQk9ocRiesBhBPAxc0", "latitude": 44.7322536, "longitude": -93.21223839999999, "care_type": "OB-GYN"}, {"name": "Anuja Singh", "address": "15290 Pennock Ln, Apple Valley, MN 551247163", "city": "Apple Valley", "phone": "+1 952-431-8500", "website": "", "rating": 3.8, "reviews": 13, "place_id": "ChIJq6rqFys39ocR4QmCL34e6mY", "latitude": 44.7290964, "longitude": -93.2213668, "care_type": "OB-GYN"}, {"name": "Mayo Clinic Obstetrics and Gynecology", "address": "200 1st St SW, Rochester, MN 55905", "city": "Rochester", "phone": "+1 507-284-2511", "website": "https://www.mayoclinic.org/departments-centers/obstetrics-gynecology/sections/overview/ovc-20423739%3Fmc_id%3Dus%26utm_source%3Dyext%26utm_medium%3Dl%26utm_content%3Ddepartmentgeneral%26utm_campaign%3Dmayoclinic%26geo%3Dnational%26placementsite%3Denterprise%26invsrc%3Dother%26cauid%3D105550%26y_source%3D1_OTc4MDYyMC03MTUtbG9jYXRpb24ud2Vic2l0ZQ%253D%253D", "rating": 3.0, "reviews": 10, "place_id": "ChIJR458ZLNY94cRSLOdKPltPhc", "latitude": 44.022597, "longitude": -92.4667633, "care_type": "OB-GYN"}, {"name": "Olmsted Medical Center - Obstetrics & Gynecology department", "address": "1650 4th St SE, Rochester, MN 55904", "city": "Rochester", "phone": "+1 507-529-6605", "website": "https://www.olmmed.org/clinical-services/womens-health/gynecology/%3Futm_source%3DOMC_ObGyn%26utm_campaign%3DLocal-Listings%26utm_medium%3DGoogle-My-Business", "rating": 3.7, "reviews": 20, "place_id": "ChIJ392zn8fh-YcRWsVIcxFtnLM", "latitude": 44.0198318, "longitude": -92.43971189999999, "care_type": "OB-GYN"}, {"name": "Melissa Richards, MD", "address": "1650 4th St SE, Rochester, MN 55904", "city": "Rochester", "phone": "+1 507-529-6605", "website": "https://www.olmmed.org/find-a-provider/profile/%3Fid%3D333%26utm_source%3DOMC_Richards%26utm_campaign%3DLocal-Listings%26utm_medium%3DGoogle-My-Business", "rating": 5.0, "reviews": 1, "place_id": "ChIJ-WBYQfzh-YcRaZ9BSPdnImc", "latitude": 44.0199261, "longitude": -92.4405228, "care_type": "OB-GYN"}, {"name": "Aneesa Thannickal", "address": "200 1st St SW, Rochester, MN 559050001", "city": "Rochester", "phone": "+1 507-284-2511", "website": "", "rating": 5.0, "reviews": 1, "place_id": "ChIJAQAAOXtf94cR8F41RriulRE", "latitude": 44.0226729, "longitude": -92.4667508, "care_type": "OB-GYN"}, {"name": "Christopher J. Klingele, MD", "address": "1650 4th St SE, Rochester, MN 55904", "city": "Rochester", "phone": "+1 507-529-6605", "website": "https://www.olmmed.org/find-a-provider/profile/%3Fid%3D436%26utm_source%3DOMC_Klingele%26utm_campaign%3DLocal-Listings%26utm_medium%3DGoogle-My-Business", "rating": 5.0, "reviews": 3, "place_id": "ChIJB9eVNXtf94cRsk-TKoO78G4", "latitude": 44.0199261, "longitude": -92.4405228, "care_type": "OB-GYN"}, {"name": "Olmsted Medical Center - Women's Health Services", "address": "1650 4th St SE, Rochester, MN 55904", "city": "Rochester", "phone": "+1 507-529-6605", "website": "https://www.olmmed.org/clinical-services/womens-health/%3Futm_source%3DOMC_WomensHealthServices%26utm_campaign%3DLocal-Listings%26utm_medium%3DGoogle-My-Business", "rating": 5.0, "reviews": 1, "place_id": "ChIJM3Kezknh-YcRib1uL4XrUg8", "latitude": 44.0199261, "longitude": -92.4405228, "care_type": "OB-GYN"}, {"name": "First Care Pregnancy Center", "address": "40 16th St SE, Rochester, MN 55904", "city": "Rochester", "phone": "+1 507-282-3377", "website": "https://firstcaremn.org/", "rating": 4.5, "reviews": 23, "place_id": "ChIJoyZ67Ydf94cRFZocaVtQuq4", "latitude": 43.99961039999999, "longitude": -92.46230729999999, "care_type": "OB-GYN"}, {"name": "Dr. David W. Wall, MD", "address": "210 9th St SE, Rochester, MN 55904", "city": "Rochester", "phone": "+1 507-288-3443", "website": "", "rating": null, "reviews": 0, "place_id": "ChIJs-QHBODh-YcRn4jyp_u1l5s", "latitude": 44.012222, "longitude": -92.46010299999999, "care_type": "OB-GYN"}, {"name": "Dr. Elizabeth A. Baldwin, MD", "address": "200 1st St NW, Rochester, MN 55901", "city": "Rochester", "phone": "+1 507-284-2511", "website": "http://www.mayoclinic.org/", "rating": null, "reviews": 0, "place_id": "ChIJoRrHTmNf94cRHCcbxPP8akk", "latitude": 44.0226729, "longitude": -92.4667508, "care_type": "OB-GYN"}, {"name": "Margaret L. Dow, MD", "address": "1650 4th St SE, Rochester, MN 55904", "city": "Rochester", "phone": "+1 507-529-6605", "website": "https://www.olmmed.org/find-a-provider/profile/%3Fid%3D466%26utm_source%3DOMC_Dow%26utm_campaign%3DLocal-Listings%26utm_medium%3DGoogle-My-Business", "rating": null, "reviews": 0, "place_id": "ChIJ_xYg2mjh-YcRCiXLuUQ75d0", "latitude": 44.0199261, "longitude": -92.4405228, "care_type": "OB-GYN"}, {"name": "Dr. Luis F. Suarez, MD", "address": "200 1st St SW, Rochester, MN 55902", "city": "Rochester", "phone": "+1 507-284-2511", "website": "http://www.mayoclinic.org/", "rating": null, "reviews": 0, "place_id": "ChIJB9eVNXtf94cRarJlpzpOci0", "latitude": 44.0225794, "longitude": -92.46689839999999, "care_type": "OB-GYN"}, {"name": "Olmsted Medical Center - Pregnancy & Birth Care", "address": "1650 4th St SE, Rochester, MN 55904", "city": "Rochester", "phone": "+1 507-529-6600", "website": "https://www.olmmed.org/clinical-services/pregnancy-birth-care/%3Futm_source%3DOMC_PregnancyBirth%26utm_campaign%3DLocal-Listings%26utm_medium%3DGoogle-My-Business", "rating": 4.0, "reviews": 3, "place_id": "ChIJMz4A2oHh-YcRuWuJIurwcig", "latitude": 44.0199261, "longitude": -92.4405228, "care_type": "OB-GYN"}, {"name": "Dr. Andrea Mariani", "address": "200 1st St SW, Rochester, MN 55905", "city": "Rochester", "phone": "+1 507-284-2511", "website": "https://www.mayoclinic.org/biographies/mariani-andrea-m-d-m-s/bio-20055091", "rating": 5.0, "reviews": 2, "place_id": "ChIJAQAAOXtf94cRe6Ni3geT1EE", "latitude": 44.0226729, "longitude": -92.4667508, "care_type": "OB-GYN"}, {"name": "Wendy M. White, MD", "address": "1650 4th St SE, Rochester, MN 55904", "city": "Rochester", "phone": "+1 507-529-6605", "website": "https://www.olmmed.org/find-a-provider/profile/%3Fid%3D349%26utm_source%3DOMC_WWhite%26utm_campaign%3DLocal-Listings%26utm_medium%3DGoogle-My-Business", "rating": 1.0, "reviews": 1, "place_id": "ChIJ392zn8fh-YcRbB9LkfeuQ3g", "latitude": 44.0201253, "longitude": -92.4398685, "care_type": "OB-GYN"}, {"name": "James Anthony Hoffmann, DO", "address": "1650 4th St SE, Rochester, MN 55904", "city": "Rochester", "phone": "+1 507-529-6605", "website": "https://www.olmmed.org/find-a-provider/profile/%3Fid%3D17%26utm_source%3DOMC_Hoffmann%26utm_campaign%3DLocal-Listings%26utm_medium%3DGoogle-My-Business", "rating": null, "reviews": 0, "place_id": "ChIJ392zn8fh-YcRzqr5tRBAc00", "latitude": 44.02013609999999, "longitude": -92.4398392, "care_type": "OB-GYN"}, {"name": "Alessandra Ainsworth", "address": "200 1st St SW, Rochester, MN 55905", "city": "Rochester", "phone": "+1 507-284-2511", "website": "https://www.mayoclinic.org/biographies/ainsworth-ali-j-m-d/bio-20515930", "rating": 5.0, "reviews": 1, "place_id": "ChIJAQAAOXtf94cRf0PesMDSTwU", "latitude": 44.0226729, "longitude": -92.4667508, "care_type": "OB-GYN"}, {"name": "Carrie L. Rochester, APRN, CNM", "address": "1650 4th St SE, Rochester, MN 55904", "city": "Rochester", "phone": "+1 507-529-6605", "website": "https://www.olmmed.org/find-a-provider/profile/%3Fid%3D442%26utm_source%3DOMC_Rochester%26utm_campaign%3DLocal-Listings%26utm_medium%3DGoogle-My-Business", "rating": null, "reviews": 0, "place_id": "ChIJOfmXqlDh-YcRz7lR--w62rQ", "latitude": 44.0199261, "longitude": -92.4405228, "care_type": "OB-GYN"}, {"name": "Eyita O. Gaga, DNP, APRN, CNM", "address": "1650 4th St SE, Rochester, MN 55904", "city": "Rochester", "phone": "+1 507-529-6605", "website": "https://www.olmmed.org/find-a-provider/profile/%3Fid%3D457%26utm_source%3DOMC_Gaga%26utm_campaign%3DLocal-Listings%26utm_medium%3DGoogle-My-Business", "rating": null, "reviews": 0, "place_id": "ChIJczcpQ4vh-YcRj64HHPOF7LM", "latitude": 44.0199261, "longitude": -92.4405228, "care_type": "OB-GYN"}, {"name": "Abigail E. Kirk, DNP, APRN, CNM", "address": "1650 4th St SE, Rochester, MN 55904", "city": "Rochester", "phone": "+1 507-529-6600", "website": "https://www.olmmed.org/find-a-provider/profile/%3Fid%3D502%26utm_source%3DOMC_Kirk%26utm_campaign%3DLocal-Listings%26utm_medium%3DGoogle-My-Business", "rating": null, "reviews": 0, "place_id": "ChIJefxr_QLh-YcRSIS7lZ578Wk", "latitude": 44.0199261, "longitude": -92.4405228, "care_type": "OB-GYN"}, {"name": "Dr. Mauro Schenone", "address": "200 1st St SW, Rochester, MN 55905", "city": "Rochester", "phone": "+1 507-284-2511", "website": "https://www.mayoclinic.org/biographies/schenone-mauro-h-m-d/bio-20502657", "rating": 5.0, "reviews": 1, "place_id": "ChIJAQAAOXtf94cRXtKzIKoywhk", "latitude": 44.0226729, "longitude": -92.4667508, "care_type": "OB-GYN"}, {"name": "Daniel M. Breitkopf, MD", "address": "200 1st St SW, Rochester, MN 55905", "city": "Rochester", "phone": "+1 507-284-2511", "website": "https://www.mayoclinic.org/biographies/breitkopf-daniel-m-m-d/bio-20055295%23!", "rating": 5.0, "reviews": 1, "place_id": "ChIJB9eVNXtf94cRVwO2v1eRn5I", "latitude": 44.02218149999999, "longitude": -92.4666893, "care_type": "OB-GYN"}, {"name": "Robert H. Heise, Jr., MD", "address": "200 1st St SW, Rochester, MN 55905", "city": "Rochester", "phone": "+1 507-284-2511", "website": "https://www.mayoclinic.org/biographies/heise-robert-h-jr-m-d/bio-20053538", "rating": 5.0, "reviews": 2, "place_id": "ChIJB9eVNXtf94cRMHyKEcpHkAE", "latitude": 44.02218149999999, "longitude": -92.4666893, "care_type": "OB-GYN"}, {"name": "Danielle L. Falde, MD", "address": "1650 4th St SE, Rochester, MN 55904", "city": "Rochester", "phone": "+1 507-529-6600", "website": "https://www.olmmed.org/find-a-provider/profile/%3Fid%3D513%26utm_source%3DOMC_Falde%26utm_campaign%3DLocal-Listings%26utm_medium%3DGoogle-My-Business", "rating": null, "reviews": 0, "place_id": "ChIJ3bXYj_rh-YcROXuT1SaW2cg", "latitude": 44.0199261, "longitude": -92.4405228, "care_type": "OB-GYN"}, {"name": "Jennifer A. Tessmer-Tuck, MD", "address": "1650 4th St SE, Rochester, MN 55904", "city": "Rochester", "phone": "+1 507-529-6600", "website": "https://www.olmmed.org/find-a-provider/profile/%3Fid%3D488%26utm_source%3DOMC_Tessmer-Tuck%26utm_campaign%3DLocal-Listings%26utm_medium%3DGoogle-My-Business", "rating": null, "reviews": 0, "place_id": "ChIJP5rYaKzh-YcR7y3fm52O_2E", "latitude": 44.0199261, "longitude": -92.4405228, "care_type": "OB-GYN"}, {"name": "Karl C. Podratz, MD", "address": "200 1st St SW, Rochester, MN 55905", "city": "Rochester", "phone": "+1 507-284-2511", "website": "http://www.mayoclinic.org/", "rating": 5.0, "reviews": 1, "place_id": "ChIJB9eVNXtf94cRdUfeVabETWc", "latitude": 44.02218149999999, "longitude": -92.4666893, "care_type": "OB-GYN"}, {"name": "Sarah M. De Cicco, MD", "address": "1650 4th St SE, Rochester, MN 55904", "city": "Rochester", "phone": "+1 507-529-6605", "website": "https://www.olmmed.org/find-a-provider/profile/%3Fid%3D409%26utm_source%3DOMC_DeCicco%26utm_campaign%3DLocal-Listings%26utm_medium%3DGoogle-My-Business", "rating": null, "reviews": 0, "place_id": "ChIJecpeT7_h-YcRN232c3brfAI", "latitude": 44.0199261, "longitude": -92.4405228, "care_type": "OB-GYN"}, {"name": "Natalie Braun, MD", "address": "1650 4th St SE, Rochester, MN 55904", "city": "Rochester", "phone": "+1 507-529-6605", "website": "https://www.olmmed.org/find-a-provider/profile/%3Fid%3D317%26utm_source%3DOMC_Braun%26utm_campaign%3DLocal-Listings%26utm_medium%3DGoogle-My-Business", "rating": null, "reviews": 0, "place_id": "ChIJJWsB38nh-YcRJaJmaSLIc4I", "latitude": 44.0199261, "longitude": -92.4405228, "care_type": "OB-GYN"}, {"name": "Richard E. Mayerchak, MD", "address": "1650 4th St SE, Rochester, MN 55904", "city": "Rochester", "phone": "+1 507-529-6600", "website": "https://www.olmmed.org/find-a-provider/profile/%3Fid%3D501%26utm_source%3DOMC_Mayerchak%26utm_campaign%3DLocal-Listings%26utm_medium%3DGoogle-My-Business", "rating": null, "reviews": 0, "place_id": "ChIJ5e_Gw9vh-YcRDmloi94bO8I", "latitude": 44.0199261, "longitude": -92.4405228, "care_type": "OB-GYN"}, {"name": "Dr. Kavita Narang", "address": "200 1st St SW, Rochester, MN 55905", "city": "Rochester", "phone": "+1 507-284-2511", "website": "", "rating": null, "reviews": 0, "place_id": "ChIJAQAAOXtf94cR58fdGQJnwGk", "latitude": 44.0226729, "longitude": -92.4667508, "care_type": "OB-GYN"}, {"name": "Dr. Margaret Dow", "address": "200 1st St SW, Rochester, MN 55905", "city": "Rochester", "phone": "+1 504-284-5000", "website": "", "rating": null, "reviews": 0, "place_id": "ChIJAQAAOXtf94cRCQRxtFWbvhs", "latitude": 44.0226729, "longitude": -92.4667508, "care_type": "OB-GYN"}, {"name": "Amy E. Nelson, APRN, CNP", "address": "1650 4th St SE, Rochester, MN 55904", "city": "Rochester", "phone": "+1 507-529-6605", "website": "https://www.olmmed.org/find-a-provider/profile/%3Fid%3D55%26utm_source%3DOMC_Nelson%26utm_campaign%3DLocal-Listings%26utm_medium%3DGoogle-My-Business", "rating": null, "reviews": 0, "place_id": "ChIJ392zn8fh-YcRj-X-kbCAq5M", "latitude": 44.020239, "longitude": -92.4407449, "care_type": "OB-GYN"}, {"name": "Olmsted Medical Center - Perinatology department", "address": "1650 4th St SE, Rochester, MN 55904", "city": "Rochester", "phone": "+1 507-529-6605", "website": "https://www.olmmed.org/clinical-services/perinatology-services/%3Futm_source%3DOMC_Perinatology%26utm_campaign%3DLocal-Listings%26utm_medium%3DGoogle-My-Business", "rating": null, "reviews": 0, "place_id": "ChIJp4Jdqk3h-YcRyGC_Xvi5XvU", "latitude": 44.0199261, "longitude": -92.4405228, "care_type": "OB-GYN"}, {"name": "Dr. Kristi L. Boldt, MD", "address": "200 1st Ave SW, Rochester, MN 55902", "city": "Rochester", "phone": "+1 507-284-2511", "website": "", "rating": null, "reviews": 0, "place_id": "ChIJB9eVNXtf94cRUQTeJzDM788", "latitude": 44.0225485, "longitude": -92.46666019999999, "care_type": "OB-GYN"}, {"name": "Dr. Nanette L. Rollene, MD", "address": "200 1st St NW, Rochester, MN 55901", "city": "Rochester", "phone": "+1 507-284-2511", "website": "http://www.mayoclinic.org/", "rating": null, "reviews": 0, "place_id": "ChIJB9eVNXtf94cR7GTAzqsQWuU", "latitude": 44.0226729, "longitude": -92.4667508, "care_type": "OB-GYN"}, {"name": "Dr. Kathy Bonapace, MD", "address": "1650 4th St SE, Rochester, MN 55904", "city": "Rochester", "phone": "+1 507-288-3443", "website": "http://olmmed.org/", "rating": null, "reviews": 0, "place_id": "ChIJ392zn8fh-YcRDrLqpwHq6p0", "latitude": 44.0203332, "longitude": -92.4402642, "care_type": "OB-GYN"}, {"name": "Abimbola O. Famuyide, MD", "address": "200 1st St SW, Rochester, MN 55905", "city": "Rochester", "phone": "+1 507-284-2511", "website": "https://www.mayoclinic.org/biographies/famuyide-abimbola-o-m-b-b-s/bio-20054435", "rating": 5.0, "reviews": 2, "place_id": "ChIJB9eVNXtf94cRuHKFiUInqLY", "latitude": 44.02218149999999, "longitude": -92.4666893, "care_type": "OB-GYN"}, {"name": "Dr. Jack F. Perrone, MD", "address": "1650 4th St SE, Rochester, MN 55904", "city": "Rochester", "phone": "+1 507-529-6605", "website": "http://olmmed.org/", "rating": null, "reviews": 0, "place_id": "ChIJ392zn8fh-YcRT-e9G6aEU6I", "latitude": 44.0201253, "longitude": -92.4398685, "care_type": "OB-GYN"}, {"name": "Dr. Carol E. Ball, MD", "address": "1212 7th St NW, Rochester, MN 55901", "city": "Rochester", "phone": "+1 507-288-5186", "website": "", "rating": null, "reviews": 0, "place_id": "ChIJM92JDaBf94cRvQspUMGzAxQ", "latitude": 44.0319848, "longitude": -92.4813198, "care_type": "OB-GYN"}, {"name": "Dr. Sarah De Cicco", "address": "210 9th St SE, Rochester, MN 55904", "city": "Rochester", "phone": "+1 507-288-3443", "website": "https://www.olmmed.org/find-a-provider/profile/%3Fid%3D409", "rating": null, "reviews": 0, "place_id": "ChIJq6rqA-Dh-YcRZhOyWtaVn18", "latitude": 44.0121818, "longitude": -92.46018269999999, "care_type": "OB-GYN"}, {"name": "Dr. Bobbie S. Gostout, MD", "address": "200 1st Ave SW, Rochester, MN 55902", "city": "Rochester", "phone": "+1 507-284-2511", "website": "", "rating": null, "reviews": 0, "place_id": "ChIJB9eVNXtf94cRp0mTDS3Nwgw", "latitude": 44.0225485, "longitude": -92.46666019999999, "care_type": "OB-GYN"}, {"name": "Natalie Braun", "address": "210 9th St SE Ste 1, Rochester, MN 55904", "city": "Rochester", "phone": "+1 507-288-3443", "website": "", "rating": null, "reviews": 0, "place_id": "ChIJq6rqA-Dh-YcRsU4XmZ-ACAA", "latitude": 44.0121818, "longitude": -92.46018269999999, "care_type": "OB-GYN"}, {"name": "Danielle Falde", "address": "200 1st St SW, Rochester, MN 55905", "city": "Rochester", "phone": "+1 507-284-2511", "website": "", "rating": null, "reviews": 0, "place_id": "ChIJAQAAOXtf94cRbnxHf85OwIk", "latitude": 44.0226729, "longitude": -92.4667508, "care_type": "OB-GYN"}, {"name": "Alyssa Larish", "address": "200 1st St SW, Rochester, MN 55902", "city": "Rochester", "phone": "+1 507-333-3330", "website": "https://www.mayoclinic.org/biographies/larish-alyssa-m-m-d/bio-20511522", "rating": null, "reviews": 0, "place_id": "ChIJkWuckeL59ocRxBR06UIzhWI", "latitude": 44.0221646, "longitude": -92.4672051, "care_type": "OB-GYN"}, {"name": "SARAH ANN TRAXLER", "address": "1212 7th St NW, Rochester, MN 55901", "city": "Rochester", "phone": "+1 507-288-5186", "website": "", "rating": null, "reviews": 0, "place_id": "ChIJI1vHoApf94cR7twVgDneU38", "latitude": 44.0310566, "longitude": -92.4811814, "care_type": "OB-GYN"}, {"name": "Catherine Hutz", "address": "200 1st St SW, Rochester, MN 55905", "city": "Rochester", "phone": "+1 507-284-2511", "website": "", "rating": null, "reviews": 0, "place_id": "ChIJAQAAOXtf94cRitR4acKJb1Y", "latitude": 44.0226729, "longitude": -92.4667508, "care_type": "OB-GYN"}, {"name": "Anne Nora", "address": "200 1st St SW, Rochester, MN 55905", "city": "Rochester", "phone": "+1 507-284-2511", "website": "", "rating": null, "reviews": 0, "place_id": "ChIJAQAAOXtf94cR92KMzX3moeI", "latitude": 44.0226729, "longitude": -92.4667508, "care_type": "OB-GYN"}, {"name": "Baker Michael J MD", "address": "200 1st St SW, Rochester, MN 55905", "city": "Rochester", "phone": "+1 507-284-2511", "website": "", "rating": null, "reviews": 0, "place_id": "ChIJB9eVNXtf94cRGgCvLFe4N3g", "latitude": 44.02218149999999, "longitude": -92.4666893, "care_type": "OB-GYN"}, {"name": "Kristen Woodward", "address": "200 1st St SW, Rochester, MN 55905", "city": "Rochester", "phone": "+1 507-284-2511", "website": "", "rating": null, "reviews": 0, "place_id": "ChIJAQAAOXtf94cRchZ4wsa4eFQ", "latitude": 44.0226729, "longitude": -92.4667508, "care_type": "OB-GYN"}, {"name": "Carl H. Rose, MD", "address": "200 1st St SW, Rochester, MN 55905", "city": "Rochester", "phone": "+1 507-284-2511", "website": "https://www.mayoclinic.org/biographies/rose-carl-h-m-d/bio-20054691%23!", "rating": 3.0, "reviews": 4, "place_id": "ChIJB9eVNXtf94cRF9VynjAm-Cc", "latitude": 44.02218149999999, "longitude": -92.4666893, "care_type": "OB-GYN"}, {"name": "Thomas M. Kastner, MD", "address": "200 1st St SW, Rochester, MN 55905", "city": "Rochester", "phone": "+1 507-284-2511", "website": "http://www.mayoclinic.org/", "rating": null, "reviews": 0, "place_id": "ChIJB9eVNXtf94cROh1T5AvBI3k", "latitude": 44.02218149999999, "longitude": -92.4666893, "care_type": "OB-GYN"}, {"name": "Elizabeth R. Westby, MD", "address": "Gonda Building, 200 1st St SW, Rochester, MN 55905", "city": "Rochester", "phone": "+1 507-284-2511", "website": "http://www.mayoclinic.org/", "rating": null, "reviews": 0, "place_id": "ChIJB9eVNXtf94cRRKRH1qP4IkM", "latitude": 44.02218149999999, "longitude": -92.4666893, "care_type": "OB-GYN"}, {"name": "Kyle D. Traynor, MD", "address": "200 1st St SW, Rochester, MN 55905", "city": "Rochester", "phone": "+1 507-284-2511", "website": "https://www.mayoclinic.org/biographies/traynor-kyle-d-m-d/bio-20054577", "rating": null, "reviews": 0, "place_id": "ChIJB9eVNXtf94cRVsI0U4yU5KM", "latitude": 44.02218149999999, "longitude": -92.4666893, "care_type": "OB-GYN"}, {"name": "Emanuel C. Trabuco, MD", "address": "200 1st St SW, Rochester, MN 55905", "city": "Rochester", "phone": "+1 507-284-2511", "website": "https://www.mayoclinic.org/biographies/trabuco-emanuel-c-m-d/bio-20055041%23!", "rating": 5.0, "reviews": 1, "place_id": "ChIJB9eVNXtf94cR6TPeJVLuH5A", "latitude": 44.02218149999999, "longitude": -92.4666893, "care_type": "OB-GYN"}, {"name": "Petra M. Casey, MD", "address": "200 1st St SW, Rochester, MN 55905", "city": "Rochester", "phone": "+1 507-284-2511", "website": "", "rating": null, "reviews": 0, "place_id": "ChIJB9eVNXtf94cRFHHQDIFTzSc", "latitude": 44.02218149999999, "longitude": -92.4666893, "care_type": "OB-GYN"}, {"name": "Priyal Fadadu", "address": "200 1st St SW, Rochester, MN 55905", "city": "Rochester", "phone": "+1 507-538-3270", "website": "", "rating": null, "reviews": 0, "place_id": "ChIJAQAAOXtf94cR2EUWfnMfgkk", "latitude": 44.0226729, "longitude": -92.4667508, "care_type": "OB-GYN"}, {"name": "Dr. Elisabeth Codsi", "address": "200 1st St SW, Rochester, MN 55905", "city": "Rochester", "phone": "+1 507-284-2511", "website": "", "rating": null, "reviews": 0, "place_id": "ChIJAQAAOXtf94cRgKnhr3hZCbU", "latitude": 44.0226729, "longitude": -92.4667508, "care_type": "OB-GYN"}, {"name": "Luiz Correa", "address": "200 1st St SW, Rochester, MN 55905", "city": "Rochester", "phone": "+1 507-284-2511", "website": "", "rating": null, "reviews": 0, "place_id": "ChIJAQAAOXtf94cRQ9nil2uQQgM", "latitude": 44.0226729, "longitude": -92.4667508, "care_type": "OB-GYN"}, {"name": "Mary L. Marnach, MD", "address": "200 1st St SW, Rochester, MN 55905", "city": "Rochester", "phone": "+1 507-284-2511", "website": "http://www.mayoclinic.org/", "rating": null, "reviews": 0, "place_id": "ChIJB9eVNXtf94cR5PqHgFZHcRU", "latitude": 44.02218149999999, "longitude": -92.4666893, "care_type": "OB-GYN"}, {"name": "Margaret E. Pfeifer, MD", "address": "200 1st St SW, Rochester, MN 55905", "city": "Rochester", "phone": "+1 507-284-2511", "website": "http://www.mayoclinic.org/", "rating": null, "reviews": 0, "place_id": "ChIJB9eVNXtf94cREtNvCPBe3HQ", "latitude": 44.02218149999999, "longitude": -92.4666893, "care_type": "OB-GYN"}, {"name": "Laughlin Shannon K MD", "address": "200 1st St SW, Rochester, MN 55905", "city": "Rochester", "phone": "+1 507-284-2511", "website": "https://www.mayoclinic.org/biographies/laughlin-tommaso-shannon-k-m-d/bio-20055257", "rating": null, "reviews": 0, "place_id": "ChIJB9eVNXtf94cR0c2aoa8LKf4", "latitude": 44.02218149999999, "longitude": -92.4666893, "care_type": "OB-GYN"}, {"name": "Diana Encalada Soto", "address": "200 1st St SW, Rochester, MN 55905", "city": "Rochester", "phone": "+1 507-538-3270", "website": "", "rating": 5.0, "reviews": 1, "place_id": "ChIJAQAAOXtf94cRHaMk28zV1kk", "latitude": 44.0226729, "longitude": -92.4667508, "care_type": "OB-GYN"}, {"name": "Amy Louise Ntoburi, APRN, CNM", "address": "1650 4th St SE, Rochester, MN 55904", "city": "Rochester", "phone": "+1 507-529-6605", "website": "https://www.olmmed.org/find-a-provider/profile/%3Fid%3D132%26utm_source%3DOMC_Ntoburi%26utm_campaign%3DLocal-Listings%26utm_medium%3DGoogle-My-Business", "rating": null, "reviews": 0, "place_id": "ChIJW4FlZu3h-YcRPmEGwx4l-ZA", "latitude": 44.0199261, "longitude": -92.4405228, "care_type": "OB-GYN"}, {"name": "Bryan T. Jones, Crna", "address": "200 1st St NW, Rochester, MN 55901", "city": "Rochester", "phone": "+1 507-284-2511", "website": "http://www.mayoclinic.org/", "rating": null, "reviews": 0, "place_id": "ChIJB9eVNXtf94cR9tk7cNGSYlA", "latitude": 44.0226729, "longitude": -92.4667508, "care_type": "OB-GYN"}, {"name": "John A. Occhino, MD", "address": "200 1st St SW, Rochester, MN 55905", "city": "Rochester", "phone": "+1 507-284-2511", "website": "http://www.mayoclinic.org/", "rating": 5.0, "reviews": 1, "place_id": "ChIJB9eVNXtf94cRsoRIlg0lhvU", "latitude": 44.02218149999999, "longitude": -92.4666893, "care_type": "OB-GYN"}, {"name": "Michelle Delplanche", "address": "200 1st St SW, Rochester, MN 55905", "city": "Rochester", "phone": "+1 507-284-2511", "website": "", "rating": null, "reviews": 0, "place_id": "ChIJAQAAOXtf94cR--fBAu0w8uQ", "latitude": 44.0226729, "longitude": -92.4667508, "care_type": "OB-GYN"}, {"name": "Dr. Bruce W. Johnston, MD", "address": "200 1st St SW, Rochester, MN 55905", "city": "Rochester", "phone": "+1 507-284-2511", "website": "", "rating": null, "reviews": 0, "place_id": "ChIJB9eVNXtf94cRZZfrZ2YaXmc", "latitude": 44.02218149999999, "longitude": -92.4666893, "care_type": "OB-GYN"}, {"name": "Adela Cope", "address": "200 1st St SW, Rochester, MN 55905", "city": "Rochester", "phone": "+1 507-284-2511", "website": "https://www.mayoclinic.org/biographies/cope-adela-g-m-d/bio-20436229", "rating": null, "reviews": 0, "place_id": "ChIJAQAAOXtf94cRoD25I83LfJs", "latitude": 44.0226729, "longitude": -92.4667508, "care_type": "OB-GYN"}, {"name": "Carol L. Kuhle, DO, MPH", "address": "200 1st St SW, Rochester, MN 55905", "city": "Rochester", "phone": "+1 507-284-2511", "website": "https://www.mayoclinic.org/biographies/kuhle-carol-l-d-o-m-p-h/bio-20055655", "rating": 1.0, "reviews": 1, "place_id": "ChIJvU2ONXtf94cRxawUOBsUY4g", "latitude": 44.02218149999999, "longitude": -92.4666893, "care_type": "OB-GYN"}, {"name": "Dr. Gaurang S. Daftary, MD", "address": "200 1st St SW, Rochester, MN 55905", "city": "Rochester", "phone": "+1 507-284-2511", "website": "", "rating": null, "reviews": 0, "place_id": "ChIJB9eVNXtf94cRXJ1d0-ziMtU", "latitude": 44.02218149999999, "longitude": -92.4666893, "care_type": "OB-GYN"}, {"name": "Christopher Klingele", "address": "210 9th St SE, Rochester, MN 55904", "city": "Rochester", "phone": "+1 507-288-3443", "website": "https://www.olmmed.org/find-a-provider/profile/%3Fid%3D436", "rating": null, "reviews": 0, "place_id": "ChIJq6rqA-Dh-YcRfhyz72IAIQI", "latitude": 44.0121818, "longitude": -92.46018269999999, "care_type": "OB-GYN"}, {"name": "Rebecca K. Kearns, APRN, CNM", "address": "1650 4th St SE, Rochester, MN 55904", "city": "Rochester", "phone": "+1 507-529-6605", "website": "https://www.olmmed.org/find-a-provider/profile/%3Fid%3D400%26utm_source%3DOMC_Kearns%26utm_campaign%3DLocal-Listings%26utm_medium%3DGoogle-My-Business", "rating": null, "reviews": 0, "place_id": "ChIJLXMz-sLh-YcR0ggJDSk7OdM", "latitude": 44.0199261, "longitude": -92.4405228, "care_type": "OB-GYN"}, {"name": "Gary M. Miller, MD", "address": "200 1st St SW, Rochester, MN 55905", "city": "Rochester", "phone": "+1 507-284-2511", "website": "", "rating": null, "reviews": 0, "place_id": "ChIJB9eVNXtf94cRAstBNGVbdVw", "latitude": 44.02218149999999, "longitude": -92.4666893, "care_type": "OB-GYN"}, {"name": "Dr. Paula D. Chantigian, MD", "address": "200 1st St SW W4, Rochester, MN 55905", "city": "Rochester", "phone": "+1 507-284-2511", "website": "", "rating": null, "reviews": 0, "place_id": "ChIJB9eVNXtf94cRjkc5tguXLFA", "latitude": 44.02218149999999, "longitude": -92.4666893, "care_type": "OB-GYN"}, {"name": "Linda Szymanski", "address": "200 1st St SW, Rochester, MN 55905", "city": "Rochester", "phone": "+1 507-284-2511", "website": "https://www.mayoclinic.org/biographies/szymanski-linda-m-m-d-ph-d/bio-20441584", "rating": null, "reviews": 0, "place_id": "ChIJAQAAOXtf94cRlX-OL8uPsGA", "latitude": 44.0226729, "longitude": -92.4667508, "care_type": "OB-GYN"}, {"name": "Laura the Midwife", "address": "8th Ave NE, Rochester, MN 55906", "city": "Rochester", "phone": "+1 320-241-0937", "website": "http://www.laurathemidwife.com/", "rating": 5.0, "reviews": 5, "place_id": "ChIJa8RiaHL7MWsRzsmWnzRJYDo", "latitude": 44.0365575, "longitude": -92.4520414, "care_type": "OB-GYN"}, {"name": "Dr. Jessica Martin", "address": "200 1st St SW, Rochester, MN 55905", "city": "Rochester", "phone": "+1 507-284-2511", "website": "", "rating": null, "reviews": 0, "place_id": "ChIJAQAAOXtf94cRYiYuEwvxRfY", "latitude": 44.0226729, "longitude": -92.4667508, "care_type": "OB-GYN"}, {"name": "Douglas Leach", "address": "200 1st St SW, Rochester, MN 559051302", "city": "Rochester", "phone": "+1 507-284-2511", "website": "", "rating": null, "reviews": 0, "place_id": "ChIJAQAAOXtf94cRZTWfAxKIRww", "latitude": 44.0226729, "longitude": -92.4667508, "care_type": "OB-GYN"}, {"name": "Dr. Shunaha Kim Fine, MD", "address": "200 1st St SW, Rochester, MN 55905", "city": "Rochester", "phone": "+1 507-284-2511", "website": "http://www.mayoclinic.org/", "rating": null, "reviews": 0, "place_id": "ChIJB9eVNXtf94cR04PzjmP8Kd8", "latitude": 44.0225485, "longitude": -92.46666019999999, "care_type": "OB-GYN"}, {"name": "Sean C. Dowdy, MD", "address": "200 1st St SW, Rochester, MN 55905", "city": "Rochester", "phone": "+1 507-284-2511", "website": "https://www.mayoclinic.org/biographies/dowdy-sean-c-m-d/bio-20054619", "rating": null, "reviews": 0, "place_id": "ChIJB9eVNXtf94cRGiALiO2_kKY", "latitude": 44.02218149999999, "longitude": -92.4666893, "care_type": "OB-GYN"}, {"name": "Langstraat Carrie L MD", "address": "200 1st St SW, Rochester, MN 55905", "city": "Rochester", "phone": "+1 507-284-2511", "website": "https://www.mayoclinic.org/biographies/langstraat-carrie-l-m-d/bio-20055571", "rating": 5.0, "reviews": 1, "place_id": "ChIJB9eVNXtf94cR-sYFh4O8C70", "latitude": 44.02218149999999, "longitude": -92.4666893, "care_type": "OB-GYN"}, {"name": "Leslie Carranza", "address": "200 1st St SW, Rochester, MN 55905", "city": "Rochester", "phone": "+1 507-284-2511", "website": "https://www.mayoclinic.org/biographies/carranza-leslie-m-d/bio-20492149", "rating": null, "reviews": 0, "place_id": "ChIJAQAAOXtf94cRt9qwayKNxiw", "latitude": 44.0226729, "longitude": -92.4667508, "care_type": "OB-GYN"}, {"name": "Gretchen E. Glaser, MD", "address": "200 1st St SW, Rochester, MN 55905", "city": "Rochester", "phone": "+1 507-284-2511", "website": "https://www.mayoclinic.org/biographies/glaser-gretchen-e-m-d/bio-20209344", "rating": null, "reviews": 0, "place_id": "ChIJB9eVNXtf94cRRfayOeH2V4w", "latitude": 44.02218149999999, "longitude": -92.4666893, "care_type": "OB-GYN"}, {"name": "Myra Wick, MD", "address": "200 1st St SW, Rochester, MN 55905", "city": "Rochester", "phone": "+1 507-284-2511", "website": "https://www.mayoclinic.org/biographies/wick-myra-j-m-d-ph-d/bio-20054521", "rating": null, "reviews": 0, "place_id": "ChIJB9eVNXtf94cRvdolhf_oN1c", "latitude": 44.02218149999999, "longitude": -92.4666893, "care_type": "OB-GYN"}, {"name": "Stewart Elizabeth A MD", "address": "200 1st St SW, Rochester, MN 55905", "city": "Rochester", "phone": "+1 507-284-2511", "website": "https://www.mayoclinic.org/biographies/stewart-elizabeth-ebbie-a-m-d/bio-20054919", "rating": null, "reviews": 0, "place_id": "ChIJB9eVNXtf94cRjpBRDobqpMc", "latitude": 44.02218149999999, "longitude": -92.4666893, "care_type": "OB-GYN"}, {"name": "Kempers R D MD", "address": "200 1st St SW, Rochester, MN 55905", "city": "Rochester", "phone": "+1 507-284-2511", "website": "", "rating": null, "reviews": 0, "place_id": "ChIJB9eVNXtf94cRMCpuORESSl4", "latitude": 44.02218149999999, "longitude": -92.4666893, "care_type": "OB-GYN"}, {"name": "Eleftheria Kalogera", "address": "200 1st St SW, Rochester, MN 55905", "city": "Rochester", "phone": "+1 507-284-2511", "website": "", "rating": null, "reviews": 0, "place_id": "ChIJAQAAOXtf94cRUdpP3Y5PSJg", "latitude": 44.0226729, "longitude": -92.4667508, "care_type": "OB-GYN"}, {"name": "Dr. Enid Rivera-Chiauzzi", "address": "200 1st St SW, Rochester, MN 55905", "city": "Rochester", "phone": "+1 507-284-2511", "website": "https://www.mayoclinic.org/biographies/rivera-chiauzzi-enid-y-m-d/bio-20349924", "rating": null, "reviews": 0, "place_id": "ChIJAQAAOXtf94cRLXtjkUuzEKw", "latitude": 44.0226729, "longitude": -92.4667508, "care_type": "OB-GYN"}, {"name": "Sarah Cohen", "address": "200 1st St SW, Rochester, MN 559050001", "city": "Rochester", "phone": "+1 507-284-2511", "website": "https://www.med.unc.edu/cellbiophysio/directory/sarah-cohen-phd/", "rating": null, "reviews": 0, "place_id": "ChIJAQAAOXtf94cRickgxR3W0Fg", "latitude": 44.0226729, "longitude": -92.4667508, "care_type": "OB-GYN"}, {"name": "Anousheh Shafa", "address": "200 1st St SW, Rochester, MN 55905", "city": "Rochester", "phone": "+1 507-284-2511", "website": "", "rating": null, "reviews": 0, "place_id": "ChIJAQAAOXtf94cR01QaJsgmKxU", "latitude": 44.0226729, "longitude": -92.4667508, "care_type": "OB-GYN"}, {"name": "Matthew R. Hopkins, MD", "address": "200 1st St SW, Rochester, MN 55905", "city": "Rochester", "phone": "+1 507-284-2511", "website": "https://www.mayoclinic.org/biographies/hopkins-matthew-r-m-d/bio-20054578", "rating": null, "reviews": 0, "place_id": "ChIJB9eVNXtf94cRUFrkrzOD0Jw", "latitude": 44.0225485, "longitude": -92.46666019999999, "care_type": "OB-GYN"}, {"name": "Dr. Diana Gillman", "address": "210 9th St SE Ste 1, Rochester, MN 55904", "city": "Rochester", "phone": "+1 507-288-3443", "website": "https://www.olmmed.org/find-a-provider/profile/%3Fid%3D293", "rating": null, "reviews": 0, "place_id": "ChIJq6rqA-Dh-YcRNTCx--DbOh0", "latitude": 44.0121818, "longitude": -92.46018269999999, "care_type": "OB-GYN"}, {"name": "Dr. Mari Charisse Trinidad", "address": "200 1st St SW, Rochester, MN 55905", "city": "Rochester", "phone": "+1 504-284-5000", "website": "", "rating": null, "reviews": 0, "place_id": "ChIJAQAAOXtf94cRo7D8yfejsnQ", "latitude": 44.0226729, "longitude": -92.4667508, "care_type": "OB-GYN"}, {"name": "Rita Y. Wang, MD", "address": "200 1st St SW, Rochester, MN 55905", "city": "Rochester", "phone": "+1 507-284-2511", "website": "http://www.mayoclinic.org/", "rating": null, "reviews": 0, "place_id": "ChIJB9eVNXtf94cR2bILfHIPHY0", "latitude": 44.02218149999999, "longitude": -92.4666893, "care_type": "OB-GYN"}, {"name": "Simrit Warring", "address": "200 1st St SW, Rochester, MN 55905", "city": "Rochester", "phone": "+1 507-284-2511", "website": "https://college.mayo.edu/academics/residencies-and-fellowships/gynecologic-oncology-fellowship-minnesota/fellow-profiles/", "rating": null, "reviews": 0, "place_id": "ChIJAQAAOXtf94cRIhdY0Nt33FQ", "latitude": 44.0226729, "longitude": -92.4667508, "care_type": "OB-GYN"}, {"name": "Carrie B. Allemand, MD", "address": "200 1st St SW, Rochester, MN 55905", "city": "Rochester", "phone": "+1 507-284-2511", "website": "http://www.mayoclinic.org/", "rating": null, "reviews": 0, "place_id": "ChIJB9eVNXtf94cRyNS9Bu-q6Hc", "latitude": 44.02218149999999, "longitude": -92.4666893, "care_type": "OB-GYN"}, {"name": "Harry J. Long, MD", "address": "200 1st St SW, Rochester, MN 55905", "city": "Rochester", "phone": "+1 507-284-2511", "website": "http://www.mayoclinic.org/", "rating": null, "reviews": 0, "place_id": "ChIJB9eVNXtf94cRLYNAJzD0YqQ", "latitude": 44.0225485, "longitude": -92.46666019999999, "care_type": "OB-GYN"}, {"name": "P. F. Leonard, MD", "address": "200 1st St SW, Rochester, MN 55905", "city": "Rochester", "phone": "+1 507-284-2511", "website": "http://www.mayoclinic.org/", "rating": null, "reviews": 0, "place_id": "ChIJB9eVNXtf94cRVO_DR1PUdC8", "latitude": 44.02218149999999, "longitude": -92.4666893, "care_type": "OB-GYN"}, {"name": "Keith L. Johansen, MD", "address": "200 1st St SW, Rochester, MN 55905", "city": "Rochester", "phone": "+1 507-284-2511", "website": "http://www.mayoclinic.org/", "rating": null, "reviews": 0, "place_id": "ChIJB9eVNXtf94cRya2kS1rQBJo", "latitude": 44.02218149999999, "longitude": -92.4666893, "care_type": "OB-GYN"}, {"name": "Charles C. Coddington, MD", "address": "200 1st St SW, Rochester, MN 55905", "city": "Rochester", "phone": "+1 507-284-2511", "website": "", "rating": null, "reviews": 0, "place_id": "ChIJB9eVNXtf94cR_FQ6wXGRLUA", "latitude": 44.02218149999999, "longitude": -92.4666893, "care_type": "OB-GYN"}, {"name": "Norman P. Davies, MD", "address": "200 1st St SW, Rochester, MN 55905", "city": "Rochester", "phone": "+1 507-284-2511", "website": "http://www.mayoclinic.org/", "rating": null, "reviews": 0, "place_id": "ChIJB9eVNXtf94cRO76r5w7IAXI", "latitude": 44.02218149999999, "longitude": -92.4666893, "care_type": "OB-GYN"}, {"name": "Robert Fagnant", "address": "200 1st St SW, Rochester, MN 55905", "city": "Rochester", "phone": "+1 507-284-2511", "website": "", "rating": null, "reviews": 0, "place_id": "ChIJAQAAOXtf94cR1IfDq3z72tQ", "latitude": 44.0226729, "longitude": -92.4667508, "care_type": "OB-GYN"}, {"name": "Dr. Yvonne Butler Tobah", "address": "200 1st St SW, Rochester, MN 55905", "city": "Rochester", "phone": "+1 507-284-2511", "website": "https://www.mayoclinic.org/biographies/butler-tobah-yvonne-s-m-d/bio-20113896", "rating": null, "reviews": 0, "place_id": "ChIJAQAAOXtf94cRDn6Ys0IkhRU", "latitude": 44.0226729, "longitude": -92.4667508, "care_type": "OB-GYN"}, {"name": "Amanika Kumar", "address": "200 1st St SW, Rochester, MN 55905", "city": "Rochester", "phone": "+1 504-284-5000", "website": "https://www.mayoclinic.org/biographies/kumar-amanika-m-d/bio-20241765", "rating": null, "reviews": 0, "place_id": "ChIJAQAAOXtf94cRLluG6HrUKCs", "latitude": 44.0226729, "longitude": -92.4667508, "care_type": "OB-GYN"}, {"name": "Aspirus St. Luke\u2019s Clinic - Duluth - Obstetrics & Gynecology", "address": "1001 E Superior St Suite 301, Duluth, MN 55802", "city": "Duluth", "phone": "+1 218-249-4700", "website": "https://locations.aspirus.org/mn/duluth/1001-east-superior-street/obstetrics-%26-gynecology", "rating": 3.2, "reviews": 17, "place_id": "ChIJca3hAtBSrlIR0_Ehf4BwbSg", "latitude": 46.7970306, "longitude": -92.0855005, "care_type": "OB-GYN"}, {"name": "Essentia Health-West Duluth Clinic: Gynecology", "address": "4212 Grand Ave STE A, Duluth, MN 55807", "city": "Duluth", "phone": "+1 218-786-3500", "website": "https://www.essentiahealth.org/find-facility/gynecology-essentia-health-duluth-clinic-1st-street-building-a", "rating": 2.0, "reviews": 1, "place_id": "ChIJsYMQqbVNrlIRvT35jbYHdf0", "latitude": 46.74899689999999, "longitude": -92.15361659999999, "care_type": "OB-GYN"}, {"name": "Nicole Susanne Seacotte, MD", "address": "420 E 1st St, Duluth, MN 55805", "city": "Duluth", "phone": "+1 218-786-3800", "website": "https://www.essentiahealth.org/find-doctor-provider/nicole-seacotte%3Futm_source%3Dpg-google%26utm_medium%3Dorganic%26utm_campaign%3Dpg-listings", "rating": 5.0, "reviews": 2, "place_id": "ChIJj52rQsdSrlIRAY8wpHBxAYU", "latitude": 46.7920555, "longitude": -92.0928811, "care_type": "OB-GYN"}, {"name": "Dr. Susan Goltz - St. Luke's Obstetrics & Gynecology Associates", "address": "Lower Level, 1000 E 1st St, Duluth, MN 55805", "city": "Duluth", "phone": "+1 218-249-4700", "website": "http://www.slhduluth.com/Find-a-Location/St-Lukes-Obstetrics-Gynecology-Associates.aspx", "rating": 2.6, "reviews": 5, "place_id": "ChIJca3hAtBSrlIRLcGcJGHDHeQ", "latitude": 46.7971902, "longitude": -92.08643599999999, "care_type": "OB-GYN"}, {"name": "Anne Schepers, MD", "address": "420 E 1st St, Third Floor, Duluth, MN 55805", "city": "Duluth", "phone": "", "website": "", "rating": 5.0, "reviews": 1, "place_id": "ChIJj52rQsdSrlIRWfS3QpuxxzU", "latitude": 46.7920555, "longitude": -92.0928811, "care_type": "OB-GYN"}, {"name": "Aspirus St. Luke's Hospital - Birthing Center", "address": "915 E 1st St, Duluth, MN 55805", "city": "Duluth", "phone": "+1 218-249-5605", "website": "https://locations.aspirus.org/mn/duluth/915-east-first-street/birthing-centers", "rating": 4.2, "reviews": 15, "place_id": "ChIJd7Bp_c9SrlIRyZjCttUAKjQ", "latitude": 46.7976812, "longitude": -92.08662319999999, "care_type": "OB-GYN"}, {"name": "Karin Britta Knutson, MD", "address": "420 E 1st St, Duluth, MN 55805", "city": "Duluth", "phone": "+1 218-786-3800", "website": "https://www.essentiahealth.org/find-doctor-provider/karin-knutson%3Futm_source%3Dpg-google%26utm_medium%3Dorganic%26utm_campaign%3Dpg-listings", "rating": 5.0, "reviews": 2, "place_id": "ChIJOdySvBdTrlIRBJvypUrUcYk", "latitude": 46.7920555, "longitude": -92.0928811, "care_type": "OB-GYN"}, {"name": "Colleen Renee Kelly Evans, DO", "address": "420 E 1st St, Duluth, MN 55805", "city": "Duluth", "phone": "", "website": "", "rating": 5.0, "reviews": 7, "place_id": "ChIJT3Jqy8ZSrlIRUKPb4cr3-gI", "latitude": 46.7920555, "longitude": -92.0928811, "care_type": "OB-GYN"}, {"name": "Haley Marie Meyer, MD", "address": "420 E 1st St, Duluth, MN 55805", "city": "Duluth", "phone": "+1 218-786-3800", "website": "https://www.essentiahealth.org/find-doctor-provider/haley-meyer%3Futm_source%3Dpg-google%26utm_medium%3Dorganic%26utm_campaign%3Dpg-listings", "rating": 5.0, "reviews": 2, "place_id": "ChIJJ-73pnZTrlIRBAmOFdkzEk4", "latitude": 46.7920555, "longitude": -92.0928811, "care_type": "OB-GYN"}, {"name": "Alena Nevers Tofte, MD", "address": "420 E 1st St, Duluth, MN 55805", "city": "Duluth", "phone": "+1 218-786-3800", "website": "https://www.essentiahealth.org/find-doctor-provider/alena-tofte%3Futm_source%3Dpg-google%26utm_medium%3Dorganic%26utm_campaign%3Dpg-listings", "rating": null, "reviews": 0, "place_id": "ChIJKVRIYp9TrlIRfTVyTLI00tY", "latitude": 46.7920555, "longitude": -92.0928811, "care_type": "OB-GYN"}, {"name": "Ashlee Jean Espensen, APRN, CNM", "address": "420 E 1st St, Duluth, MN 55805", "city": "Duluth", "phone": "+1 218-786-3800", "website": "https://www.essentiahealth.org/find-doctor-provider/ashlee-espensen%3Futm_source%3Dpg-google%26utm_medium%3Dorganic%26utm_campaign%3Dpg-listings", "rating": null, "reviews": 0, "place_id": "ChIJCSzqslNTrlIRqSE_oa00nOs", "latitude": 46.7920555, "longitude": -92.0928811, "care_type": "OB-GYN"}, {"name": "Andrea Wahman, MD", "address": "420 E 1st St, Duluth, MN 55805", "city": "Duluth", "phone": "+1 218-786-3800", "website": "https://www.essentiahealth.org/find-doctor-provider/profile/andrea-wahman", "rating": 3.0, "reviews": 2, "place_id": "ChIJj52rQsdSrlIRqkZ-bWhzX_s", "latitude": 46.7920555, "longitude": -92.0928811, "care_type": "OB-GYN"}, {"name": "Aimee Vanstraaten, MD", "address": "Northland Building, 1000 E 1st St Ste Ll, Duluth, MN 55805", "city": "Duluth", "phone": "+1 218-249-4700", "website": "https://www.slhduluth.com/~/physician-directory/aimee-vanstraaten-md-facog/", "rating": null, "reviews": 0, "place_id": "ChIJca3hAtBSrlIRbCno2tTGei4", "latitude": 46.7975089, "longitude": -92.0858241, "care_type": "OB-GYN"}, {"name": "Dr. Michael T. Laberge, MD", "address": "4212 Grand Ave STE A, Duluth, MN 55807", "city": "Duluth", "phone": "+1 218-786-3500", "website": "", "rating": 5.0, "reviews": 2, "place_id": "ChIJw6f8_rRNrlIR19bJWpUJ0NY", "latitude": 46.7490345, "longitude": -92.1535906, "care_type": "OB-GYN"}, {"name": "Dr. Judith L. Johnson, MD", "address": "4702 Grand Ave, Duluth, MN 55807", "city": "Duluth", "phone": "+1 218-249-6800", "website": "http://www.slhduluth.com/Physician-Directory/J/Judith-L-Johnson-MD-FACOG.aspx", "rating": null, "reviews": 0, "place_id": "ChIJndEKzzVMrlIRHdsLQAVBU3Y", "latitude": 46.744366, "longitude": -92.16044, "care_type": "OB-GYN"}, {"name": "Amber Ward, DO", "address": "420 E 1st St, Duluth, MN 55805", "city": "Duluth", "phone": "+1 218-786-3800", "website": "", "rating": 2.0, "reviews": 4, "place_id": "ChIJObp00vxTrlIRD--SsvQ08q8", "latitude": 46.7920555, "longitude": -92.0928811, "care_type": "OB-GYN"}, {"name": "Stephen Bloom, MD", "address": "420 E 1st St, Duluth, MN 55805", "city": "Duluth", "phone": "+1 218-786-8364", "website": "", "rating": 5.0, "reviews": 1, "place_id": "ChIJj52rQsdSrlIRNNvUgSWg_84", "latitude": 46.7917462, "longitude": -92.0933633, "care_type": "OB-GYN"}, {"name": "Rebecca Lewis, PA-C", "address": "420 E 1st St, Duluth, MN 55802", "city": "Duluth", "phone": "+1 218-786-3800", "website": "", "rating": null, "reviews": 0, "place_id": "ChIJfSpiFcdSrlIRTnJBEK5M7wM", "latitude": 46.7920684, "longitude": -92.0929436, "care_type": "OB-GYN"}, {"name": "Claire Lewandowski Mallof, MD", "address": "4855 W Arrowhead Rd Suite A, Hermantown, MN 55811", "city": "Hermantown", "phone": "+1 218-786-3540", "website": "https://www.essentiahealth.org/find-doctor-provider/claire-mallof%3Futm_source%3Dpg-google%26utm_medium%3Dorganic%26utm_campaign%3Dpg-listings", "rating": null, "reviews": 0, "place_id": "ChIJSa7drgOzr1IR_-ZwLJNHDdg", "latitude": 46.8229118, "longitude": -92.19142529999999, "care_type": "OB-GYN"}, {"name": "Vani Chaitanya Movva, MBBS", "address": "420 E 1st St, Duluth, MN 55805", "city": "Duluth", "phone": "+1 218-786-3800", "website": "https://www.essentiahealth.org/find-doctor-provider/vani-movva%3Futm_source%3Dpg-google%26utm_medium%3Dorganic%26utm_campaign%3Dpg-listings", "rating": null, "reviews": 0, "place_id": "ChIJeRngqPBTrlIRmVAGe-dXfPE", "latitude": 46.7920555, "longitude": -92.0928811, "care_type": "OB-GYN"}, {"name": "WE Health Clinic", "address": "32 E 1st St Suite 300, Duluth, MN 55811", "city": "Duluth", "phone": "+1 218-727-3352", "website": "https://wehealthclinic.org/", "rating": 4.4, "reviews": 40, "place_id": "ChIJ64_Qyb9SrlIR5dxrm7A1IJk", "latitude": 46.7882121, "longitude": -92.0978686, "care_type": "OB-GYN"}, {"name": "Courtney Erin Senich, APRN, CNP", "address": "420 E 1st St, Duluth, MN 55805", "city": "Duluth", "phone": "+1 218-786-3800", "website": "https://www.essentiahealth.org/find-doctor-provider/courtney-senich%3Futm_source%3Dpg-google%26utm_medium%3Dorganic%26utm_campaign%3Dpg-listings", "rating": 5.0, "reviews": 1, "place_id": "ChIJT3Jqy8ZSrlIRGbdOLZo35zM", "latitude": 46.7920555, "longitude": -92.0928811, "care_type": "OB-GYN"}, {"name": "Birthing Center - Essentia Health-St. Mary's Medical Center (Duluth, Building B)", "address": "402 E 2nd St, Duluth, MN 55805", "city": "Duluth", "phone": "+1 218-786-4652", "website": "https://www.essentiahealth.org/find-facility/birthing-center-essentia-health-st-marys-medical-center-duluth-building-b/%3Futm_source%3Dpg-google%26utm_medium%3Dorganic%26utm_campaign%3Dpg-listings", "rating": 3.4, "reviews": 5, "place_id": "ChIJpYIdt9RTrlIRcX0YyltK2aQ", "latitude": 46.7920174, "longitude": -92.0937682, "care_type": "OB-GYN"}, {"name": "Women\u2019s Care Center", "address": "103 E 1st St, Duluth, MN 55802", "city": "Duluth", "phone": "+1 218-623-7100", "website": "http://www.womenscarecenter.org/duluth", "rating": 4.2, "reviews": 133, "place_id": "ChIJKwU9mL9SrlIR8UdojQmmTdY", "latitude": 46.7888848, "longitude": -92.0981365, "care_type": "OB-GYN"}, {"name": "Mark Kenneth Widstrom, MD", "address": "420 E 1st St, Duluth, MN 55805", "city": "Duluth", "phone": "+1 218-786-3800", "website": "https://www.essentiahealth.org/find-doctor-provider/mark-widstrom%3Futm_source%3Dpg-google%26utm_medium%3Dorganic%26utm_campaign%3Dpg-listings", "rating": 5.0, "reviews": 2, "place_id": "ChIJj52rQsdSrlIR3yX5Za0XB9Y", "latitude": 46.7920555, "longitude": -92.0928811, "care_type": "OB-GYN"}, {"name": "Heidi Thorson", "address": "420 E 1st St, Duluth, MN 55805", "city": "Duluth", "phone": "+1 218-786-8364", "website": "", "rating": null, "reviews": 0, "place_id": "ChIJ__-_tsZSrlIRZiWhllb1DRk", "latitude": 46.7920555, "longitude": -92.0928811, "care_type": "OB-GYN"}, {"name": "Jessica Gerard, APRN, CNP", "address": "420 E 1st St Third Floor, Duluth, MN 55805", "city": "Duluth", "phone": "+1 218-786-3800", "website": "", "rating": null, "reviews": 0, "place_id": "ChIJudYUHsRTrlIRJ-hJDMUDN54", "latitude": 46.7920555, "longitude": -92.0928811, "care_type": "OB-GYN"}, {"name": "Kelly Jo Greenleaf, MD", "address": "420 E 1st St, Duluth, MN 55805", "city": "Duluth", "phone": "+1 218-786-3800", "website": "https://www.essentiahealth.org/find-doctor-provider/kelly-greenleaf%3Futm_source%3Dpg-google%26utm_medium%3Dorganic%26utm_campaign%3Dpg-listings", "rating": 5.0, "reviews": 1, "place_id": "ChIJj52rQsdSrlIRaHuq9hWxCFE", "latitude": 46.7920555, "longitude": -92.0928811, "care_type": "OB-GYN"}, {"name": "Sophia Ray Breitag, APRN, CNM", "address": "420 E 1st St, Duluth, MN 55805", "city": "Duluth", "phone": "+1 218-786-3800", "website": "https://www.essentiahealth.org/find-doctor-provider/sophia-breitag%3Futm_source%3Dpg-google%26utm_medium%3Dorganic%26utm_campaign%3Dpg-listings", "rating": null, "reviews": 0, "place_id": "ChIJF-8_G_tTrlIRwIW68dzBwQE", "latitude": 46.7920555, "longitude": -92.0928811, "care_type": "OB-GYN"}, {"name": "Britta Naomi Clark, APRN, CNM", "address": "420 E 1st St, Duluth, MN 55805", "city": "Duluth", "phone": "+1 218-786-3800", "website": "https://www.essentiahealth.org/find-doctor-provider/britta-clark%3Futm_source%3Dpg-google%26utm_medium%3Dorganic%26utm_campaign%3Dpg-listings", "rating": null, "reviews": 0, "place_id": "ChIJ8azLTWFTrlIRLFbqHtCV2S4", "latitude": 46.7920555, "longitude": -92.0928811, "care_type": "OB-GYN"}, {"name": "Nyasha Spears", "address": "26 E Superior St, Duluth, MN 55802", "city": "Duluth", "phone": "+1 218-249-4300", "website": "https://www.slhduluth.com//physician-directory/nyasha-spears-md/", "rating": 5.0, "reviews": 4, "place_id": "ChIJEYEY979SrlIREP3t3bvqsWU", "latitude": 46.787402, "longitude": -92.0970636, "care_type": "OB-GYN"}, {"name": "Claire Lewandowski Mallof, MD", "address": "420 E 1st St, Duluth, MN 55805", "city": "Duluth", "phone": "+1 218-786-3800", "website": "https://www.essentiahealth.org/find-doctor-provider/claire-mallof%3Futm_source%3Dpg-google%26utm_medium%3Dorganic%26utm_campaign%3Dpg-listings", "rating": null, "reviews": 0, "place_id": "ChIJRwXpV3VTrlIRHluJ12xLRnU", "latitude": 46.7920555, "longitude": -92.0928811, "care_type": "OB-GYN"}, {"name": "Donald Wothe", "address": "420 E 1st St, Duluth, MN 55805", "city": "Duluth", "phone": "+1 218-786-8364", "website": "", "rating": null, "reviews": 0, "place_id": "ChIJ__-_tsZSrlIR5YAmDyFJbvo", "latitude": 46.7920555, "longitude": -92.0928811, "care_type": "OB-GYN"}, {"name": "Dr. Sarah J. Sprengeler, MD", "address": "330 N 8th Ave E, Duluth, MN 55805", "city": "Duluth", "phone": "+1 218-723-1112", "website": "http://essentiahealth.org/", "rating": null, "reviews": 0, "place_id": "ChIJT0VRsshSrlIRjEFT2Ny9pmY", "latitude": 46.79717609999999, "longitude": -92.0921556, "care_type": "OB-GYN"}, {"name": "Amity June Heinbuch, APRN, CNM", "address": "420 E 1st St, Duluth, MN 55805", "city": "Duluth", "phone": "+1 218-786-3800", "website": "https://www.essentiahealth.org/find-doctor-provider/amity-heinbuch%3Futm_source%3Dpg-google%26utm_medium%3Dorganic%26utm_campaign%3Dpg-listings", "rating": 5.0, "reviews": 1, "place_id": "ChIJT3Jqy8ZSrlIRyXkNFqHtbHI", "latitude": 46.7920555, "longitude": -92.0928811, "care_type": "OB-GYN"}, {"name": "Verna Thornton", "address": "512 Skyline Blvd Suite 1, Cloquet, MN 55720", "city": "Cloquet", "phone": "+1 218-878-7626", "website": "https://cloquethospital.com/services/womens-health/", "rating": 4.3, "reviews": 6, "place_id": "ChIJq6qqhuUtrlIRpo0UFzstj9s", "latitude": 46.7308223, "longitude": -92.4615895, "care_type": "OB-GYN"}, {"name": "Michael Laberge", "address": "420 E 1st St, Duluth, MN 55805", "city": "Duluth", "phone": "+1 218-786-8364", "website": "", "rating": null, "reviews": 0, "place_id": "ChIJ__-_tsZSrlIRie1IopOR4F0", "latitude": 46.7920555, "longitude": -92.0928811, "care_type": "OB-GYN"}, {"name": "Elizabeth Moe, APRN, CNP", "address": "420 E 1st St, Duluth, MN 55805", "city": "Duluth", "phone": "+1 218-786-3800", "website": "https://www.essentiahealth.org/find-doctor-provider/profile/elizabeth-moe", "rating": null, "reviews": 0, "place_id": "ChIJuQACd3tTrlIRjtWdS7dfxoY", "latitude": 46.7920555, "longitude": -92.0928811, "care_type": "OB-GYN"}, {"name": "Nicole Susanne Seacotte, MD", "address": "4855 W Arrowhead Rd Suite A, Hermantown, MN 55811", "city": "Hermantown", "phone": "+1 218-786-3540", "website": "https://www.essentiahealth.org/find-doctor-provider/nicole-seacotte%3Futm_source%3Dpg-google%26utm_medium%3Dorganic%26utm_campaign%3Dpg-listings", "rating": null, "reviews": 0, "place_id": "ChIJwfKSGRqzr1IRVq9zZyugLgU", "latitude": 46.8229108, "longitude": -92.19153, "care_type": "OB-GYN"}, {"name": "Andrea Renae Wynands, PA-C", "address": "420 E 1st St, Duluth, MN 55805", "city": "Duluth", "phone": "+1 218-786-3800", "website": "https://www.essentiahealth.org/find-doctor-provider/andrea-wynands%3Futm_source%3Dpg-google%26utm_medium%3Dorganic%26utm_campaign%3Dpg-listings", "rating": null, "reviews": 0, "place_id": "ChIJOxTjKj9TrlIRqX2wK4g8BoE", "latitude": 46.7920555, "longitude": -92.0928811, "care_type": "OB-GYN"}, {"name": "Alison Bennett, APRN, CNM", "address": "420 E 1st St, Duluth, MN 55805", "city": "Duluth", "phone": "+1 218-786-3800", "website": "https://www.essentiahealth.org/find-doctor-provider/profile/alison-bennett", "rating": null, "reviews": 0, "place_id": "ChIJrVrVRbFTrlIR7EQbTV3WnWI", "latitude": 46.7920555, "longitude": -92.0928811, "care_type": "OB-GYN"}, {"name": "Terri Lynn Halverson, APRN, CNP", "address": "420 E 1st St, Duluth, MN 55805", "city": "Duluth", "phone": "+1 218-786-3800", "website": "https://www.essentiahealth.org/find-doctor-provider/terri-halverson%3Futm_source%3Dpg-google%26utm_medium%3Dorganic%26utm_campaign%3Dpg-listings", "rating": null, "reviews": 0, "place_id": "ChIJv_jstsZSrlIRnwp4NGse7Zw", "latitude": 46.7920555, "longitude": -92.0928811, "care_type": "OB-GYN"}, {"name": "Dr. Jennifer Boyle", "address": "1000 E 1st St Ste Ll, Duluth, MN 55805", "city": "Duluth", "phone": "+1 218-249-4700", "website": "https://www.slhduluth.com/physician-directory/jennifer-boyle-md-facog/", "rating": 3.0, "reviews": 4, "place_id": "ChIJca3hAtBSrlIR-vUNYjizcNE", "latitude": 46.7975089, "longitude": -92.0858241, "care_type": "OB-GYN"}, {"name": "Laura Colicchia", "address": "420 E 1st St, Duluth, MN 55805", "city": "Duluth", "phone": "+1 218-786-3800", "website": "", "rating": null, "reviews": 0, "place_id": "ChIJ__-_tsZSrlIRDwCVbkWCuSU", "latitude": 46.7920555, "longitude": -92.0928811, "care_type": "OB-GYN"}, {"name": "Zada Jane Dunaiski, APRN, CNM", "address": "420 E 1st St, Duluth, MN 55805", "city": "Duluth", "phone": "+1 218-786-3800", "website": "https://www.essentiahealth.org/find-doctor-provider/zada-dunaiski%3Futm_source%3Dpg-google%26utm_medium%3Dorganic%26utm_campaign%3Dpg-listings", "rating": null, "reviews": 0, "place_id": "ChIJT3Jqy8ZSrlIRUUe10mPDl_Y", "latitude": 46.7920555, "longitude": -92.0928811, "care_type": "OB-GYN"}, {"name": "Sarah Clausen", "address": "1000 E 1st St, Duluth, MN 55805", "city": "Duluth", "phone": "+1 218-249-4700", "website": "https://www.slhduluth.com//physician-directory/sarah-clausen-md/", "rating": null, "reviews": 0, "place_id": "ChIJaRidCYlTrlIReuvK1rao5-Y", "latitude": 46.7975089, "longitude": -92.0858241, "care_type": "OB-GYN"}, {"name": "Paige Sierra Olson, APRN, CNM", "address": "420 E 1st St, Duluth, MN 55805", "city": "Duluth", "phone": "+1 218-786-3800", "website": "https://www.essentiahealth.org/find-doctor-provider/paige-olson%3Futm_source%3Dpg-google%26utm_medium%3Dorganic%26utm_campaign%3Dpg-listings", "rating": null, "reviews": 0, "place_id": "ChIJswGkp_NTrlIRcezHm3voXh8", "latitude": 46.7920555, "longitude": -92.0928811, "care_type": "OB-GYN"}, {"name": "Elisabeth Revoir", "address": "1001 E Superior St Ste L201, Duluth, MN 55802", "city": "Duluth", "phone": "+1 218-249-7980", "website": "", "rating": null, "reviews": 0, "place_id": "ChIJPYZHc9BSrlIRwvPz899Ya_Q", "latitude": 46.7970294, "longitude": -92.0856158, "care_type": "OB-GYN"}, {"name": "Southdale ObGyn - Premier Women's Health of Minnesota", "address": "3625 W 65th St #100, Edina, MN 55435", "city": "Edina", "phone": "+1 952-920-7001", "website": "https://premierwomenshealthmn.com/practice/southdale-obgyn/", "rating": 4.7, "reviews": 295, "place_id": "ChIJ9T4m6qQm9ocR6tA-vnqF498", "latitude": 44.8851221, "longitude": -93.3253275, "care_type": "OB-GYN"}, {"name": "M Health Fairview Center for Women - Edina", "address": "6525 France Ave S #100, Edina, MN 55435", "city": "Edina", "phone": "+1 612-273-7111", "website": "https://www.mhealthfairview.org/locations/m-health-fairview-center-for-women---edina", "rating": 3.3, "reviews": 69, "place_id": "ChIJIUXfE6Um9ocRey7Ph1cW8Vc", "latitude": 44.8849857, "longitude": -93.3273115, "care_type": "OB-GYN"}, {"name": "Myriah M. Hanno, MD", "address": "6565 France Ave S Suite 203, Edina, MN 55435", "city": "Edina", "phone": "+1 952-806-0011", "website": "https://helloalmara.com/physicians/myriah-hanno-md/", "rating": 5.0, "reviews": 35, "place_id": "ChIJMZ1_faUm9ocRVRAeIazGHQM", "latitude": 44.8841008, "longitude": -93.32722489999999, "care_type": "OB-GYN"}, {"name": "Sheila L. Goodman, MD", "address": "6565 France Ave S Suite 207, Edina, MN 55435", "city": "Edina", "phone": "+1 952-806-0011", "website": "https://helloalmara.com/locations/awh-edina/", "rating": 4.9, "reviews": 39, "place_id": "ChIJMZ1_faUm9ocRYStk4abNvu4", "latitude": 44.8841008, "longitude": -93.32722489999999, "care_type": "OB-GYN"}, {"name": "Center For Women Clinic", "address": "6545 France Ave S, Edina, MN 55435", "city": "Edina", "phone": "", "website": "", "rating": 5.0, "reviews": 1, "place_id": "ChIJ85of5Z8n9ocRG0EFRsOi_Dk", "latitude": 44.8850095, "longitude": -93.3274409, "care_type": "OB-GYN"}, {"name": "Clinic Sofia OBGYN, PA", "address": "6545 France Ave S # 490, Edina, MN 55435", "city": "Edina", "phone": "+1 952-922-7600", "website": "http://clinicsofia.com/", "rating": 4.3, "reviews": 61, "place_id": "ChIJB5kUDqUm9ocRk4_PiG9WWXU", "latitude": 44.8845554, "longitude": -93.3275601, "care_type": "OB-GYN"}, {"name": "Anne Meschke, MD", "address": "3625 W 65th St, Edina, MN 55435", "city": "Edina", "phone": "+1 855-324-7843", "website": "https://www.fairview.org/providers/m/e/s/c/h/meschkeanne-780977802", "rating": 5.0, "reviews": 11, "place_id": "ChIJyQYq1cUn9ocRv4BEE72VFD0", "latitude": 44.8851845, "longitude": -93.3252011, "care_type": "OB-GYN"}, {"name": "Suzin Cho, MD", "address": "6565 France Ave S #200, Edina, MN 55435", "city": "Edina", "phone": "+1 952-920-2200", "website": "https://www.obgynpa.com/", "rating": 4.8, "reviews": 22, "place_id": "ChIJB5kUDqUm9ocRO2YxVAnZxM8", "latitude": 44.8845844, "longitude": -93.3275728, "care_type": "OB-GYN"}, {"name": "Jennifer C. Metherd, MD", "address": "3400 W 66th St #385, Edina, MN 55435", "city": "Edina", "phone": "+1 952-927-6561", "website": "https://haugenobgyn.com/our-providers/our-doctors/jennifer-metherd-m-d/", "rating": 5.0, "reviews": 10, "place_id": "ChIJiZEQFsQn9ocR_pDILByYAN8", "latitude": 44.8840069, "longitude": -93.32433639999999, "care_type": "OB-GYN"}, {"name": "Leigh Koidahl, MD", "address": "3625 W 65th St, Edina, MN 55435", "city": "Edina", "phone": "+1 952-920-7001", "website": "https://premierwomenshealthmn.com/providers/leigh-koidahl/", "rating": 4.9, "reviews": 17, "place_id": "ChIJ9T4m6qQm9ocRmKlIC6xgv3I", "latitude": 44.8851281, "longitude": -93.3253585, "care_type": "OB-GYN"}, {"name": "Krista J. Olsen, MD", "address": "6565 France Ave S #200, Edina, MN 55435", "city": "Edina", "phone": "+1 952-920-2200", "website": "https://www.obgynpa.com/", "rating": 4.9, "reviews": 33, "place_id": "ChIJB5kUDqUm9ocRsUKLZMldWsQ", "latitude": 44.8845844, "longitude": -93.3275728, "care_type": "OB-GYN"}, {"name": "Kimberly A. Gerten, MD", "address": "6565 France Ave S Suite 200, Edina, MN 55435", "city": "Edina", "phone": "+1 952-924-8671", "website": "https://gertenurogyn.com/", "rating": 5.0, "reviews": 25, "place_id": "ChIJE549rGAn9ocRUwd9PfMdg0w", "latitude": 44.8841348, "longitude": -93.32715209999999, "care_type": "OB-GYN"}, {"name": "Deborah Davenport, MD", "address": "3625 W 65th St, Edina, MN 55435", "city": "Edina", "phone": "+1 855-324-7843", "website": "https://www.fairview.org/providers/d/a/v/e/n/davenportdeborah-901455519", "rating": 5.0, "reviews": 17, "place_id": "ChIJmxnwlywn9ocRmOb6VHGnhHY", "latitude": 44.8851299, "longitude": -93.32535879999999, "care_type": "OB-GYN"}, {"name": "Sara M. Norseng, APRN, CNP", "address": "6405 France Ave S w400, Edina, MN 55435", "city": "Edina", "phone": "+1 952-920-2730", "website": "https://www.obgynmn.com/", "rating": 5.0, "reviews": 17, "place_id": "ChIJ7X1-O54n9ocRBHZGAIdeYBw", "latitude": 44.886146, "longitude": -93.3273722, "care_type": "OB-GYN"}, {"name": "Regina N. Cho, MD", "address": "6565 France Ave S #200, Edina, MN 55435", "city": "Edina", "phone": "+1 952-920-2200", "website": "https://www.obgynpa.com/", "rating": 4.7, "reviews": 22, "place_id": "ChIJB5kUDqUm9ocR727uI66yQGY", "latitude": 44.8845844, "longitude": -93.3275728, "care_type": "OB-GYN"}, {"name": "Mary Anne Jacob, MD", "address": "6565 France Ave S Suite 200, Edina, MN 55435", "city": "Edina", "phone": "+1 952-927-4045", "website": "https://helloalmara.com/physicians/mary-anne-jacob-md/", "rating": 5.0, "reviews": 16, "place_id": "ChIJB5kUDqUm9ocR4YGj_TF8J8U", "latitude": 44.8841348, "longitude": -93.32715209999999, "care_type": "OB-GYN"}, {"name": "Patricia M. Pettit, MD", "address": "6565 France Ave S Suite 200, Edina, MN 55435", "city": "Edina", "phone": "+1 952-806-0011", "website": "https://helloalmara.com/physicians/patricia-pettit-md/", "rating": 4.9, "reviews": 32, "place_id": "ChIJVxvU7aQm9ocRui3OmAXP-KI", "latitude": 44.8841348, "longitude": -93.32715209999999, "care_type": "OB-GYN"}, {"name": "Rachel Harris, MD", "address": "3625 W 65th St, Edina, MN 55435", "city": "Edina", "phone": "", "website": "https://fairview.org/providers/HarrisRachel-1750088738", "rating": 4.8, "reviews": 18, "place_id": "ChIJPzuB03An9ocRQbOaKSAyNaM", "latitude": 44.8851351, "longitude": -93.3254099, "care_type": "OB-GYN"}, {"name": "Kristen Latta, DO", "address": "3400 W 66th St #385, Edina, MN 55435", "city": "Edina", "phone": "+1 952-927-6561", "website": "https://www.haugenobgyn.com/our-providers/our-doctors/kristen-latta-d-o/", "rating": 5.0, "reviews": 14, "place_id": "ChIJcxIjxnon9ocRCUA-LuWBLTE", "latitude": 44.8840069, "longitude": -93.32433639999999, "care_type": "OB-GYN"}, {"name": "Alexandra M. Ellingson, MD", "address": "6405 France Ave S w400, Edina, MN 55435", "city": "Edina", "phone": "+1 952-920-2730", "website": "https://www.obgynmn.com/", "rating": 5.0, "reviews": 9, "place_id": "ChIJYz0BmjYn9ocR5ATGZkH2KtI", "latitude": 44.8860193, "longitude": -93.3272556, "care_type": "OB-GYN"}, {"name": "Dr. Maria A. Cremer, MD", "address": "6525 France Ave S #100, Edina, MN 55435", "city": "Edina", "phone": "+1 952-927-4021", "website": "", "rating": 5.0, "reviews": 2, "place_id": "ChIJzyO9FqUm9ocRIhPuR5jDnD0", "latitude": 44.8849857, "longitude": -93.3273115, "care_type": "OB-GYN"}, {"name": "Anna Masters, DO", "address": "6545 France Ave S, Edina, MN 55435", "city": "Edina", "phone": "+1 855-324-7843", "website": "https://www.fairview.org/providers/m/a/s/t/e/mastersanna-960548490", "rating": 5.0, "reviews": 1, "place_id": "ChIJcS4TU9wn9ocR1xsx0teU9Og", "latitude": 44.88462579999999, "longitude": -93.3275073, "care_type": "OB-GYN"}, {"name": "Alina Jeffers, MD", "address": "6545 France Ave S, Edina, MN 55435", "city": "Edina", "phone": "+1 855-324-7843", "website": "https://www.fairview.org/providers/j/e/f/f/e/jeffersalina-950570286", "rating": 3.4, "reviews": 15, "place_id": "ChIJJ8cvI-8n9ocRo4uzMXJQDHY", "latitude": 44.88462579999999, "longitude": -93.3275073, "care_type": "OB-GYN"}, {"name": "Emily M. Schnabl, DNP, WHNP", "address": "6405 France Ave S w400, Edina, MN 55435", "city": "Edina", "phone": "+1 952-920-2730", "website": "https://www.obgynmn.com/", "rating": 5.0, "reviews": 3, "place_id": "ChIJwdNCe98n9ocRrofldUNOXIo", "latitude": 44.8860193, "longitude": -93.3272556, "care_type": "OB-GYN"}, {"name": "Beadle Edward MD", "address": "6525 France Ave S #100, Edina, MN 55435", "city": "Edina", "phone": "+1 952-285-6140", "website": "", "rating": 4.8, "reviews": 16, "place_id": "ChIJmdbQ_w8k9ocR6Hl17eZ5Vdo", "latitude": 44.8847961, "longitude": -93.3272473, "care_type": "OB-GYN"}, {"name": "Theresa McDevitt, WHNP", "address": "3400 W 66th St #385, Edina, MN 55435", "city": "Edina", "phone": "+1 952-927-6561", "website": "", "rating": 5.0, "reviews": 8, "place_id": "ChIJFYzHSSAn9ocRUYkM8Trm2OY", "latitude": 44.8840069, "longitude": -93.32433639999999, "care_type": "OB-GYN"}, {"name": "Southdale ObGyn - Premier Women's Health of Minnesota", "address": "305 E Nicollet Blvd #393, Burnsville, MN 55337", "city": "Burnsville", "phone": "+1 952-920-7001", "website": "https://premierwomenshealthmn.com/practice/southdale-obgyn/", "rating": 4.7, "reviews": 208, "place_id": "ChIJ3diY3mw69ocRtT0RK6UJY-c", "latitude": 44.7486178, "longitude": -93.27117229999999, "care_type": "OB-GYN"}, {"name": "Jonathan Jaqua, DO", "address": "3625 W 65th St #100, Edina, MN 55435", "city": "Edina", "phone": "+1 952-920-7001", "website": "https://www.southdaleobgyn.com/", "rating": 5.0, "reviews": 21, "place_id": "ChIJ4Wp4Wqgn9ocROKZPkv5NnM0", "latitude": 44.8850521, "longitude": -93.3253332, "care_type": "OB-GYN"}, {"name": "Erin Collins, MD", "address": "6545 France Ave S, Edina, MN 55435", "city": "Edina", "phone": "+1 855-324-7843", "website": "https://providers.mhealthfairview.org/provider/Erin%2BCollins/2240905", "rating": 5.0, "reviews": 7, "place_id": "ChIJ8aFOWiYn9ocRFAZWRPMYHWk", "latitude": 44.88462579999999, "longitude": -93.3275073, "care_type": "OB-GYN"}, {"name": "Emma Ashenmacher, WHNP", "address": "3400 W 66th St #385, Edina, MN 55435", "city": "Edina", "phone": "+1 952-927-6561", "website": "https://helloalmara.com/physicians/ashenmacher-emma-dnp/", "rating": 5.0, "reviews": 9, "place_id": "ChIJkagH9fUn9ocRYeTNc08oum0", "latitude": 44.8840069, "longitude": -93.32433639999999, "care_type": "OB-GYN"}, {"name": "Amy Hammers, MD", "address": "6545 France Ave S, Edina, MN 55435", "city": "Edina", "phone": "+1 855-324-7843", "website": "https://www.fairview.org/providers/h/a/m/m/e/hammersamy-2016992738", "rating": 5.0, "reviews": 2, "place_id": "ChIJ0UcP1MYn9ocRGQn_t1qHszY", "latitude": 44.8846826, "longitude": -93.32766559999999, "care_type": "OB-GYN"}, {"name": "Jennifer L. Schwab, MD", "address": "6565 France Ave S Suite 300, Edina, MN 55435", "city": "Edina", "phone": "+1 952-927-4045", "website": "https://helloalmara.com/physicians/jennifer-schwab-md/", "rating": 4.9, "reviews": 9, "place_id": "ChIJkbE97iYn9ocRzrtXG1_iQeM", "latitude": 44.8841008, "longitude": -93.32722489999999, "care_type": "OB-GYN"}, {"name": "Elisa Wright, MD", "address": "6565 France Ave S, Edina, MN 55435", "city": "Edina", "phone": "+1 952-927-4045", "website": "", "rating": 5.0, "reviews": 1, "place_id": "ChIJB5kUDqUm9ocRXSsY9cuSwIk", "latitude": 44.884364, "longitude": -93.3273313, "care_type": "OB-GYN"}, {"name": "Sarah B. Schmitz-Burns, MD", "address": "3400 W 66th St #385, Edina, MN 55435", "city": "Edina", "phone": "+1 952-927-6562", "website": "http://www.haugenobgyn.com/", "rating": 4.9, "reviews": 16, "place_id": "ChIJX_pi_qIm9ocRODmcWj9-YpA", "latitude": 44.8840069, "longitude": -93.32433639999999, "care_type": "OB-GYN"}, {"name": "Dr. Donna L. Block, MD", "address": "6545 France Ave S # 490, Edina, MN 55435", "city": "Edina", "phone": "+1 952-922-7600", "website": "", "rating": 5.0, "reviews": 3, "place_id": "ChIJB5kUDqUm9ocRDGnoP2DIUE4", "latitude": 44.884485, "longitude": -93.32761289999999, "care_type": "OB-GYN"}, {"name": "Dr. Shuneui Chun, MD", "address": "6525 France Ave S, Edina, MN 55435", "city": "Edina", "phone": "+1 952-927-4021", "website": "", "rating": 1.0, "reviews": 1, "place_id": "ChIJzyO9FqUm9ocR4Z4xaCUta4M", "latitude": 44.8849857, "longitude": -93.3273115, "care_type": "OB-GYN"}, {"name": "OBGYN Associates", "address": "3400 W 66th St #385, Edina, MN 55435", "city": "Edina", "phone": "+1 952-927-6561", "website": "http://ogamn.com/", "rating": null, "reviews": 0, "place_id": "ChIJAQDAYqQm9ocRLU2av7g4ZZM", "latitude": 44.8840069, "longitude": -93.32433639999999, "care_type": "OB-GYN"}, {"name": "David Curran, MD", "address": "3625 W 65th St, Edina, MN 55435", "city": "Edina", "phone": "+1 855-324-7843", "website": "https://www.fairview.org/providers/c/u/r/r/a/currandavid-811842806", "rating": 5.0, "reviews": 22, "place_id": "ChIJpw7X974n9ocR3gK-1Pl0fOQ", "latitude": 44.8851299, "longitude": -93.32535879999999, "care_type": "OB-GYN"}, {"name": "Suzanne G. Weinberger, APRN, CNP, RDMS", "address": "6405 France Ave S w400, Edina, MN 55435", "city": "Edina", "phone": "+1 952-920-2730", "website": "https://www.obgynmn.com/", "rating": 5.0, "reviews": 15, "place_id": "ChIJB2UhVqUm9ocRJTBiJC5nnkQ", "latitude": 44.8860193, "longitude": -93.3272556, "care_type": "OB-GYN"}, {"name": "Allison M. Rodriguez, PA-C", "address": "6565 France Ave S Suite 205, Edina, MN 55435", "city": "Edina", "phone": "+1 952-806-0011", "website": "https://helloalmara.com/locations/awh-edina/", "rating": 5.0, "reviews": 22, "place_id": "ChIJfSrGIb0n9ocRAS3p0Xdcvt4", "latitude": 44.8841008, "longitude": -93.32722489999999, "care_type": "OB-GYN"}, {"name": "Mary T. Dahling, MD", "address": "3400 W 66th St #385, Edina, MN 55435", "city": "Edina", "phone": "+1 952-927-6562", "website": "http://www.haugenobgyn.com/", "rating": 5.0, "reviews": 7, "place_id": "ChIJX_pi_qIm9ocRxeXA1qt4wSg", "latitude": 44.8840069, "longitude": -93.32433639999999, "care_type": "OB-GYN"}, {"name": "Erin Stevens", "address": "6545 France Ave S # 490, Edina, MN 55435", "city": "Edina", "phone": "+1 952-922-7600", "website": "", "rating": 5.0, "reviews": 1, "place_id": "ChIJvSutcqUm9ocRxeQc7X0d58g", "latitude": 44.8845554, "longitude": -93.3275601, "care_type": "OB-GYN"}, {"name": "Jennifer H. Ambur, MD", "address": "3400 W 66th St #385, Edina, MN 55435", "city": "Edina", "phone": "+1 952-927-6561", "website": "http://www.haugenobgyn.com/", "rating": 5.0, "reviews": 13, "place_id": "ChIJX_pi_qIm9ocR-SxhYNBirvs", "latitude": 44.8840069, "longitude": -93.32433639999999, "care_type": "OB-GYN"}, {"name": "Makayla Mozey, MD", "address": "6405 France Ave S Suite W400, Edina, MN 55435", "city": "Edina", "phone": "+1 952-920-2730", "website": "https://www.obgynmn.com/", "rating": 5.0, "reviews": 1, "place_id": "ChIJKypeuw0n9ocRAtwFkpIX6MQ", "latitude": 44.8864802, "longitude": -93.32851339999999, "care_type": "OB-GYN"}, {"name": "Erin Hanson, DO", "address": "3400 W 66th St #385, Edina, MN 55435", "city": "Edina", "phone": "+1 952-927-6561", "website": "https://helloalmara.com/physicians/erin-hanson-do/", "rating": null, "reviews": 0, "place_id": "ChIJ93ioq6cn9ocR8SgcVYFjOCQ", "latitude": 44.8840069, "longitude": -93.32433639999999, "care_type": "OB-GYN"}, {"name": "K. Anthony Shibley, MD", "address": "6565 France Ave S Suite 200, Edina, MN 55435", "city": "Edina", "phone": "+1 952-920-2200", "website": "https://www.obgynpa.com/", "rating": 5.0, "reviews": 26, "place_id": "ChIJEz27EqUm9ocRX956u4_hpHQ", "latitude": 44.8841348, "longitude": -93.32715209999999, "care_type": "OB-GYN"}, {"name": "Jill M. Garnier, MD", "address": "6565 France Ave S Suite 206, Edina, MN 55435", "city": "Edina", "phone": "+1 952-806-0011", "website": "https://awhpa.com/", "rating": 5.0, "reviews": 6, "place_id": "ChIJ19jnrO4n9ocRP0rT2slrwgY", "latitude": 44.8841008, "longitude": -93.32722489999999, "care_type": "OB-GYN"}, {"name": "Martin Immerman, MD", "address": "6545 France Ave S, Edina, MN 55435", "city": "Edina", "phone": "+1 855-324-7843", "website": "https://www.fairview.org/providers/ImmermanMartin-1834567658", "rating": 5.0, "reviews": 4, "place_id": "ChIJHUwaif0n9ocRXayxvoGyqWQ", "latitude": 44.88462579999999, "longitude": -93.3275073, "care_type": "OB-GYN"}, {"name": "Krista Margolis, NP", "address": "3625 W 65th St, Edina, MN 55435", "city": "Edina", "phone": "", "website": "https://www.fairview.org/providers/MargolisKrista-633245608", "rating": 5.0, "reviews": 8, "place_id": "ChIJuQ6L0SMn9ocR_cH5IsoAK0I", "latitude": 44.8851299, "longitude": -93.32535879999999, "care_type": "OB-GYN"}, {"name": "Allison K. West, MD", "address": "3400 W 66th St #385, Edina, MN 55435", "city": "Edina", "phone": "+1 952-927-6561", "website": "https://helloalmara.com/physicians/allison-west/", "rating": 5.0, "reviews": 5, "place_id": "ChIJX_pi_qIm9ocREGBM4P2WN6w", "latitude": 44.8840069, "longitude": -93.32433639999999, "care_type": "OB-GYN"}, {"name": "Christine M. Ellison, WHNP-BC", "address": "3400 W 66th St #385, Edina, MN 55435", "city": "Edina", "phone": "+1 952-927-6561", "website": "https://helloalmara.com/physicians/christine-ellison-dnp/", "rating": 5.0, "reviews": 5, "place_id": "ChIJpYH0TdUn9ocRNulO7TeV5ic", "latitude": 44.8840069, "longitude": -93.32433639999999, "care_type": "OB-GYN"}, {"name": "Hope E. Frisch, DO", "address": "3400 W 66th St #385, Edina, MN 55435", "city": "Edina", "phone": "+1 952-927-6561", "website": "https://helloalmara.com/physicians/hope-frisch-do/", "rating": 5.0, "reviews": 9, "place_id": "ChIJX_pi_qIm9ocRS1i7PXiZf0I", "latitude": 44.8840069, "longitude": -93.32433639999999, "care_type": "OB-GYN"}, {"name": "Kelin E. Schultz, MD", "address": "6405 France Ave S Suite W400, Edina, MN 55435", "city": "Edina", "phone": "+1 952-920-2730", "website": "https://www.obgynmn.com/", "rating": 4.9, "reviews": 10, "place_id": "ChIJM3WyliEn9ocRkBRMjBhNZqw", "latitude": 44.8864802, "longitude": -93.32851339999999, "care_type": "OB-GYN"}, {"name": "Sheryl A. Louie, MD", "address": "3400 W 66th St #385, Edina, MN 55435", "city": "Edina", "phone": "+1 952-927-6563", "website": "http://www.haugenobgyn.com/", "rating": 5.0, "reviews": 1, "place_id": "ChIJSyrBYvon9ocRn38ETfZ6C_k", "latitude": 44.8840069, "longitude": -93.32433639999999, "care_type": "OB-GYN"}, {"name": "Dr. Alicia D. Majkrzak, MD", "address": "3625 W 65th St #100, Edina, MN 55435", "city": "Edina", "phone": "+1 952-920-7001", "website": "", "rating": null, "reviews": 0, "place_id": "ChIJ9T4m6qQm9ocRqFv2_eGNCOA", "latitude": 44.8851217, "longitude": -93.325327, "care_type": "OB-GYN"}, {"name": "Pamela Jordi", "address": "6545 France Ave S # 490, Edina, MN 55435", "city": "Edina", "phone": "+1 952-922-7600", "website": "https://clinicsofia.com/team-members/pam-jordi-md/", "rating": 5.0, "reviews": 1, "place_id": "ChIJvSutcqUm9ocRve64Sf1GEck", "latitude": 44.8845554, "longitude": -93.3275601, "care_type": "OB-GYN"},