[{"name": "Laura D. Maple, M.D.", "address": "6500 Hospital Dr, Hannibal, MO 63401", "city": "Hannibal", "phone": "+1 573-629-3500", "website": "https://www.hannibalregional.org/physicians/40/Laura-Maple-MD/physician/", "rating": 4.6, "reviews": 15, "place_id": "ChIJM-Pj7ePr3YcRU7yKA7ChEdQ", "latitude": 39.7113902, "longitude": -91.4500644, "care_type": "OB-GYN"}, {"name": "Jennifer Roberts, DO", "address": "6500 Hospital Dr, Hannibal, MO 63401", "city": "Hannibal", "phone": "+1 573-629-3500", "website": "https://www.hannibalregional.org/physicians/179/Jennifer-Roberts-DO/physician/", "rating": 3.9, "reviews": 9, "place_id": "ChIJwZntjTfr3YcRZUUcwEo5nlA", "latitude": 39.7113764, "longitude": -91.44987239999999, "care_type": "OB-GYN"}, {"name": "Deborah Spiers, DO", "address": "930 Carondelet Dr # 300, Kansas City, MO 64114", "city": "Kansas City", "phone": "+1 407-453-2072", "website": "https://womanshealthcenters.com/", "rating": 4.8, "reviews": 37, "place_id": "ChIJLVNyIavpwIcRFQVrgrGVoJc", "latitude": 38.9365442, "longitude": -94.6032101, "care_type": "OB-GYN"}, {"name": "NKC Health Obstetrics & Gynecology 2790 Suite 1200", "address": "2790 Clay Edwards Dr #1200, North Kansas City, MO 64116", "city": "North Kansas City", "phone": "+1 816-468-7800", "website": "http://www.nkchealth.org/location/nkc-health-obstetrics-gynecology-2790-suite-1200", "rating": 4.4, "reviews": 0, "place_id": "ChIJnfVt_ff5wIcR3Xcn_zWS6nY", "latitude": 39.1493276, "longitude": -94.5514931, "care_type": "OB-GYN"}, {"name": "Meritas Health Northland Women's Health", "address": "8600 NE 82nd St, Kansas City, MO 64158", "city": "Kansas City", "phone": "+1 816-741-9122", "website": "https://www.nkch.org/location/meritas-health-northland-womens-health", "rating": 4.3, "reviews": 44, "place_id": "ChIJP81QRYnlwIcR8ukcryT8mnk", "latitude": 39.241829, "longitude": -94.4769584, "care_type": "OB-GYN"}, {"name": "Saint Luke's Hospital Plaza OB-GYN Clinic", "address": "4400 Broadway St Suite 302, Kansas City, MO 64111", "city": "Kansas City", "phone": "+1 816-932-9600", "website": "http://www.saintlukeskc.org/locations/saint-lukes-hospital-plaza-ob-gyn-clinic%3Futm_source%3Dyext%26utm_medium%3Dlocal_listing%26utm_campaign%3Dyext_listing", "rating": 3.7, "reviews": 41, "place_id": "ChIJfxOkHGvvwIcRx9ZKufFXt5Q", "latitude": 39.0472249, "longitude": -94.59177489999999, "care_type": "OB-GYN"}, {"name": "Gynecology - North Kansas City Hospital", "address": "2800 Clay Edwards Dr, North Kansas City, MO 64116", "city": "North Kansas City", "phone": "+1 816-691-2000", "website": "https://www.nkch.org/find-a-service/womens-health/gynecology/", "rating": 5.0, "reviews": 0, "place_id": "ChIJ0dGieYv5wIcRnA_KKQ9yApU", "latitude": 39.1495404, "longitude": -94.551452, "care_type": "OB-GYN"}, {"name": "University Health Women's Care Center for High-Risk Pregnancy & OB/GYN Specialty Care", "address": "2211 Charlotte Street UH 2, First Floor, Kansas City, MO 64108", "city": "Kansas City", "phone": "+1 816-404-7820", "website": "https://www.universityhealthkc.org/services/womens-health/center-for-high-risk-pregnancy-obgyn-specialty-care/", "rating": 2.8, "reviews": 19, "place_id": "ChIJg83aJ8PxwIcRK3AB9M2ycow", "latitude": 39.0860963, "longitude": -94.5742641, "care_type": "OB-GYN"}, {"name": "University Health Women's Care UH2", "address": "UH 2, 2211 Charlotte St Suite 300, Kansas City, MO 64108", "city": "Kansas City", "phone": "+1 816-404-4966", "website": "https://www.universityhealthkc.org/services/obgyn/", "rating": 2.6, "reviews": 19, "place_id": "ChIJ70JkFlLxwIcRzjjM75DE5Yg", "latitude": 39.08591819999999, "longitude": -94.574271, "care_type": "OB-GYN"}, {"name": "Northland Women's Health Care", "address": "8600 NE 82nd St, Kansas City, MO 64158", "city": "Kansas City", "phone": "+1 816-741-9122", "website": "http://www.nwhcpc.com/%3Futm_source%3DDirectory%2520Program%26utm_medium%3DClinc%2520Google%2520Profile", "rating": 4.6, "reviews": 547, "place_id": "ChIJQ9eSEUpfwIcR13H8HfqcqTg", "latitude": 39.241833, "longitude": -94.4769688, "care_type": "OB-GYN"}, {"name": "Ashley Ketcherside, MD", "address": "4400 Broadway St Suite 302, Kansas City, MO 64111", "city": "Kansas City", "phone": "+1 816-932-9600", "website": "http://www.saintlukeskc.org/provider/ashley-ketcherside-1649443540%3Futm_source%3Dyext%26utm_medium%3Dlocal_listing%26utm_campaign%3Dyext_listing", "rating": 5.0, "reviews": 7, "place_id": "ChIJ__8_RMbvwIcRuDTFWfxpVFs", "latitude": 39.0469788, "longitude": -94.59164659999999, "care_type": "OB-GYN"}, {"name": "Saint Luke's Hospital Medical Education OBGYN Clinic", "address": "Medical Plaza I, 4320 Wornall Rd, Kansas City, MO 64111", "city": "Kansas City", "phone": "+1 816-932-6150", "website": "http://www.saintlukeskc.org/locations/saint-lukes-hospital-medical-education-obgyn-clinic%3Futm_source%3Dyext%26utm_medium%3Dlocal_listing%26utm_campaign%3Dyext_listing", "rating": 3.5, "reviews": 33, "place_id": "ChIJN0TZlsbvwIcRayymR7qVpGk", "latitude": 39.0484361, "longitude": -94.5900625, "care_type": "OB-GYN"}, {"name": "Hannah S. Reavis, MD", "address": "2790 Clay Edwards Dr #530, North Kansas City, MO 64116", "city": "North Kansas City", "phone": "+1 816-452-3300", "website": "https://www.nkchealth.org/provider/hannah-s-reavis-obstetrics-and-gynecology", "rating": 5.0, "reviews": 88, "place_id": "ChIJyZJaOOz5wIcR_aIQ6X8zxAg", "latitude": 39.1491419, "longitude": -94.5511835, "care_type": "OB-GYN"}, {"name": "Ferns, Matile, Perryman, & Moore, MD\u2019s", "address": "4400 Broadway Blvd Suite 302, Kansas City, MO 64111", "city": "Kansas City", "phone": "+1 816-931-9344", "website": "http://plazaobgynofkc.com/", "rating": 3.0, "reviews": 24, "place_id": "ChIJ5XUrQsbvwIcRH8wBiH02ycA", "latitude": 39.0472244, "longitude": -94.5917599, "care_type": "OB-GYN"}, {"name": "Leanna M. Mosher, MD", "address": "4320 Wornall Rd Suite 336, Kansas City, MO 64111", "city": "Kansas City", "phone": "+1 816-932-2000", "website": "http://www.saintlukeskc.org/provider/leanna-mosher-1407050081%3Futm_source%3Dyext%26utm_medium%3Dlocal_listing%26utm_campaign%3Dyext_listing", "rating": 4.4, "reviews": 7, "place_id": "ChIJE5MadcbvwIcRtIGFmDm4wcY", "latitude": 39.0483144, "longitude": -94.59117769999999, "care_type": "OB-GYN"}, {"name": "Lori A Kramer, MD", "address": "5844 NW Barry Rd Ste 310, Kansas City, MO 64154", "city": "Kansas City", "phone": "+1 816-880-1025", "website": "http://www.saintlukeskc.org/provider/lori-kramer-1881810513%3Futm_source%3Dyext%26utm_medium%3Dlocal_listing%26utm_campaign%3Dyext_listing", "rating": 4.0, "reviews": 20, "place_id": "ChIJr6yUjh5VwIcR6gay3-UFngE", "latitude": 39.2485844, "longitude": -94.64898199999999, "care_type": "OB-GYN"}, {"name": "Ob/Gyn Specialty Clinic: Drake Cynthia MD", "address": "2301 Holmes St #6, Kansas City, MO 64108", "city": "Kansas City", "phone": "+1 816-404-4020", "website": "", "rating": null, "reviews": 0, "place_id": "ChIJAzF-JBPwwIcRvyob0b4oEJw", "latitude": 39.0845178, "longitude": -94.5751781, "care_type": "OB-GYN"}, {"name": "Jillian Moore, DO", "address": "4400 Broadway St Suite 302, Kansas City, MO 64111", "city": "Kansas City", "phone": "+1 816-932-9600", "website": "http://www.saintlukeskc.org/provider/jillian-moore-1144684085%3Futm_source%3Dyext%26utm_medium%3Dlocal_listing%26utm_campaign%3Dyext_listing", "rating": 5.0, "reviews": 10, "place_id": "ChIJ56grnUvvwIcRQMJe7fogLrQ", "latitude": 39.0472249, "longitude": -94.59177489999999, "care_type": "OB-GYN"}, {"name": "Dr. Frederick B. Lintecum, MD", "address": "4320 Wornall Rd # 720, Kansas City, MO 64111", "city": "Kansas City", "phone": "+1 816-531-2111", "website": "", "rating": 3.1, "reviews": 8, "place_id": "ChIJN0TZlsbvwIcRJw1bGzeZD-g", "latitude": 39.0483085, "longitude": -94.58945639999999, "care_type": "OB-GYN"}, {"name": "Emily Gray", "address": "UNIVERSITY HEALTH, 2101 Charlotte St, Kansas City, MO 641082727", "city": "Kansas City", "phone": "+1 816-404-2222", "website": "", "rating": 5.0, "reviews": 1, "place_id": "ChIJGbTOPm3wwIcRFE_wghsOb1U", "latitude": 39.0866891, "longitude": -94.57427009999999, "care_type": "OB-GYN"}, {"name": "Rebecca R. Wayman, M.D.", "address": "8600 NE 82nd St, Kansas City, MO 64158", "city": "Kansas City", "phone": "+1 816-741-9122", "website": "http://www.nkchealth.org/provider/rebecca-r-wayman-md", "rating": 4.6, "reviews": 19, "place_id": "ChIJmeJxOpZVwIcRDTedT5W8__0", "latitude": 39.241829, "longitude": -94.4769584, "care_type": "OB-GYN"}, {"name": "High Risk Pregnancy Center of Kansas City", "address": "1201 NW Briarcliff Pkwy #310, Kansas City, MO 64116", "city": "Kansas City", "phone": "+1 816-541-2700", "website": "https://www.hrpckc.com/", "rating": 3.8, "reviews": 90, "place_id": "ChIJWV5Wfhj3wIcRUcPdWHQ3-tE", "latitude": 39.1681338, "longitude": -94.59582859999999, "care_type": "OB-GYN"}, {"name": "Kristen M Wootton, DO", "address": "Medical Plaza I, 4320 Wornall Rd, Kansas City, MO 64111", "city": "Kansas City", "phone": "+1 816-932-6150", "website": "http://www.saintlukeskc.org/provider/kristen-wootton-1902988199%3Futm_source%3Dyext%26utm_medium%3Dlocal_listing%26utm_campaign%3Dyext_listing", "rating": 5.0, "reviews": 2, "place_id": "ChIJN0TZlsbvwIcR6dQANBsW9qw", "latitude": 39.0485117, "longitude": -94.59051579999999, "care_type": "OB-GYN"}, {"name": "University Health Women's Care The Birthplace", "address": "2301 Holmes Street Main Hospital 6th Floor, Kansas City, MO 64108", "city": "Kansas City", "phone": "+1 816-404-0350", "website": "https://www.universityhealthkc.org/services/maternity/", "rating": 5.0, "reviews": 10, "place_id": "ChIJV0LSXLrxwIcRcNXkhSK1SFg", "latitude": 39.0844879, "longitude": -94.5752976, "care_type": "OB-GYN"}, {"name": "Susan M. Mou, MD, FACOG", "address": "UH 1, 2101 Charlotte St Suite 300, Kansas City, MO 64108", "city": "Kansas City", "phone": "+1 816-404-7830", "website": "https://providerdirectory.universityhealthkc.org/provider/susan-m-mou/2238140", "rating": 4.0, "reviews": 4, "place_id": "ChIJhf_0GRPwwIcRK_x3XmNat2Y", "latitude": 39.0866891, "longitude": -94.57427009999999, "care_type": "OB-GYN"}, {"name": "NKC Health Obstetrics & Gynecology Shoal Creek", "address": "8600 NE 82nd St, Kansas City, MO 64158", "city": "Kansas City", "phone": "+1 816-741-9122", "website": "http://www.nkchealth.org/location/nkc-health-obstetrics-gynecology-shoal-creek", "rating": 5.0, "reviews": 4, "place_id": "ChIJ7fb5XIlVwIcRnlHFkzfvUTQ", "latitude": 39.241829, "longitude": -94.4769584, "care_type": "OB-GYN"}, {"name": "Stacey Denise Algren, MD", "address": "Medical Plaza I, 4320 Wornall Rd, Kansas City, MO 64111", "city": "Kansas City", "phone": "+1 816-932-6150", "website": "http://www.saintlukeskc.org/provider/stacey-algren-1235157157%3Futm_source%3Dyext%26utm_medium%3Dlocal_listing%26utm_campaign%3Dyext_listing", "rating": 5.0, "reviews": 2, "place_id": "ChIJN0TZlsbvwIcRI_EMt6Y56v4", "latitude": 39.0485117, "longitude": -94.59051579999999, "care_type": "OB-GYN"}, {"name": "Sarah Hibbs, MD", "address": "Medical Plaza I, 4320 Wornall Rd, Kansas City, MO 64111", "city": "Kansas City", "phone": "+1 816-932-6150", "website": "http://www.saintlukeskc.org/provider/sarah-hibbs-1598905549%3Futm_source%3Dyext%26utm_medium%3Dlocal_listing%26utm_campaign%3Dyext_listing", "rating": 5.0, "reviews": 1, "place_id": "ChIJ0ShF3cDvwIcR1aDWnBDHyQM", "latitude": 39.0485117, "longitude": -94.59051579999999, "care_type": "OB-GYN"}, {"name": "Dr. Julie A. Moore, MD", "address": "4400 Broadway Blvd Ste 309, Kansas City, MO 64111", "city": "Kansas City", "phone": "+1 816-931-9344", "website": "", "rating": 4.0, "reviews": 4, "place_id": "ChIJ5XUrQsbvwIcRMSIdWK3sbBk", "latitude": 39.0470488, "longitude": -94.59158649999999, "care_type": "OB-GYN"}, {"name": "Dr. Sudha T. Chaudhuri, MD", "address": "825 Euclid Ave, Kansas City, MO 64124", "city": "Kansas City", "phone": "+1 816-474-4920", "website": "http://www.rodgershealth.org/", "rating": null, "reviews": 0, "place_id": "ChIJS4x_R4H6wIcRc1lejBrXMII", "latitude": 39.1041204, "longitude": -94.5576877, "care_type": "OB-GYN"}, {"name": "University Health Women's Care High Risk Clinic", "address": "UH 2, 2211 Charlotte St Suite 200, Kansas City, MO 64108", "city": "Kansas City", "phone": "+1 816-404-4139", "website": "https://www.universityhealthkc.org/services/maternity/high-risk-pregnancy/", "rating": null, "reviews": 0, "place_id": "ChIJZSpkNPTxwIcRlHrx2nEe1UM", "latitude": 39.0859111, "longitude": -94.5743636, "care_type": "OB-GYN"}, {"name": "Webster Patricia A MD", "address": "2401 Gillham Rd, Kansas City, MO 64108", "city": "Kansas City", "phone": "+1 816-234-3041", "website": "", "rating": 1.0, "reviews": 1, "place_id": "ChIJ9zZsZRPwwIcRjX1m1fG7lnk", "latitude": 39.0834675, "longitude": -94.57711289999999, "care_type": "OB-GYN"}, {"name": "Kent M. Burk, MD", "address": "2101 Charlotte St Suite 110, Kansas City, MO 64108", "city": "Kansas City", "phone": "+1 816-404-7820", "website": "", "rating": 3.7, "reviews": 3, "place_id": "ChIJ7_HtlaHxwIcROq0mgv-Up48", "latitude": 39.0867887, "longitude": -94.57401329999999, "care_type": "OB-GYN"}, {"name": "Dr. Pedro Morales-Ramirez", "address": "2301 Holmes St, Kansas City, MO 64108", "city": "Kansas City", "phone": "+1 314-577-8000", "website": "", "rating": null, "reviews": 0, "place_id": "ChIJ70mb3xLwwIcR7j6FxSDx_AQ", "latitude": 39.0844879, "longitude": -94.5752976, "care_type": "OB-GYN"}, {"name": "David Mundy, MD", "address": "UH 2, 2211 Charlotte St Suite 300, Kansas City, MO 64108", "city": "Kansas City", "phone": "+1 816-404-4966", "website": "https://providerdirectory.universityhealthkc.org/provider/david-c-mundy/2237940", "rating": 4.0, "reviews": 1, "place_id": "ChIJV-k51hLwwIcR1nwxogbrVJw", "latitude": 39.08591819999999, "longitude": -94.574271, "care_type": "OB-GYN"}, {"name": "Gregory C. Starks, MD", "address": "2211 Charlotte St Suite 300, Kansas City, MO 64108", "city": "Kansas City", "phone": "+1 816-404-4100", "website": "https://providerdirectory.universityhealthkc.org/provider/Gregory%2BC.%2BStarks/2237843", "rating": 5.0, "reviews": 1, "place_id": "ChIJQQB1jSTxwIcRelVwTWYKIrc", "latitude": 39.08591819999999, "longitude": -94.574271, "care_type": "OB-GYN"}, {"name": "Shilpa Babbar", "address": "2301 Holmes St, Kansas City, MO 64108", "city": "Kansas City", "phone": "+1 816-234-3000", "website": "https://www.adventhealth.com/find-doctor/doctor/shilpa-babbar-md-1316111578", "rating": null, "reviews": 0, "place_id": "ChIJ70mb3xLwwIcRneyO39KaWNQ", "latitude": 39.0844879, "longitude": -94.5752976, "care_type": "OB-GYN"}, {"name": "Susan M. Mou, MD, FACOG", "address": "2211 Charlotte St Suite 300, Kansas City, MO 64108", "city": "Kansas City", "phone": "+1 816-404-4100", "website": "", "rating": null, "reviews": 0, "place_id": "ChIJ70mb3xLwwIcRYP0tM5kftAA", "latitude": 39.08591819999999, "longitude": -94.574271, "care_type": "OB-GYN"}, {"name": "University Health 2", "address": "2211 Charlotte St Suite 300, Kansas City, MO 64108", "city": "Kansas City", "phone": "+1 816-404-1000", "website": "https://www.universityhealthkc.org/locations/university-health-2/", "rating": 3.1, "reviews": 0, "place_id": "ChIJNa7Y8pvxwIcRxtzOpr5W9rs", "latitude": 39.08591819999999, "longitude": -94.574271, "care_type": "OB-GYN"}, {"name": "Gerald Matile, Md", "address": "4400 Broadway Blvd #302, Kansas City, MO 64111", "city": "Kansas City", "phone": "+1 816-931-9344", "website": "", "rating": null, "reviews": 0, "place_id": "ChIJ5XUrQsbvwIcRVcevNi_N4C4", "latitude": 39.0470869, "longitude": -94.5917111, "care_type": "OB-GYN"}, {"name": "Dr. Julie L. Strickland, MD", "address": "2301 Holmes St, Kansas City, MO 64108", "city": "Kansas City", "phone": "+1 816-404-3855", "website": "", "rating": null, "reviews": 0, "place_id": "ChIJV-k51hLwwIcRMSubx-YAIRY", "latitude": 39.0844879, "longitude": -94.5752976, "care_type": "OB-GYN"}, {"name": "Truman Medical Center Ths Clinic", "address": "2301 Holmes St, Kansas City, MO 64108", "city": "Kansas City", "phone": "+1 816-404-1000", "website": "https://www.universityhealthkc.org/locations/university-health-truman-medical-center/", "rating": 3.0, "reviews": 2, "place_id": "ChIJV-k51hLwwIcRivqOYV6S6AI", "latitude": 39.0844879, "longitude": -94.5752976, "care_type": "OB-GYN"}, {"name": "Traci Johnson, MD", "address": "2101 Charlotte St, Kansas City, MO 64108", "city": "Kansas City", "phone": "+1 816-404-7820", "website": "https://providerdirectory.universityhealthkc.org/provider/traci-johnson/2618716", "rating": null, "reviews": 0, "place_id": "ChIJz9Z1NG3wwIcRI7TV2rpdpqQ", "latitude": 39.0866891, "longitude": -94.57427009999999, "care_type": "OB-GYN"}, {"name": "Pedro B. Morales Ramirez, MD", "address": "2101 Charlotte St Suite 110, Kansas City, MO 64108", "city": "Kansas City", "phone": "+1 816-404-7820", "website": "", "rating": null, "reviews": 0, "place_id": "ChIJv1SA29DxwIcRtHImdx-9fl4", "latitude": 39.0867887, "longitude": -94.57401329999999, "care_type": "OB-GYN"}, {"name": "Traci N. Johnson MD", "address": "2401 Gillham Rd, Kansas City, MO 64108", "city": "Kansas City", "phone": "+1 816-346-1343", "website": "https://www.childrensmercy.org/profiles/traci-n-johnson/", "rating": null, "reviews": 0, "place_id": "ChIJe87pfiHxwIcRMKkWv2BI0Ww", "latitude": 39.0834675, "longitude": -94.5771128, "care_type": "OB-GYN"}, {"name": "Ashli Lawson, MD", "address": "2301 Holmes St, Kansas City, MO 64108", "city": "Kansas City", "phone": "+1 314-577-8000", "website": "", "rating": null, "reviews": 0, "place_id": "ChIJ70mb3xLwwIcRH86r8bikVto", "latitude": 39.0844879, "longitude": -94.5752976, "care_type": "OB-GYN"}, {"name": "Yeomans Ronald N MD", "address": "2301 Holmes St, Kansas City, MO 64108", "city": "Kansas City", "phone": "+1 816-404-1000", "website": "http://www.trumed.org/", "rating": null, "reviews": 0, "place_id": "ChIJV-k51hLwwIcRaEwlr25ozjs", "latitude": 39.0844879, "longitude": -94.5752976, "care_type": "OB-GYN"}, {"name": "Gustavo Alexander Vilchez Lagos, MD", "address": "2211 Charlotte St Suite 300, Kansas City, MO 64108", "city": "Kansas City", "phone": "+1 816-404-4100", "website": "", "rating": null, "reviews": 0, "place_id": "ChIJfxnghSXxwIcRHawfb7as2Lo", "latitude": 39.08591819999999, "longitude": -94.574271, "care_type": "OB-GYN"}, {"name": "Peter B. Greenspan, DO", "address": "2101 Charlotte St Suite 110, Kansas City, MO 64108", "city": "Kansas City", "phone": "+1 816-404-7820", "website": "", "rating": null, "reviews": 0, "place_id": "ChIJlyCQdo8fwYcRgWBS3rMDc1Y", "latitude": 39.0867887, "longitude": -94.57401329999999, "care_type": "OB-GYN"}, {"name": "Dr. Tom G. Sullivan, MD", "address": "2301 Holmes St, Kansas City, MO 64108", "city": "Kansas City", "phone": "+1 816-404-7820", "website": "", "rating": null, "reviews": 0, "place_id": "ChIJc-0WAy_uwIcRUg0gD5Ak7vI", "latitude": 39.0844879, "longitude": -94.5752976, "care_type": "OB-GYN"}, {"name": "Roseanne Olmstead, MD", "address": "2211 Charlotte Street UH 2, First Floor, Kansas City, MO 64108", "city": "Kansas City", "phone": "+1 816-404-7820", "website": "https://providerdirectory.universityhealthkc.org/provider/roseanne-olmstead/2585499", "rating": null, "reviews": 0, "place_id": "ChIJMUlAvgXxwIcRmsr2arBTd2U", "latitude": 39.0859034, "longitude": -94.57433309999999, "care_type": "OB-GYN"}, {"name": "Sara Reynolds, MD", "address": "2211 Charlotte Street UH 2, First Floor, Kansas City, MO 64108", "city": "Kansas City", "phone": "+1 816-404-7820", "website": "https://providerdirectory.universityhealthkc.org/provider/sara-reynolds/2238371", "rating": null, "reviews": 0, "place_id": "ChIJz9Z1NG3wwIcRbU_TTdoss08", "latitude": 39.0859034, "longitude": -94.57433309999999, "care_type": "OB-GYN"}, {"name": "Megan Madrigal, MD", "address": "2301 Holmes St, Kansas City, MO 64108", "city": "Kansas City", "phone": "+1 816-404-4086", "website": "", "rating": null, "reviews": 0, "place_id": "ChIJdTrzPn3xwIcRZtHmO7iQkHQ", "latitude": 39.0845177, "longitude": -94.5751767, "care_type": "OB-GYN"}, {"name": "Bennett Timothy L MD", "address": "2301 Holmes St, Kansas City, MO 64108", "city": "Kansas City", "phone": "+1 816-404-1000", "website": "http://www.trumed.org/", "rating": null, "reviews": 0, "place_id": "ChIJV-k51hLwwIcR0zekmOWfWl0", "latitude": 39.0844879, "longitude": -94.5752976, "care_type": "OB-GYN"}, {"name": "Orth Teresa a MD", "address": "2301 Holmes St, Kansas City, MO 64108", "city": "Kansas City", "phone": "+1 816-404-1000", "website": "http://www.trumed.org/", "rating": null, "reviews": 0, "place_id": "ChIJhf_0GRPwwIcRF5rGhNvziH8", "latitude": 39.0851261, "longitude": -94.5753285, "care_type": "OB-GYN"}, {"name": "Lauren E. Vestal, MD", "address": "2101 Charlotte St Suite 110, Kansas City, MO 64108", "city": "Kansas City", "phone": "+1 913-588-5000", "website": "https://www.kumc.edu/lvestal.html", "rating": null, "reviews": 0, "place_id": "ChIJubtfca_xwIcRL85vTqENoJU", "latitude": 39.0867887, "longitude": -94.57401329999999, "care_type": "OB-GYN"}, {"name": "Dr. Gary Sutkin", "address": "2301 Holmes St, Kansas City, MO 64108", "city": "Kansas City", "phone": "+1 314-577-8000", "website": "", "rating": null, "reviews": 0, "place_id": "ChIJ70mb3xLwwIcRcl0fGtUJx2c", "latitude": 39.0844879, "longitude": -94.5752976, "care_type": "OB-GYN"}, {"name": "Alexis Vollmar, MD", "address": "2101 Charlotte St Suite 110, Kansas City, MO 64108", "city": "Kansas City", "phone": "+1 816-404-7820", "website": "https://doctors.saintlukeskc.org/provider/Alexis%2BMarie%2BVollmar/2364498%3Futm_source%3Dlocal-listing%26utm_medium%3Dorganic%26utm_campaign%3Dwebsite-link", "rating": null, "reviews": 0, "place_id": "ChIJYTaED_jxwIcRocLephstLNs", "latitude": 39.0867887, "longitude": -94.57401329999999, "care_type": "OB-GYN"}, {"name": "Timothy L. Bennett, MD", "address": "2211 Charlotte St Suite 300, Kansas City, MO 64108", "city": "Kansas City", "phone": "+1 816-404-4100", "website": "", "rating": null, "reviews": 0, "place_id": "ChIJdeR-UMvxwIcRz5s3ONr-RD8", "latitude": 39.08591819999999, "longitude": -94.574271, "care_type": "OB-GYN"}, {"name": "Katie Pitz, MD", "address": "2211 Charlotte Street UH 2, First Floor, Kansas City, MO 64108", "city": "Kansas City", "phone": "+1 816-404-7820", "website": "https://providerdirectory.universityhealthkc.org/provider/kate-pitz/2618600", "rating": null, "reviews": 0, "place_id": "ChIJE1Udg6vxwIcRsfTXWJi0hHg", "latitude": 39.0859034, "longitude": -94.57433309999999, "care_type": "OB-GYN"}, {"name": "Aniesa Slack, MD", "address": "2301 Charlotte St Ground Floor, Kansas City, MO 64108", "city": "Kansas City", "phone": "+1 816-404-3855", "website": "", "rating": null, "reviews": 0, "place_id": "ChIJOYkZGS7xwIcRa06jwDs6I3Q", "latitude": 39.0845178, "longitude": -94.5751781, "care_type": "OB-GYN"}, {"name": "Emily Williams, MD", "address": "UH 2, 2211 Charlotte St Suite 300, Kansas City, MO 64108", "city": "Kansas City", "phone": "+1 816-404-4966", "website": "https://providerdirectory.universityhealthkc.org/provider/emily-williams/2330391", "rating": null, "reviews": 0, "place_id": "ChIJsVVWxkvxwIcRIOfkz5kgCZs", "latitude": 39.08591819999999, "longitude": -94.574271, "care_type": "OB-GYN"}, {"name": "Howard I Schwartz, MD", "address": "2790 Clay Edwards Dr, Kansas City, MO 64116", "city": "Kansas City", "phone": "+1 816-421-3115", "website": "http://mymidwestphysician.com/", "rating": null, "reviews": 0, "place_id": "ChIJVXrJ0Pf5wIcR-5cMYYvwCyw", "latitude": 39.1496569, "longitude": -94.55124099999999, "care_type": "OB-GYN"}, {"name": "Megan Madrigal MD", "address": "2401 Gillham Rd, Kansas City, MO 64108", "city": "Kansas City", "phone": "+1 816-346-1343", "website": "https://www.childrensmercy.org/profiles/megan-madrigal/", "rating": null, "reviews": 0, "place_id": "ChIJ47XTlCvxwIcRTJFYmyzp69k", "latitude": 39.0834675, "longitude": -94.5771128, "care_type": "OB-GYN"}, {"name": "Barbara D. Bohon, MD", "address": "2101 Charlotte St Suite 110, Kansas City, MO 64108", "city": "Kansas City", "phone": "+1 816-404-7820", "website": "https://providerdirectory.universityhealthkc.org/provider/barbara-d-bohon/2238295", "rating": null, "reviews": 0, "place_id": "ChIJJeDrMWfxwIcRlaKz37C-iog", "latitude": 39.0867887, "longitude": -94.57401329999999, "care_type": "OB-GYN"}, {"name": "Dev Maulik, MD, PhD", "address": "2211 Charlotte St Suite 300, Kansas City, MO 64108", "city": "Kansas City", "phone": "+1 816-404-4100", "website": "", "rating": null, "reviews": 0, "place_id": "ChIJvfn3wIzxwIcRe5asUKEtAlA", "latitude": 39.08591819999999, "longitude": -94.574271, "care_type": "OB-GYN"}, {"name": "Bridget M. Abney MD", "address": "2401 Gillham Rd, Kansas City, MO 64108", "city": "Kansas City", "phone": "+1 816-346-1343", "website": "https://www.childrensmercy.org/profiles/bridget-m-abney/", "rating": null, "reviews": 0, "place_id": "ChIJqW9yrMDxwIcRqx7Kbzhnanw", "latitude": 39.0834675, "longitude": -94.5771128, "care_type": "OB-GYN"}, {"name": "Dr. Jill Westcott", "address": "2301 Holmes St, Kansas City, MO 64108", "city": "Kansas City", "phone": "+1 314-577-8000", "website": "", "rating": null, "reviews": 0, "place_id": "ChIJ70mb3xLwwIcRTahd0ClrWY0", "latitude": 39.0844879, "longitude": -94.5752976, "care_type": "OB-GYN"}, {"name": "Michael Barnthouse, MD", "address": "1010 Carondelet Dr suite 105, Kansas City, MO 64114", "city": "Kansas City", "phone": "+1 816-941-0700", "website": "https://www.drbarnthousegyn.com/", "rating": 4.8, "reviews": 78, "place_id": "ChIJLVNyIavpwIcR3d8dLeOOTj8", "latitude": 38.935941, "longitude": -94.604822, "care_type": "OB-GYN"}, {"name": "Rebecca Ward", "address": "2340 E Meyer Blvd Bldg 2, Ste 598, Kansas City, MO 64132", "city": "Kansas City", "phone": "+1 816-444-6888", "website": "https://mymidwestphysician.com/physicians/profile/Dr-Rebecca-Ward-DO%3Futm_campaign%3Dcorp_listings_mgmt%26utm_source%3Dgoogle%26utm_medium%3Dbusiness_listing", "rating": 5.0, "reviews": 1, "place_id": "ChIJ76NnmQzlwIcRAMWM93pwzUE", "latitude": 39.0100512, "longitude": -94.5573653, "care_type": "OB-GYN"}, {"name": "Western Missouri Women's Health Center", "address": "415 Burkarth Rd Suite A, Warrensburg, MO 64093", "city": "Warrensburg", "phone": "+1 660-429-2228", "website": "https://wmmc.com/practice/womens-health/", "rating": 2.9, "reviews": 56, "place_id": "ChIJIzMdzsviw4cRPefLTmkbmq4", "latitude": 38.7659667, "longitude": -93.720129, "care_type": "OB-GYN"}, {"name": "Western Missouri Medical Center - Obstetrics", "address": "403 Burkarth Rd, Warrensburg, MO 64093", "city": "Warrensburg", "phone": "+1 660-262-7514", "website": "https://wmmc.com/practice/obstetrics/", "rating": 2.3, "reviews": 3, "place_id": "ChIJaQ_XD8riw4cR1b0tt8Fwp4U", "latitude": 38.7654748, "longitude": -93.7232992, "care_type": "OB-GYN"}, {"name": "New Beginnings Women's Center", "address": "208 E Gay St, Warrensburg, MO 64093", "city": "Warrensburg", "phone": "+1 660-429-3800", "website": "http://www.nbwburg.org/", "rating": 4.2, "reviews": 21, "place_id": "ChIJOSDaF6ziw4cRYNDeChGuhYQ", "latitude": 38.7654814, "longitude": -93.7371974, "care_type": "OB-GYN"}, {"name": "J.Lynn Birchmier, D.O.", "address": "415 Burkarth Rd, Warrensburg, MO 64093", "city": "Warrensburg", "phone": "+1 660-429-2228", "website": "", "rating": null, "reviews": 0, "place_id": "ChIJHyncjbXiw4cRqdNhcJOvBv4", "latitude": 38.7659527, "longitude": -93.7222409, "care_type": "OB-GYN"}, {"name": "Dr. Ashley Alumbaugh", "address": "415 Burkarth Rd Ste A, Warrensburg, MO 64093", "city": "Warrensburg", "phone": "+1 660-429-2228", "website": "https://wmmc.com/team/ashley-alumbaugh-m-d/", "rating": 4.3, "reviews": 4, "place_id": "ChIJGX3ZjbXiw4cRreqTfBey4xA", "latitude": 38.7650303, "longitude": -93.7237281, "care_type": "OB-GYN"}, {"name": "Wait Amanda G Do", "address": "415A Burkarth Rd, Warrensburg, MO 64093", "city": "Warrensburg", "phone": "+1 660-429-2228", "website": "", "rating": null, "reviews": 0, "place_id": "ChIJ3SvcjbXiw4cRP9ZOChnAibM", "latitude": 38.7650303, "longitude": -93.7237281, "care_type": "OB-GYN"}, {"name": "Johnson Traci N MD", "address": "415 Burkarth Rd, Warrensburg, MO 64093", "city": "Warrensburg", "phone": "+1 660-429-2228", "website": "http://www.wmmc.com/", "rating": null, "reviews": 0, "place_id": "ChIJHyncjbXiw4cR4ypL12BcKxs", "latitude": 38.7660245, "longitude": -93.7222859, "care_type": "OB-GYN"}, {"name": "Liu Ben C MD", "address": "415 Burkarth Rd # A, Warrensburg, MO 64093", "city": "Warrensburg", "phone": "", "website": "", "rating": null, "reviews": 0, "place_id": "ChIJHyncjbXiw4cRYt0-MZgnCXk", "latitude": 38.7650303, "longitude": -93.7237281, "care_type": "OB-GYN"}, {"name": "Ferber Alan J MD", "address": "415A Burkarth Rd, Warrensburg, MO 64093", "city": "Warrensburg", "phone": "", "website": "", "rating": null, "reviews": 0, "place_id": "ChIJHyncjbXiw4cRDkAMQwfZCog", "latitude": 38.7650312, "longitude": -93.7237447, "care_type": "OB-GYN"}, {"name": "Ishida Yasuo MD", "address": "6744 Clayton Rd # 302, St. Louis, MO 63117", "city": "St. Louis", "phone": "+1 314-645-6100", "website": "", "rating": 5.0, "reviews": 12, "place_id": "ChIJn4Sxf7_K2IcRmgTrV1j7cUo", "latitude": 38.6343272, "longitude": -90.3182568, "care_type": "OB-GYN"}, {"name": "Mercy Clinic Women's Health - Clayton-Clarkson", "address": "15945 Clayton Rd Suite 360C, Ballwin, MO 63011", "city": "Ballwin", "phone": "+1 636-256-5090", "website": "https://www.mercy.net/practice/mercy-clinic-womens-health-clayton-clarkson%3Futm_source%3Dgoogle%26utm_medium%3Dorganic_search%26utm_campaign%3Dyext%26utm_term%3DEast%26utm_content%3Dwebsite%26y_source%3D1_MTI5OTYzMzUtNzE1LWxvY2F0aW9uLndlYnNpdGU%253D", "rating": 3.4, "reviews": 5, "place_id": "ChIJD7uuF5zV2IcRJ_JiJTp2Fao", "latitude": 38.6054713, "longitude": -90.58804839999999, "care_type": "OB-GYN"}, {"name": "Mercy Clinic OB/GYN - Ladue", "address": "8860 Ladue Rd Suite 100, St. Louis, MO 63124", "city": "St. Louis", "phone": "+1 314-251-8965", "website": "https://www.mercy.net/practice/mercy-clinic-obgyn-ladue%3Futm_source%3Dgoogle%26utm_medium%3Dorganic_search%26utm_campaign%3Dyext%26utm_term%3DEast%26utm_content%3Dwebsite%26y_source%3D1_MTI5OTU5NTUtNzE1LWxvY2F0aW9uLndlYnNpdGU%253D", "rating": 5.0, "reviews": 7, "place_id": "ChIJm66fsjTL2IcR_cD1uxyuYO8", "latitude": 38.652409, "longitude": -90.3519444, "care_type": "OB-GYN"}, {"name": "Amy Nichole Clayton, WHNP", "address": "1000 Des Peres Rd Suite 300, St. Louis, MO 63131", "city": "St. Louis", "phone": "+1 314-919-2600", "website": "https://www.mercy.net/doctor/amy-nichole-clayton-whnp%3Futm_source%3Dgoogle%26utm_medium%3Dorganic_search%26utm_campaign%3Dyext%26utm_term%3D%26utm_content%3Dwebsite%26y_source%3D1_MTUxNTI0OTUtNzE1LWxvY2F0aW9uLndlYnNpdGU%253D", "rating": null, "reviews": 0, "place_id": "ChIJEWWk1ezT2IcRuhZmmUs2Ie4", "latitude": 38.5984918, "longitude": -90.4515629, "care_type": "OB-GYN"}, {"name": "Amanda M. Sauer, WHNP", "address": "6420 Clayton Rd, Richmond Heights, MO 63117", "city": "Richmond Heights", "phone": "+1 314-768-8675", "website": "", "rating": null, "reviews": 0, "place_id": "ChIJ-ZTfwAjN2IcRZ3xokwSezMo", "latitude": 38.6330715, "longitude": -90.31118099999999, "care_type": "OB-GYN"}, {"name": "Woman To Woman Gyn", "address": "6744 Clayton Rd, St. Louis, MO 63117", "city": "St. Louis", "phone": "+1 314-647-4903", "website": "", "rating": null, "reviews": 0, "place_id": "ChIJn4Sxf7_K2IcRO-8FOb-EwYM", "latitude": 38.6343272, "longitude": -90.3182568, "care_type": "OB-GYN"}, {"name": "Dr. Renee D. Ewing, MD", "address": "1034 S Brentwood Blvd #900, Richmond Heights, MO 63117", "city": "Richmond Heights", "phone": "+1 314-726-1150", "website": "https://www.getcare.ssmhealth.com/find-a-doctor/doctor-details/renee-d-ewing-md", "rating": 4.6, "reviews": 21, "place_id": "ChIJZevFeiPL2IcRXuDGruWndvI", "latitude": 38.6360747, "longitude": -90.3441842, "care_type": "OB-GYN"}, {"name": "Professionals in Women's Care", "address": "8888 Ladue Rd Suite 220, St. Louis, MO 63124", "city": "St. Louis", "phone": "+1 314-644-3336", "website": "https://www.bjc.org/locations/professionals-in-womens-care%3Futm_source%3Dyext%26utm_medium%3Dlocal_listing%26utm_campaign%3Dyext_listing", "rating": 4.2, "reviews": 47, "place_id": "ChIJ7xd5oTTL2IcRjFMwSkG1zrw", "latitude": 38.651377, "longitude": -90.3517, "care_type": "OB-GYN"}, {"name": "Mary Brigid Holloran-Schwartz", "address": "6420 Clayton Rd, St. Louis, MO 63117", "city": "St. Louis", "phone": "+1 314-781-4772", "website": "http://obgyn.slu.edu/index.php%3Fpage%3Dm-brigid-holloran-schwartz-m-d", "rating": 4.5, "reviews": 4, "place_id": "ChIJh5m0c73K2IcRq1uWz1vNCZw", "latitude": 38.632681, "longitude": -90.3108929, "care_type": "OB-GYN"}, {"name": "Kelli A Kreher, MD", "address": "8888 Ladue Rd Suite 220, St. Louis, MO 63124", "city": "St. Louis", "phone": "+1 314-644-3336", "website": "https://www.bjc.org/provider/kelli-kreher-1558742791%3Futm_source%3Dyext%26utm_medium%3Dlocal_listing%26utm_campaign%3Dyext_listing", "rating": 4.7, "reviews": 15, "place_id": "ChIJ5e8k34vL2IcRXhN7G3iALeo", "latitude": 38.6512524, "longitude": -90.35156769999999, "care_type": "OB-GYN"}, {"name": "Dr. Laurel Hibbs, MD", "address": "6420 Clayton Rd # 291, St. Louis, MO 63117", "city": "St. Louis", "phone": "+1 314-781-4772", "website": "", "rating": 5.0, "reviews": 1, "place_id": "ChIJh5m0c73K2IcRUFtUHoQ1us4", "latitude": 38.6330715, "longitude": -90.31118099999999, "care_type": "OB-GYN"}, {"name": "Dr. Christina L. Byron, MD", "address": "15945 Clayton Rd, Ballwin, MO 63011", "city": "Ballwin", "phone": "+1 636-256-5090", "website": "", "rating": 4.5, "reviews": 13, "place_id": "ChIJyYvgNIPU2IcR2iixQl5biAA", "latitude": 38.6054548, "longitude": -90.5883044, "care_type": "OB-GYN"}, {"name": "Jordan Lowe", "address": "6420 Clayton Rd, St. Louis, MO 631171811", "city": "St. Louis", "phone": "+1 314-977-7455", "website": "", "rating": null, "reviews": 0, "place_id": "ChIJ____Cr3K2IcRGMpZKs1v6vM", "latitude": 38.6330715, "longitude": -90.31118099999999, "care_type": "OB-GYN"}, {"name": "Susan Hoffstetter, NP", "address": "1031 Bellevue Ave Suite 200, St. Louis, MO 63117", "city": "St. Louis", "phone": "+1 314-617-3500", "website": "https://www.getcare.ssmhealth.com/find-a-doctor/doctor-details/susan-e-hoffstetter-np-phd%3Fy_source%3D1_MTAwNTc2OTMxNy03MTUtbG9jYXRpb24ud2Vic2l0ZQ%253D%253D", "rating": 5.0, "reviews": 65, "place_id": "ChIJnWyRU8ss34cRRFfRJvamvGM", "latitude": 38.6331399, "longitude": -90.3134343, "care_type": "OB-GYN"}, {"name": "Michael Wendel, MD", "address": "1031 Bellevue Ave #400, Richmond Heights, MO 63117", "city": "Richmond Heights", "phone": "+1 314-617-3500", "website": "https://www.getcare.ssmhealth.com/find-a-doctor/doctor-details/michael-p-wendel-md%3Futm_id%3Dsys-listings-1%26linksource%3Dsys_listing_links-gmb_listing%26y_source%3D1_MTA4MjE3MzI4OS03MTUtbG9jYXRpb24ud2Vic2l0ZQ%253D%253D", "rating": 4.9, "reviews": 44, "place_id": "ChIJa50hYZvL2IcRGixONR8uN44", "latitude": 38.6331676, "longitude": -90.3130462, "care_type": "OB-GYN"}, {"name": "Erol Amon", "address": "6420 Clayton Rd, St. Louis, MO 63117", "city": "St. Louis", "phone": "", "website": "", "rating": null, "reviews": 0, "place_id": "ChIJ____Cr3K2IcRAMEjXx4nYg8", "latitude": 38.6330715, "longitude": -90.31118099999999, "care_type": "OB-GYN"}, {"name": "Aliza Machefsky", "address": "6420 Clayton Rd, St. Louis, MO 63117", "city": "St. Louis", "phone": "+1 314-781-4772", "website": "", "rating": null, "reviews": 0, "place_id": "ChIJ____Cr3K2IcRHmUl7RpGorI", "latitude": 38.6330715, "longitude": -90.31118099999999, "care_type": "OB-GYN"}, {"name": "Dr. Pamela J. Campbell, DO", "address": "10012 Kennerly Rd, St. Louis, MO 63128", "city": "St. Louis", "phone": "+1 314-525-4880", "website": "", "rating": 4.7, "reviews": 24, "place_id": "ChIJNWHrGTbP2IcR9bhh_-lQbhk", "latitude": 38.5060076, "longitude": -90.38051589999999, "care_type": "OB-GYN"}, {"name": "Dr. Katherine Childress", "address": "6420 Clayton Rd, St. Louis, MO 63117", "city": "St. Louis", "phone": "+1 314-768-8373", "website": "", "rating": null, "reviews": 0, "place_id": "ChIJ____Cr3K2IcRdq3sN33oWS0", "latitude": 38.6330715, "longitude": -90.31118099999999, "care_type": "OB-GYN"}, {"name": "Amy Ravin, MD", "address": "1031 Bellevue Ave #400, St. Louis, MO 63117", "city": "St. Louis", "phone": "+1 314-617-3500", "website": "https://www.getcare.ssmhealth.com/find-a-doctor/doctor-details/amy-j-ravin-md%3Fy_source%3D1_MTAwNTc2OTQzNy03MTUtbG9jYXRpb24ud2Vic2l0ZQ%253D%253D", "rating": 4.8, "reviews": 28, "place_id": "ChIJ10KW3r3K2IcRABsAJ0TNEwQ", "latitude": 38.6331399, "longitude": -90.3134343, "care_type": "OB-GYN"}, {"name": "Dr. Laura Donnelly, MD", "address": "6420 Clayton Rd, St. Louis, MO 63117", "city": "St. Louis", "phone": "+1 314-781-4772", "website": "http://obgyn.slu.edu/", "rating": 1.0, "reviews": 1, "place_id": "ChIJh5m0c73K2IcRMHio9XDmHhM", "latitude": 38.6331921, "longitude": -90.31130209999999, "care_type": "OB-GYN"}, {"name": "Deborah Levy, MD", "address": "1031 Bellevue Ave Suite 200, Richmond Heights, MO 63117", "city": "Richmond Heights", "phone": "+1 314-617-3500", "website": "https://www.getcare.ssmhealth.com/find-a-doctor/doctor-details/deborah-levy-md%3Fy_source%3D1_MTA5MDA3NzE2NS03MTUtbG9jYXRpb24ud2Vic2l0ZQ%253D%253D", "rating": 5.0, "reviews": 17, "place_id": "ChIJ7SIanZ7L2IcRHNlge3suPc8", "latitude": 38.6330584, "longitude": -90.3133917, "care_type": "OB-GYN"}, {"name": "Allan Fisher", "address": "6420 Clayton Rd, St. Louis, MO 631171811", "city": "St. Louis", "phone": "+1 314-977-7455", "website": "", "rating": null, "reviews": 0, "place_id": "ChIJ____Cr3K2IcR5WGe5SiMyto", "latitude": 38.6330715, "longitude": -90.31118099999999, "care_type": "OB-GYN"}, {"name": "Justine Keller", "address": "6420 Clayton Rd, St. Louis, MO 63117", "city": "St. Louis", "phone": "+1 314-768-8876", "website": "https://www.getcare.ssmhealth.com/find-a-doctor/doctor-details/justine-m-keller-md", "rating": null, "reviews": 0, "place_id": "ChIJ____Cr3K2IcReiUXMzJE0KQ", "latitude": 38.6330715, "longitude": -90.31118099999999, "care_type": "OB-GYN"}, {"name": "Lulu Yu, MD", "address": "1031 Bellevue Ave Suite 200, St. Louis, MO 63117", "city": "St. Louis", "phone": "+1 314-617-3500", "website": "https://www.getcare.ssmhealth.com/find-a-doctor/doctor-details/lulu-yu-md%3Futm_id%3Dsys-listings-1%26linksource%3Dsys_listing_links-gmb_listing%26y_source%3D1_MTA4MjE3Mjg5My03MTUtbG9jYXRpb24ud2Vic2l0ZQ%253D%253D", "rating": 5.0, "reviews": 30, "place_id": "ChIJaXkkI2bL2IcRpf-XGvWUDr0", "latitude": 38.6330584, "longitude": -90.3133917, "care_type": "OB-GYN"}, {"name": "Leslie McCloskey, MD", "address": "1031 Bellevue Ave #400, St. Louis, MO 63117", "city": "St. Louis", "phone": "+1 314-617-3500", "website": "https://www.getcare.ssmhealth.com/find-a-doctor/doctor-details/leslie-a-mccloskey-md%3Fy_source%3D1_MTAwNTc2OTM4Ny03MTUtbG9jYXRpb24ud2Vic2l0ZQ%253D%253D", "rating": 4.8, "reviews": 30, "place_id": "ChIJQ8vzvL3K2IcR2nnht81ur58", "latitude": 38.6331399, "longitude": -90.3134343, "care_type": "OB-GYN"}, {"name": "Kristie Lou, MD", "address": "1031 Bellevue Ave #400, St. Louis, MO 63117", "city": "St. Louis", "phone": "+1 314-617-3500", "website": "https://www.getcare.ssmhealth.com/find-a-doctor/doctor-details/kristie-h-lou-md%3Fy_source%3D1_MTAwNTc2OTM4NC03MTUtbG9jYXRpb24ud2Vic2l0ZQ%253D%253D", "rating": 4.8, "reviews": 17, "place_id": "ChIJf6L1FvTL2IcRugP0U1WqASg", "latitude": 38.6331676, "longitude": -90.3130462, "care_type": "OB-GYN"}, {"name": "Dr. Dawn M. Mcdaid, MD", "address": "6420 Clayton Rd #290, St. Louis, MO 63117", "city": "St. Louis", "phone": "+1 314-977-7455", "website": "", "rating": null, "reviews": 0, "place_id": "ChIJh5m0c73K2IcRJgEt-xuX3j8", "latitude": 38.633018, "longitude": -90.310852, "care_type": "OB-GYN"}, {"name": "Cathleen Faris, MD", "address": "8888 Ladue Rd Suite 220, St. Louis, MO 63124", "city": "St. Louis", "phone": "+1 314-644-3337", "website": "https://doctors.bjc.org/wlp2/doctors/info/AKT0040X/Cathleen-R-Faris-MD", "rating": 5.0, "reviews": 1, "place_id": "ChIJMwpvQk3L2IcRoVV6fVM-1O4", "latitude": 38.65121389999999, "longitude": -90.3516629, "care_type": "OB-GYN"}, {"name": "Dr. Jared Martin", "address": "6420 Clayton Rd, St. Louis, MO 63117", "city": "St. Louis", "phone": "+1 314-781-4772", "website": "http://obgyn.slu.edu/index.php%3Fpage%3Dcontact-us", "rating": null, "reviews": 0, "place_id": "ChIJh5m0c73K2IcRadDfD5rKrFo", "latitude": 38.6331083, "longitude": -90.31122739999999, "care_type": "OB-GYN"}, {"name": "Niraj Chavan, MD", "address": "6420 Clayton Rd, St. Louis, MO 63117", "city": "St. Louis", "phone": "+1 314-768-8873", "website": "https://physicians.slucare.com/details/3216/niraj-chavan-maternal__fetal_medicine-obstetrics__gynecology-st_louis", "rating": null, "reviews": 0, "place_id": "ChIJs_Fi44XL2IcRKKCzD2DAP-M", "latitude": 38.6332783, "longitude": -90.31113889999999, "care_type": "OB-GYN"}, {"name": "Cherie LeFevre, MD", "address": "1031 Bellevue Ave Suite 200, St. Louis, MO 63117", "city": "St. Louis", "phone": "+1 314-617-3500", "website": "https://www.getcare.ssmhealth.com/find-a-doctor/doctor-details/cherie-a-lefevre-md%3Fy_source%3D1_MTAwNTc2OTM1Ni03MTUtbG9jYXRpb24ud2Vic2l0ZQ%253D%253D", "rating": 5.0, "reviews": 48, "place_id": "ChIJQ8vzvL3K2IcRdHoji8cf5R0", "latitude": 38.6331399, "longitude": -90.3134343, "care_type": "OB-GYN"}, {"name": "Rojanasathit Chinda MD", "address": "1224 Graham St, St. Louis, MO 63135", "city": "St. Louis", "phone": "+1 314-839-4110", "website": "", "rating": 5.0, "reviews": 1, "place_id": "ChIJFedlQGa12IcRsUGrA84SBaA", "latitude": 38.6278338, "longitude": -90.29133639999999, "care_type": "OB-GYN"}, {"name": "Andrew Steele, MD", "address": "1031 Bellevue Ave 2nd Floor, St. Louis, MO 63117", "city": "St. Louis", "phone": "+1 314-617-3500", "website": "https://www.getcare.ssmhealth.com/find-a-doctor/doctor-details/andrew-c-steele-md%3Fy_source%3D1_MTAwNTc2OTQ1Ni03MTUtbG9jYXRpb24ud2Vic2l0ZQ%253D%253D", "rating": 4.9, "reviews": 54, "place_id": "ChIJQ8vzvL3K2IcRWQYwQBfR_9c", "latitude": 38.6330584, "longitude": -90.3133917, "care_type": "OB-GYN"}, {"name": "Mathews Katherine J MD", "address": "6420 Clayton Rd, St. Louis, MO 63117", "city": "St. Louis", "phone": "+1 314-768-8000", "website": "http://www.ssmhealth.com/", "rating": null, "reviews": 0, "place_id": "ChIJh5m0c73K2IcRCqf97VUHe1M", "latitude": 38.6326991, "longitude": -90.310879, "care_type": "OB-GYN"}, {"name": "SLUCare Obstetrics, Gynecology and Women's Health", "address": "1031 Bellevue Ave #400, St. Louis, MO 63117", "city": "St. Louis", "phone": "+1 314-977-7455", "website": "https://www.slucare.com/ob-gyn/", "rating": 2.5, "reviews": 32, "place_id": "ChIJQ8vzvL3K2IcRll7A8ZgpoHU", "latitude": 38.6331399, "longitude": -90.3134343, "care_type": "OB-GYN"}, {"name": "Megan Lawlor", "address": "6420 Clayton Rd STE 2701, St. Louis, MO 631171811", "city": "St. Louis", "phone": "+1 859-218-1661", "website": "", "rating": null, "reviews": 0, "place_id": "ChIJ____Cr3K2IcRGdtlYax5Dzo", "latitude": 38.6330715, "longitude": -90.31118099999999, "care_type": "OB-GYN"}, {"name": "Mercy Clinic OB/Gyn - Medical Tower A Suite 101A", "address": "621 S New Ballas Rd Tower A Suite 101A, St. Louis, MO 63141", "city": "St. Louis", "phone": "+1 314-569-2751", "website": "https://www.mercy.net/practice/mercy-clinic-obgyn-medical-tower-a-suite-101a%3Futm_source%3Dgoogle%26utm_medium%3Dorganic_search%26utm_campaign%3Dyext%26utm_term%3DEast%26utm_content%3Dwebsite%26y_source%3D1_MTU2OTgyNDctNzE1LWxvY2F0aW9uLndlYnNpdGU%253D", "rating": 5.0, "reviews": 27, "place_id": "ChIJMXiqxJ_N2IcRXxRTh67Txwo", "latitude": 38.6450611, "longitude": -90.4463498, "care_type": "OB-GYN"}, {"name": "Jill Powell MD", "address": "1031 Bellevue Ave #400, St. Louis, MO 63117", "city": "St. Louis", "phone": "+1 314-617-3500", "website": "https://www.getcare.ssmhealth.com/find-a-doctor/doctor-details/jill-k-powell-md%3Fy_source%3D1_MTAwNTc2OTQyOS03MTUtbG9jYXRpb24ud2Vic2l0ZQ%253D%253D", "rating": 4.3, "reviews": 24, "place_id": "ChIJQ8vzvL3K2IcRBU1dZENhcTs", "latitude": 38.6331399, "longitude": -90.3134343, "care_type": "OB-GYN"}, {"name": "Katherine Childress, MD", "address": "1031 Bellevue Ave #400, St. Louis, MO 63117", "city": "St. Louis", "phone": "+1 314-617-3500", "website": "https://www.getcare.ssmhealth.com/find-a-doctor/doctor-details/katherine-m-scolari-childress-md%3Fy_source%3D1_MTAwNTc2OTMyMi03MTUtbG9jYXRpb24ud2Vic2l0ZQ%253D%253D", "rating": 5.0, "reviews": 19, "place_id": "ChIJ10KW3r3K2IcRSzK6mOj1G3A", "latitude": 38.6331399, "longitude": -90.3134343, "care_type": "OB-GYN"}, {"name": "Margaret Rosanna Gray-Swain, MD", "address": "1110 Highlands Plaza Dr #280, St. Louis, MO 63110", "city": "St. Louis", "phone": "+1 314-286-2620", "website": "https://www.bjc.org/provider/margaret-gray-swain-1245267178%3Futm_source%3Dyext%26utm_medium%3Dlocal_listing%26utm_campaign%3Dyext_listing", "rating": 4.3, "reviews": 11, "place_id": "ChIJMdToPWu12IcR2_DY1kz8kDU", "latitude": 38.6284663, "longitude": -90.28204149999999, "care_type": "OB-GYN"}, {"name": "Dr. Cherese Collins", "address": "9450 Manchester Rd #206, St. Louis, MO 63119", "city": "St. Louis", "phone": "+1 314-725-9300", "website": "https://findadoctor.bjc.org/find-doctor/cherese-y-collins-md/1194724062", "rating": 5.0, "reviews": 1, "place_id": "ChIJuWi2oJ3L2IcRU76OyERmUHQ", "latitude": 38.6088507, "longitude": -90.3630001, "care_type": "OB-GYN"}, {"name": "Retired - Dr. Kathleen M. Hogan, MD", "address": "8888 Ladue Rd Suite 220, St. Louis, MO 63124", "city": "St. Louis", "phone": "+1 314-644-3336", "website": "", "rating": 2.3, "reviews": 3, "place_id": "ChIJ7xd5oTTL2IcRRWxv5V_ESIY", "latitude": 38.651376, "longitude": -90.351632, "care_type": "OB-GYN"}, {"name": "John Hoff, MD", "address": "1031 Bellevue Ave #400, St. Louis, MO 63117", "city": "St. Louis", "phone": "+1 314-617-3500", "website": "https://www.getcare.ssmhealth.com/find-a-doctor/doctor-details/john-t-hoff-md%3Fy_source%3D1_MTAwNTc2OTMxNi03MTUtbG9jYXRpb24ud2Vic2l0ZQ%253D%253D", "rating": 4.9, "reviews": 50, "place_id": "ChIJ10KW3r3K2IcRjabvfW_9yQk", "latitude": 38.6331399, "longitude": -90.3134343, "care_type": "OB-GYN"}, {"name": "Tracy Tomlinson, MD", "address": "1031 Bellevue Ave #400, St. Louis, MO 63117", "city": "St. Louis", "phone": "+1 314-617-3500", "website": "https://www.getcare.ssmhealth.com/find-a-doctor/doctor-details/tracy-m-tomlinson-md%3Fy_source%3D1_MTAwNTc2OTQ4OC03MTUtbG9jYXRpb24ud2Vic2l0ZQ%253D%253D", "rating": 4.8, "reviews": 15, "place_id": "ChIJ10KW3r3K2IcR7uXtkd9WbZw", "latitude": 38.6331399, "longitude": -90.3134343, "care_type": "OB-GYN"}, {"name": "OBGYN Associates at Rock Hill", "address": "9450 Manchester Rd, St. Louis, MO 63119", "city": "St. Louis", "phone": "+1 314-725-9300", "website": "https://www.bjc.org/locations/obgyn-associates-at-rock-hill%3Futm_source%3Dyext%26utm_medium%3Dlocal_listing%26utm_campaign%3Dyext_listing", "rating": 4.0, "reviews": 30, "place_id": "ChIJYSOZdp3L2IcR80FXAnZuMNM", "latitude": 38.6089172, "longitude": -90.3632143, "care_type": "OB-GYN"}, {"name": "Mitul Shah, MD", "address": "1031 Bellevue Ave #400, St. Louis, MO 63117", "city": "St. Louis", "phone": "+1 314-617-3500", "website": "https://www.getcare.ssmhealth.com/find-a-doctor/doctor-details/mitul-b-shah-md%3Fy_source%3D1_MTAwNTc2OTQ0OS03MTUtbG9jYXRpb24ud2Vic2l0ZQ%253D%253D", "rating": 4.7, "reviews": 43, "place_id": "ChIJQ8vzvL3K2IcRzjNOjI3RCSA", "latitude": 38.6331399, "longitude": -90.3134343, "care_type": "OB-GYN"}, {"name": "Kathleen E Jaeger, MD", "address": "9450 Manchester Rd Suite 206A, St. Louis, MO 63119", "city": "St. Louis", "phone": "+1 314-725-9300", "website": "https://www.bjc.org/provider/kathleen-jaeger-1609280619%3Futm_source%3Dyext%26utm_medium%3Dlocal_listing%26utm_campaign%3Dyext_listing", "rating": 4.6, "reviews": 11, "place_id": "ChIJVxWvaNXN2IcRRu_iV4Ta14I", "latitude": 38.6088331, "longitude": -90.36306499999999, "care_type": "OB-GYN"}, {"name": "Joseph Polcaro, DO", "address": "1031 Bellevue Ave #400, St. Louis, MO 63117", "city": "St. Louis", "phone": "+1 314-617-3500", "website": "https://www.getcare.ssmhealth.com/find-a-doctor/doctor-details/joseph-polcaro-do%3Fy_source%3D1_MTAwNTc2OTQyOC03MTUtbG9jYXRpb24ud2Vic2l0ZQ%253D%253D", "rating": 4.9, "reviews": 12, "place_id": "ChIJFYciRypTwokRd0W7aJEO0W4", "latitude": 38.6331676, "longitude": -90.3130462, "care_type": "OB-GYN"}, {"name": "Women & Infants Center", "address": "1 Parkview Place Barnes-Jewish Parkview Tower, St. Louis, MO 63110", "city": "St. Louis", "phone": "+1 866-867-3627", "website": "https://www.barnesjewish.org/Medical-Services/Women-Infants", "rating": 4.5, "reviews": 18, "place_id": "ChIJfziQPye12IcRlJ2nsqTPDRs", "latitude": 38.6383989, "longitude": -90.2632979, "care_type": "OB-GYN"}, {"name": "Brigid Holloran-Schwartz, MD", "address": "1031 Bellevue Ave #400, St. Louis, MO 63117", "city": "St. Louis", "phone": "+1 314-617-3500", "website": "https://www.getcare.ssmhealth.com/find-a-doctor/doctor-details/mary-brigid-holloran-schwartz-md%3Fy_source%3D1_MTAwNTc2OTM2Ny03MTUtbG9jYXRpb24ud2Vic2l0ZQ%253D%253D", "rating": 5.0, "reviews": 27, "place_id": "ChIJ10KW3r3K2IcR2mZ3v_M9Kug", "latitude": 38.6331399, "longitude": -90.3134343, "care_type": "OB-GYN"}, {"name": "Meera R. Patel, MD", "address": "9450 Manchester Rd Suite 206A, St. Louis, MO 63119", "city": "St. Louis", "phone": "+1 314-725-9300", "website": "https://www.bjc.org/provider/meera-patel-1427120948%3Futm_source%3Dyext%26utm_medium%3Dlocal_listing%26utm_campaign%3Dyext_listing", "rating": 4.3, "reviews": 24, "place_id": "ChIJZevFeiPL2IcRjCbSk0LbA84", "latitude": 38.6088331, "longitude": -90.36306499999999, "care_type": "OB-GYN"}, {"name": "Daniel Baumann, MD", "address": "1035 Bellevue Ave # 305, St. Louis, MO 63117", "city": "St. Louis", "phone": "+1 314-925-4741", "website": "http://ssmhealth.com/", "rating": 5.0, "reviews": 3, "place_id": "ChIJkSsA3b3K2IcR-e-WuN3quR4", "latitude": 38.6327105, "longitude": -90.312812, "care_type": "OB-GYN"}, {"name": "James Jade D MD", "address": "5471 Dr Martin Luther King Dr, St. Louis, MO 63112", "city": "St. Louis", "phone": "+1 314-367-5820", "website": "", "rating": 5.0, "reviews": 2, "place_id": "ChIJ_wy7YcNK34cRViFt-BS_ECA", "latitude": 38.6687205, "longitude": -90.27243879999999, "care_type": "OB-GYN"}, {"name": "Sara Ficenec, MD", "address": "1031 Bellevue Ave #400, St. Louis, MO 63117", "city": "St. Louis", "phone": "+1 314-617-3500", "website": "https://www.getcare.ssmhealth.com/find-a-doctor/doctor-details/sara-a-ficenec-md%3Futm_id%3Dsys-listings-1%26linksource%3Dsys_listing_links-gmb_listing%26y_source%3D1_MTA4MjE2Mjc2Ni03MTUtbG9jYXRpb24ud2Vic2l0ZQ%253D%253D", "rating": 4.7, "reviews": 32, "place_id": "ChIJsSd6YXXL2IcRApuqzoj_cuw", "latitude": 38.6331676, "longitude": -90.3130462, "care_type": "OB-GYN"}, {"name": "Dr. Yvonne P. Treece, MD", "address": "5701 Delmar Blvd, St. Louis, MO 63112", "city": "St. Louis", "phone": "+1 314-367-7848", "website": "", "rating": 2.8, "reviews": 5, "place_id": "ChIJZdDYnbRK34cRmSiCmybhRC0", "latitude": 38.6544119, "longitude": -90.2853449, "care_type": "OB-GYN"}, {"name": "Dr. Bridget S. Rutledge, MD", "address": "216 S Kingshighway Blvd, St. Louis, MO 63110", "city": "St. Louis", "phone": "+1 314-286-2620", "website": "", "rating": 4.3, "reviews": 15, "place_id": "ChIJQ3B-4ia12IcRWr9OFVO1ebw", "latitude": 38.6388391, "longitude": -90.2648651, "care_type": "OB-GYN"}, {"name": "Surbhi Jain, MD", "address": "1031 Bellevue Ave #400, St. Louis, MO 63117", "city": "St. Louis", "phone": "+1 314-617-3500", "website": "https://www.ssmhealth.com/find-a-doctor/doctor-details/surbhi-jain-md%3Futm_id%3Dsys-listings-1%26linksource%3Dsys_listing_links-gmb_listing%26y_source%3D1_MTAyNTM4MTM0OC03MTUtbG9jYXRpb24ud2Vic2l0ZQ%253D%253D", "rating": 5.0, "reviews": 8, "place_id": "ChIJ-VJI3TDL2IcRmQ3ejZmif6E", "latitude": 38.633378, "longitude": -90.31296909999999, "care_type": "OB-GYN"}, {"name": "Dr. Raul Artal, MD", "address": "1031 Bellevue Ave #400, St. Louis, MO 63117", "city": "St. Louis", "phone": "+1 314-781-4772", "website": "", "rating": 5.0, "reviews": 1, "place_id": "ChIJQ8vzvL3K2IcRhrxeh-EtHZU", "latitude": 38.63295, "longitude": -90.31324, "care_type": "OB-GYN"}, {"name": "Taryn White, MD", "address": "East Plaza, 1110 Highlands Plaza Dr 3, Suite 280, St. Louis, MO 63110", "city": "St. Louis", "phone": "+1 314-286-2620", "website": "https://www.bjc.org/provider/taryn-white-1225560303%3Futm_source%3Dyext%26utm_medium%3Dlocal_listing%26utm_campaign%3Dyext_listing", "rating": 5.0, "reviews": 1, "place_id": "ChIJF35pkqO12IcRPj63dA5X9-s", "latitude": 38.628472, "longitude": -90.2820922, "care_type": "OB-GYN"}, {"name": "Shannon Grabosch, MD", "address": "1031 Bellevue Ave Suite 200, St. Louis, MO 63117", "city": "St. Louis", "phone": "+1 314-617-3500", "website": "https://www.getcare.ssmhealth.com/find-a-doctor/doctor-details/shannon-grabosch-md%3Fy_source%3D1_MTAwNTc2OTI5OC03MTUtbG9jYXRpb24ud2Vic2l0ZQ%253D%253D", "rating": 4.9, "reviews": 32, "place_id": "ChIJH5Q2XN3L2IcRp_6WuyA6-ho", "latitude": 38.6330584, "longitude": -90.3133917, "care_type": "OB-GYN"}, {"name": "Niraj Chavan, MD", "address": "1031 Bellevue Ave #400, St. Louis, MO 63117", "city": "St. Louis", "phone": "+1 314-617-3500", "website": "https://www.getcare.ssmhealth.com/find-a-doctor/doctor-details/niraj-r-chavan-md%3Fy_source%3D1_MTAwNTc2OTMyMS03MTUtbG9jYXRpb24ud2Vic2l0ZQ%253D%253D", "rating": 5.0, "reviews": 5, "place_id": "ChIJyXkv7bLL2IcR3t7ZGJbVhqM", "latitude": 38.6331676, "longitude": -90.3130462, "care_type": "OB-GYN"}, {"name": "Ward Donald G MD", "address": "6420 Clayton Rd, St. Louis, MO 63117", "city": "St. Louis", "phone": "+1 314-768-8000", "website": "http://www.ssmhealth.com/", "rating": null, "reviews": 0, "place_id": "ChIJh5m0c73K2IcRypDnxzSbZiY", "latitude": 38.6326991, "longitude": -90.310879, "care_type": "OB-GYN"}, {"name": "Mary McLennan, MD", "address": "1031 Bellevue Ave 2nd Floor, St. Louis, MO 63117", "city": "St. Louis", "phone": "+1 314-617-3500", "website": "https://www.getcare.ssmhealth.com/find-a-doctor/doctor-details/mary-t-mclennan-md%3Fy_source%3D1_MTAwNTc2OTM5Ny03MTUtbG9jYXRpb24ud2Vic2l0ZQ%253D%253D", "rating": 5.0, "reviews": 8, "place_id": "ChIJQ8vzvL3K2IcRveoLIlTfRmA", "latitude": 38.6330584, "longitude": -90.3133917, "care_type": "OB-GYN"}, {"name": "Anne Rebecca Seyer, MD", "address": "1110 Highlands Plaza Dr #280, St. Louis, MO 63110", "city": "St. Louis", "phone": "+1 314-286-2620", "website": "https://www.bjc.org/provider/anne-seyer-1669673653%3Futm_source%3Dyext%26utm_medium%3Dlocal_listing%26utm_campaign%3Dyext_listing", "rating": 2.2, "reviews": 20, "place_id": "ChIJMSMod5C22IcR7by8dXn3xDg", "latitude": 38.6284663, "longitude": -90.28204149999999, "care_type": "OB-GYN"}, {"name": "Kelly D. Edwards, FNP", "address": "1110 Highlands Plaza Dr #280, St. Louis, MO 63110", "city": "St. Louis", "phone": "+1 314-286-2620", "website": "https://www.bjc.org/provider/kelly-edwards-1285880724%3Futm_source%3Dyext%26utm_medium%3Dlocal_listing%26utm_campaign%3Dyext_listing", "rating": 4.5, "reviews": 6, "place_id": "ChIJ02TWgku12IcRGlbdAZJZvP0", "latitude": 38.6284663, "longitude": -90.28204149999999, "care_type": "OB-GYN"}, {"name": "Kerith L Lucco, MD", "address": "1110 Highlands Plaza Dr #280, St. Louis, MO 63110", "city": "St. Louis", "phone": "+1 314-286-2620", "website": "https://www.bjc.org/provider/kerith-lucco-1588780662%3Futm_source%3Dyext%26utm_medium%3Dlocal_listing%26utm_campaign%3Dyext_listing", "rating": 5.0, "reviews": 3, "place_id": "ChIJc4uCVDm12IcRcz4Z6e7FX2w", "latitude": 38.6284663, "longitude": -90.28204149999999, "care_type": "OB-GYN"}, {"name": "Fah Che Leong", "address": "6420 Clayton Rd Fl 1, St. Louis, MO 63117", "city": "St. Louis", "phone": "+1 314-768-8373", "website": "https://physicians.slucare.com/details/347/fah_che-leong-obstetrics__gynecology-st_louis", "rating": null, "reviews": 0, "place_id": "ChIJ____Cr3K2IcR23iudVrEUJs", "latitude": 38.6330715, "longitude": -90.31118099999999, "care_type": "OB-GYN"}, {"name": "Greg Ward, MD", "address": "1031 Bellevue Ave #400, St. Louis, MO 63117", "city": "St. Louis", "phone": "+1 314-617-3500", "website": "https://www.getcare.ssmhealth.com/find-a-doctor/doctor-details/donald-g-ward-md%3Fy_source%3D1_MTAwNTc2OTQ5NS03MTUtbG9jYXRpb24ud2Vic2l0ZQ%253D%253D", "rating": 4.6, "reviews": 13, "place_id": "ChIJ10KW3r3K2IcRn9amUqarwI4", "latitude": 38.6331399, "longitude": -90.3134343, "care_type": "OB-GYN"}, {"name": "Vera De Vera", "address": "8888 Ladue Rd Suite 220, St. Louis, MO 63124", "city": "St. Louis", "phone": "+1 314-644-3336", "website": "", "rating": 1.0, "reviews": 1, "place_id": "ChIJQWOOoTTL2IcRHQg9-3IAU-o", "latitude": 38.6512524, "longitude": -90.35156769999999, "care_type": "OB-GYN"}, {"name": "Saint Louis University School of Medicine Department of Obstetrics, Gynecology and Women's Health", "address": "1031 Bellevue Ave #400, Richmond Heights, MO 63117", "city": "Richmond Heights", "phone": "+1 314-977-7455", "website": "http://obgyn.slu.edu/", "rating": null, "reviews": 0, "place_id": "ChIJ0Xn3vL3K2IcRs1TqHW3kdz8", "latitude": 38.63314, "longitude": -90.31343419999999, "care_type": "OB-GYN"}, {"name": "Aaron Pile", "address": "5471 Dr Martin Luther King Dr, St. Louis, MO 631124265", "city": "St. Louis", "phone": "+1 314-367-5820", "website": "", "rating": 5.0, "reviews": 1, "place_id": "ChIJNwxKWcNK34cRabL3kFbybm8", "latitude": 38.6686432, "longitude": -90.27226019999999, "care_type": "OB-GYN"}, {"name": "Balanced Care For Women - Obstetrics and Gynecology", "address": "10806 Olive Blvd, St. Louis, MO 63141", "city": "St. Louis", "phone": "+1 314-993-7009", "website": "https://physicians.wustl.edu/specialties/obstetrics-gynecology/balanced-care-for-women/", "rating": 4.1, "reviews": 55, "place_id": "ChIJ9XoIKN4y34cR1R9RTczgK94", "latitude": 38.6726299, "longitude": -90.4151893, "care_type": "OB-GYN"}, {"name": "Cassandra Johnson, WHNP", "address": "1110 Highlands Plaza Dr #280, St. Louis, MO 63110", "city": "St. Louis", "phone": "+1 314-286-2620", "website": "https://www.bjc.org/provider/cassandra-johnson-1700358025%3Futm_source%3Dyext%26utm_medium%3Dlocal_listing%26utm_campaign%3Dyext_listing", "rating": 3.7, "reviews": 3, "place_id": "ChIJz9q5K3u12IcRgCoyM7q6cdY", "latitude": 38.6284663, "longitude": -90.28204149999999, "care_type": "OB-GYN"}, {"name": "Bridget S. Rutledge, MD", "address": "1110 Highlands Plaza Dr #280, St. Louis, MO 63110", "city": "St. Louis", "phone": "+1 314-286-2620", "website": "https://www.bjc.org/provider/bridget-rutledge-1083747067%3Futm_source%3Dyext%26utm_medium%3Dlocal_listing%26utm_campaign%3Dyext_listing", "rating": 4.3, "reviews": 4, "place_id": "ChIJa2WNzuO12IcRKSl_gWvWgLQ", "latitude": 38.6284663, "longitude": -90.28204149999999, "care_type": "OB-GYN"}, {"name": "Dr. Eboni January", "address": "5701 Delmar Blvd, St. Louis, MO 63112", "city": "St. Louis", "phone": "+1 314-367-7848", "website": "", "rating": 1.0, "reviews": 1, "place_id": "ChIJl9mxY7NK34cRS5iLXqZqX4E", "latitude": 38.6544084, "longitude": -90.28566459999999, "care_type": "OB-GYN"}, {"name": "Mercy Clinic OBGYN, Des Peres", "address": "1000 Des Peres Rd # 100, Des Peres, MO 63131", "city": "Des Peres", "phone": "+1 314-729-4440", "website": "https://www.mercy.net/practice/mercy-clinic-womens-health-des-peres-road-suite-300/", "rating": 2.4, "reviews": 8, "place_id": "ChIJYxKhlXfS2IcRjveFDBKBrTk", "latitude": 38.5985081, "longitude": -90.4516932, "care_type": "OB-GYN"}, {"name": "Dr. John Hoff", "address": "6420 Clayton Rd, St. Louis, MO 63117", "city": "St. Louis", "phone": "+1 314-781-8605", "website": "https://doctors.stlukes-stl.com/details/743/john-hoff-gynecologic_oncology-chesterfield-st_louis", "rating": null, "reviews": 0, "place_id": "ChIJ____Cr3K2IcRchwFp-RJ0b0", "latitude": 38.6330715, "longitude": -90.31118099999999, "care_type": "OB-GYN"}, {"name": "Michael Thomure, MD", "address": "1031 Bellevue Ave #400, St. Louis, MO 63117", "city": "St. Louis", "phone": "+1 314-617-3500", "website": "https://www.getcare.ssmhealth.com/find-a-doctor/doctor-details/michael-f-thomure-md%3Fy_source%3D1_MTAwNTc2OTQ2NS03MTUtbG9jYXRpb24ud2Vic2l0ZQ%253D%253D", "rating": 4.2, "reviews": 18, "place_id": "ChIJQ8vzvL3K2IcR1SXUC2nZ8Qo", "latitude": 38.6331399, "longitude": -90.3134343, "care_type": "OB-GYN"}, {"name": "Johnson Michael K MD", "address": "5701 Delmar Blvd, St. Louis, MO 63112", "city": "St. Louis", "phone": "+1 314-367-7848", "website": "", "rating": 2.7, "reviews": 3, "place_id": "ChIJZdDYnbRK34cRY2Wtr4XiO-U", "latitude": 38.6544119, "longitude": -90.2853449, "care_type": "OB-GYN"}, {"name": "Christopher Buchanan, MD", "address": "1031 Bellevue Ave #400, St. Louis, MO 63117", "city": "St. Louis", "phone": "+1 314-617-3500", "website": "https://www.getcare.ssmhealth.com/find-a-doctor/doctor-details/christopher-q-buchanan-md%3Fy_source%3D1_MTAwNTc2OTMxMS03MTUtbG9jYXRpb24ud2Vic2l0ZQ%253D%253D", "rating": 5.0, "reviews": 5, "place_id": "ChIJLRgZrczL2IcRo4aCPtu9Od0", "latitude": 38.6331399, "longitude": -90.3134343, "care_type": "OB-GYN"}, {"name": "Mercy Clinic OB/GYN - 10004 Kennerly Suite 230A", "address": "10004 Kennerly Rd # 230A, St. Louis, MO 63128", "city": "St. Louis", "phone": "+1 314-525-4100", "website": "https://www.mercy.net/practice/mercy-clinic-obgyn-10004-kennerly-suite-230a%3Futm_source%3Dgoogle%26utm_medium%3Dorganic_search%26utm_campaign%3Dyext%26utm_term%3DEast%26utm_content%3Dwebsite%26y_source%3D1_MTY0OTkyMjQtNzE1LWxvY2F0aW9uLndlYnNpdGU%253D", "rating": 3.8, "reviews": 13, "place_id": "ChIJc6VZeq3P2IcRfchB4wd0jqA", "latitude": 38.5078822, "longitude": -90.37902539999999, "care_type": "OB-GYN"}, {"name": "Alexander Hubb, MD", "address": "1031 Bellevue Ave Suite 200, St. Louis, MO 63117", "city": "St. Louis", "phone": "+1 314-617-3500", "website": "https://www.getcare.ssmhealth.com/find-a-doctor/doctor-details/alexander-hubb-md%3Fy_source%3D1_MTAwNTc2OTMyNC03MTUtbG9jYXRpb24ud2Vic2l0ZQ%253D%253D", "rating": 5.0, "reviews": 68, "place_id": "ChIJk7jMpArL2IcRZ6NLk_Ii9PA", "latitude": 38.6331399, "longitude": -90.3134343, "care_type": "OB-GYN"}, {"name": "Dr. Srilakshmi Vuyyuru", "address": "5471 Dr Martin Luther King Dr, St. Louis, MO 63112", "city": "St. Louis", "phone": "+1 314-367-5820", "website": "", "rating": null, "reviews": 0, "place_id": "ChIJr0A2WcNK34cRT2FNYw7Vwac", "latitude": 38.6686432, "longitude": -90.2722603, "care_type": "OB-GYN"}, {"name": "Women & Infants Center: Barnes-Jewish OB-GYN Clinic", "address": "4901 Forest Park Ave #341, St. Louis, MO 63108", "city": "St. Louis", "phone": "+1 314-454-7882", "website": "https://www.barnesjewish.org/Medical-Services/Women-Infants/Womens-Health-Services/Gynecology/OBGYN-Clinic", "rating": 2.7, "reviews": 34, "place_id": "ChIJn4g8eCe12IcRQa5zd3RLUyY", "latitude": 38.6397285, "longitude": -90.26245109999999, "care_type": "OB-GYN"}, {"name": "Salina D. Green, MD", "address": "10012 Kennerly Rd Suite 405, St. Louis, MO 63128", "city": "St. Louis", "phone": "+1 314-525-4880", "website": "https://www.mercy.net/doctor/salina-d-green-md%3Futm_source%3Dgoogle%26utm_medium%3Dorganic_search%26utm_campaign%3Dyext%26utm_term%3DEast%26utm_content%3Dwebsite%26y_source%3D1_MTI5OTk1NjYtNzE1LWxvY2F0aW9uLndlYnNpdGU%253D", "rating": 4.0, "reviews": 28, "place_id": "ChIJNWHrGTbP2IcRo5h_zEOJ2_I", "latitude": 38.5067755, "longitude": -90.3803004, "care_type": "OB-GYN"}, {"name": "Clay McDonough III, MD", "address": "6400 Clayton Rd Unit 201, St. Louis, MO 63117", "city": "St. Louis", "phone": "+1 314-617-2000", "website": "", "rating": 5.0, "reviews": 2, "place_id": "ChIJew5ZT5K02IcRm55OlhAZMbw", "latitude": 38.6336107, "longitude": -90.3093371, "care_type": "OB-GYN"}, {"name": "Dr. Amber Cooper - Kindbody", "address": "347 N Lindbergh Blvd, Creve Coeur, MO 63141", "city": "Creve Coeur", "phone": "+1 314-266-2062", "website": "https://kindbody.com/team/dr-amber-cooper/", "rating": 5.0, "reviews": 15, "place_id": "ChIJ_T_N0jTT2IcRRdx0xx1I3cg", "latitude": 38.6618039, "longitude": -90.4056913, "care_type": "OB-GYN"}, {"name": "Dr. Cherady Ketha", "address": "5701 Delmar Blvd, St. Louis, MO 63112", "city": "St. Louis", "phone": "+1 602-978-1500", "website": "https://desertwestobgyn.com/", "rating": null, "reviews": 0, "place_id": "ChIJzf4KnLRK34cR7zZ6oIEtVuI", "latitude": 38.6544119, "longitude": -90.28534479999999, "care_type": "OB-GYN"}, {"name": "Mercy Clinic Women's Health - 10012 Kennerly", "address": "10012 Kennerly Rd Suite 405, St. Louis, MO 63128", "city": "St. Louis", "phone": "+1 314-525-4880", "website": "https://www.mercy.net/practice/mercy-clinic-womens-health-10012-kennerly%3Futm_source%3Dgoogle%26utm_medium%3Dorganic_search%26utm_campaign%3Dyext%26utm_term%3DEast%26utm_content%3Dwebsite%26y_source%3D1_MTI5OTU1MTQtNzE1LWxvY2F0aW9uLndlYnNpdGU%253D", "rating": 3.9, "reviews": 10, "place_id": "ChIJpYYoJ5XP2IcRs9A_mH5d_YM", "latitude": 38.5063554, "longitude": -90.3803846, "care_type": "OB-GYN"}, {"name": "Donna Robey", "address": "1035 Bellevue Ave # 211, St. Louis, MO 63117", "city": "St. Louis", "phone": "+1 314-344-8100", "website": "https://www.getcare.ssmhealth.com/find-a-doctor/doctor-details/donna-a-robey-md", "rating": null, "reviews": 0, "place_id": "ChIJ5Qza673K2IcRLSIJL4qkxhk", "latitude": 38.6326967, "longitude": -90.31277419999999, "care_type": "OB-GYN"}, {"name": "Sarah Jane Tilling, DO", "address": "1000 Des Peres Rd Suite 300, St. Louis, MO 63131", "city": "St. Louis", "phone": "+1 314-919-2600", "website": "https://www.mercy.net/doctor/sarah-jane-tilling-do%3Futm_source%3Dgoogle%26utm_medium%3Dorganic_search%26utm_campaign%3Dyext%26utm_term%3DEast%26utm_content%3Dwebsite%26y_source%3D1_MTI5OTk3NTgtNzE1LWxvY2F0aW9uLndlYnNpdGU%253D", "rating": 5.0, "reviews": 2, "place_id": "ChIJabYfbXfS2IcRS5fDTdA7zG4", "latitude": 38.5985297, "longitude": -90.451617, "care_type": "OB-GYN"}, {"name": "Dr. Nicole Xynos", "address": "5701 Delmar Blvd, St. Louis, MO 63112", "city": "St. Louis", "phone": "+1 314-367-7848", "website": "http://www.phcenters.org/", "rating": null, "reviews": 0, "place_id": "ChIJzf4KnLRK34cRgQEJmNOdNbc", "latitude": 38.6544119, "longitude": -90.28534479999999, "care_type": "OB-GYN"}, {"name": "Dr. Heather E. Wuebker, MD", "address": "1027 Bellevue Ave #200, St. Louis, MO 63117", "city": "St. Louis", "phone": "+1 314-644-3336", "website": "", "rating": null, "reviews": 0, "place_id": "ChIJqxhKub3K2IcRGekQtURevNk", "latitude": 38.6333852, "longitude": -90.3126121, "care_type": "OB-GYN"}, {"name": "Amy Loreen, MD", "address": "1031 Bellevue Ave #400, St. Louis, MO 63117", "city": "St. Louis", "phone": "+1 314-617-3500", "website": "https://www.getcare.ssmhealth.com/find-a-doctor/doctor-details/amy-loreen-md%3Fy_source%3D1_MTAwNTc2OTM2Ni03MTUtbG9jYXRpb24ud2Vic2l0ZQ%253D%253D", "rating": 5.0, "reviews": 2, "place_id": "ChIJfTYM26jL2IcRoQWvPzf6YVg", "latitude": 38.6331399, "longitude": -90.3134343, "care_type": "OB-GYN"}, {"name": "Dr. John Conor Hardeman", "address": "5471 Dr Martin Luther King Dr, St. Louis, MO 63112", "city": "St. Louis", "phone": "+1 314-367-5820", "website": "", "rating": null, "reviews": 0, "place_id": "ChIJs32yqMRK34cR_iRp-paawtU", "latitude": 38.6687288, "longitude": -90.27240789999999, "care_type": "OB-GYN"}, {"name": "Carmen Fabiola Paredes Saenz", "address": "1031 Bellevue Ave Suite 200, St. Louis, MO 63117", "city": "St. Louis", "phone": "+1 314-977-6125", "website": "", "rating": null, "reviews": 0, "place_id": "ChIJ10KW3r3K2IcRdww-q5HqJus", "latitude": 38.6331399, "longitude": -90.3134343, "care_type": "OB-GYN"}, {"name": "Dr. Thomas D. Myles, MD", "address": "1031 Bellevue Ave #400, St. Louis, MO 63117", "city": "St. Louis", "phone": "+1 314-977-7455", "website": "", "rating": null, "reviews": 0, "place_id": "ChIJQ8vzvL3K2IcRMpYZc188s6Y", "latitude": 38.6331399, "longitude": -90.3134343, "care_type": "OB-GYN"}, {"name": "Mercy Clinic Women's Health - Medical Tower B Suite 1017", "address": "621 S New Ballas Rd Tower B Suite 1017, St. Louis, MO 63141", "city": "St. Louis", "phone": "+1 314-292-7080", "website": "https://www.mercy.net/practice/mercy-clinic-womens-health-medical-tower-b-suite-1017%3Futm_source%3Dgoogle%26utm_medium%3Dorganic_search%26utm_campaign%3Dyext%26utm_term%3DEast%26utm_content%3Dwebsite%26y_source%3D1_MTI5OTU3MDQtNzE1LWxvY2F0aW9uLndlYnNpdGU%253D", "rating": 5.0, "reviews": 1, "place_id": "ChIJe7_qqnwz34cRnLdHkDU_7EI", "latitude": 38.6450779, "longitude": -90.44483799999999, "care_type": "OB-GYN"}, {"name": "Nicole Gloor, MD", "address": "1031 Bellevue Ave #400, St. Louis, MO 63117", "city": "St. Louis", "phone": "+1 314-617-3500", "website": "https://www.getcare.ssmhealth.com/find-a-doctor/doctor-details/nicole-gloor-md%3Futm_id%3Dsys-listings-1%26linksource%3Dsys_listing_links-gmb_listing%26y_source%3D1_MTAyNTM4MTIyOS03MTUtbG9jYXRpb24ud2Vic2l0ZQ%253D%253D", "rating": 5.0, "reviews": 6, "place_id": "ChIJwWj3bsPL2IcRYRK9asYE77g", "latitude": 38.6331676, "longitude": -90.3130462, "care_type": "OB-GYN"}, {"name": "Becky Lynn", "address": "1031 Bellevue Ave #400, St. Louis, MO 63117", "city": "St. Louis", "phone": "+1 314-977-7455", "website": "", "rating": null, "reviews": 0, "place_id": "ChIJ23tGw73K2IcR3d5jLYUBaGQ", "latitude": 38.6331676, "longitude": -90.3130462, "care_type": "OB-GYN"}, {"name": "Martin J B MD", "address": "312 N Meramec Ave APT 300, St. Louis, MO 63105", "city": "St. Louis", "phone": "+1 314-725-2618", "website": "", "rating": null, "reviews": 0, "place_id": "ChIJmfiUltU034cR2kDlMewEnwk", "latitude": 38.6560168, "longitude": -90.33824039999999, "care_type": "OB-GYN"}, {"name": "Dr. Ebony Carter", "address": "216 S Kingshighway Blvd, St. Louis, MO 63110", "city": "St. Louis", "phone": "+1 314-362-5641", "website": "", "rating": null, "reviews": 0, "place_id": "ChIJQ3B-4ia12IcRXrpufF9yQgA", "latitude": 38.638751, "longitude": -90.26436799999999, "care_type": "OB-GYN"}, {"name": "Women's Wellness Center at SSM Health St. Mary's Hospital", "address": "1035 Bellevue Ave #212, St. Louis, MO 63117", "city": "St. Louis", "phone": "+1 314-768-8780", "website": "https://www.ssmhealth.com/locations/location-details/womens-wellness-center%3Futm_id%3Dsys-listings-1%26linksource%3Dsys_listing_links-gmb_listing%26y_source%3D1_MTAyMDUyMzA2My03MTUtbG9jYXRpb24ud2Vic2l0ZQ%253D%253D", "rating": null, "reviews": 0, "place_id": "ChIJ0fXScDXL2IcRnDXw5tMQfqM", "latitude": 38.6326942, "longitude": -90.31270889999999, "care_type": "OB-GYN"}, {"name": "Jennifer Bickhaus, MD", "address": "1031 Bellevue Ave Suite 200, St. Louis, MO 63117", "city": "St. Louis", "phone": "+1 314-617-3500", "website": "https://www.getcare.ssmhealth.com/find-a-doctor/doctor-details/jennifer-bickhaus-md", "rating": null, "reviews": 0, "place_id": "ChIJ1zbkQ8TL2IcRqOQ_BR0Yo6w", "latitude": 38.6331399, "longitude": -90.3134343, "care_type": "OB-GYN"}, {"name": "Janet Matuszek, DO", "address": "209 1st Executive Ave, St Peters, MO 63376", "city": "St Peters", "phone": "+1 636-936-8777", "website": "https://wcs-stl.com/", "rating": 4.1, "reviews": 14, "place_id": "ChIJ5YLHLj8o34cReObI14n_k2o", "latitude": 38.7933279, "longitude": -90.5839591, "care_type": "OB-GYN"}, {"name": "Laura Niboh, WHNP", "address": "1110 Highlands Plaza Dr #280, St. Louis, MO 63110", "city": "St. Louis", "phone": "+1 314-286-2620", "website": "https://www.bjc.org/provider/laura-niboh-whnp/1225827793%3Futm_source%3Dyext%26utm_medium%3Dlocal_listing%26utm_campaign%3Dyext_listing", "rating": null, "reviews": 0, "place_id": "ChIJOQ_REW612IcRx1ragoUKPoY", "latitude": 38.6284663, "longitude": -90.28204149999999, "care_type": "OB-GYN"}, {"name": "Halley L Staples, MD", "address": "1110 Highlands Plaza Dr #280, St. Louis, MO 63110", "city": "St. Louis", "phone": "+1 314-286-2620", "website": "https://www.bjc.org/provider/halley-staples-1407471667%3Futm_source%3Dyext%26utm_medium%3Dlocal_listing%26utm_campaign%3Dyext_listing", "rating": 4.3, "reviews": 6, "place_id": "ChIJA8s-34O12IcRgjcaYCPd8KE", "latitude": 38.6284663, "longitude": -90.28204149999999, "care_type": "OB-GYN"}, {"name": "Dr. Jessica Despotovic", "address": "6763 Page Ave, St. Louis, MO 63133", "city": "St. Louis", "phone": "+1 314-814-8553", "website": "https://affiniahealthcare.org/page-avenue-location/", "rating": null, "reviews": 0, "place_id": "ChIJVVWF4Gc134cRfb-wX5MRARY", "latitude": 38.6748163, "longitude": -90.3087941, "care_type": "OB-GYN"}, {"name": "Patrick Yeung", "address": "1031 Bellevue Ave #400, St. Louis, MO 631171858", "city": "St. Louis", "phone": "+1 314-977-7455", "website": "", "rating": null, "reviews": 0, "place_id": "ChIJ23tGw73K2IcR4m5yZiih31s", "latitude": 38.6331676, "longitude": -90.3130462, "care_type": "OB-GYN"}, {"name": "Dr. Robert J. Blaskiewicz, MD", "address": "1031 Bellevue Ave #400, St. Louis, MO 63117", "city": "St. Louis", "phone": "+1 314-781-4772", "website": "", "rating": null, "reviews": 0, "place_id": "ChIJQ8vzvL3K2IcR5oEAX4OpEko", "latitude": 38.63295, "longitude": -90.31324, "care_type": "OB-GYN"}, {"name": "Kenisha Bryant, WHNP", "address": "1035 Bellevue Ave #212, St. Louis, MO 63117", "city": "St. Louis", "phone": "+1 314-768-8780", "website": "https://www.getcare.ssmhealth.com/find-a-doctor/doctor-details/kenisha-bryant-whnp%3Futm_id%3Dsys-listings-1%26linksource%3Dsys_listing_links-gmb_listing%26y_source%3D1_MzEwMDc3NTgtNzE1LWxvY2F0aW9uLndlYnNpdGU%253D", "rating": 4.9, "reviews": 31, "place_id": "ChIJd2s6WmIv34cRHZ4t1cs8-CI", "latitude": 38.6326942, "longitude": -90.31270889999999, "care_type": "OB-GYN"}, {"name": "Dr. Kenton Bruice, MD | St. Louis Hormone Therapy | St. Louis Weight Loss", "address": "9909 Clayton Rd Suite 225, St. Louis, MO 63124", "city": "St. Louis", "phone": "+1 314-222-7567", "website": "https://kentonbruicemd.com/about-kenton-bruice-md/%3Futm_source%3DGBPStLouisKentonEprompt", "rating": 5.0, "reviews": 4, "place_id": "ChIJO_wlZDXN2IcRPcsGxvmD0UY", "latitude": 38.6378235, "longitude": -90.3926348, "care_type": "OB-GYN"}, {"name": "Mercy Clinic OB/Gyn - Medical Tower B Suite 4017", "address": "621 S New Ballas Rd Tower B Suite 4017-B, St. Louis, MO 63141", "city": "St. Louis", "phone": "+1 314-872-9192", "website": "https://www.mercy.net/practice/mercy-clinic-obgyn-medical-tower-b-suite-4017%3Futm_source%3Dgoogle%26utm_medium%3Dorganic_search%26utm_campaign%3Dyext%26utm_term%3DEast%26utm_content%3Dwebsite%26y_source%3D1_MTI5OTU1MzktNzE1LWxvY2F0aW9uLndlYnNpdGU%253D", "rating": 3.3, "reviews": 22, "place_id": "ChIJXeSOMFHN2IcRJeRUQN39KrE", "latitude": 38.6453633, "longitude": -90.445979, "care_type": "OB-GYN"}, {"name": "SLUCare Physician Group", "address": "1031 Bellevue Ave Suites 200 & 400, St. Louis, MO 63117", "city": "St. Louis", "phone": "+1 314-617-3500", "website": "https://www.getcare.ssmhealth.com/locations/location-details/slucare-physician-group-obgyn-1031-bellevue%3Fy_source%3D1_MTAwNTU5MjQxNy03MTUtbG9jYXRpb24ud2Vic2l0ZQ%253D%253D", "rating": null, "reviews": 0, "place_id": "ChIJJ3W0AUbL2IcR2OOYzAOVPtI", "latitude": 38.6330238, "longitude": -90.3134085, "care_type": "OB-GYN"}, {"name": "Dr. Diana Gray", "address": "216 S Kingshighway Blvd, St. Louis, MO 63110", "city": "St. Louis", "phone": "+1 314-362-5641", "website": "https://physicians.wustl.edu/people/diana-lee-gray-md/", "rating": null, "reviews": 0, "place_id": "ChIJQ3B-4ia12IcRcsbpowFA0jI", "latitude": 38.638751, "longitude": -90.26436799999999, "care_type": "OB-GYN"}, {"name": "Mercy Clinic Women's Health - Medical Tower A Suite 499", "address": "621 S New Ballas Rd Tower A Suite 499A, St. Louis, MO 63141", "city": "St. Louis", "phone": "+1 314-251-7477", "website": "https://www.mercy.net/practice/mercy-clinic-womens-health-medical-tower-a-suite-499%3Futm_source%3Dgoogle%26utm_medium%3Dorganic_search%26utm_campaign%3Dyext%26utm_term%3DEast%26utm_content%3Dwebsite%26y_source%3D1_MTI5OTU1MzUtNzE1LWxvY2F0aW9uLndlYnNpdGU%253D", "rating": 4.8, "reviews": 5, "place_id": "ChIJ_QTqjFDN2IcRee1SQ7h3g2o", "latitude": 38.6450611, "longitude": -90.4463498, "care_type": "OB-GYN"}, {"name": "Martin Kimberly A MD", "address": "216 S Kingshighway Blvd, St. Louis, MO 63110", "city": "St. Louis", "phone": "+1 314-362-8486", "website": "", "rating": null, "reviews": 0, "place_id": "ChIJQ3B-4ia12IcRZc8jK3CQH4U", "latitude": 38.6388391, "longitude": -90.2648651, "care_type": "OB-GYN"}, {"name": "Hahn Ob/Gyn Associates", "address": "1035 Bellevue Ave #320, St. Louis, MO 63117", "city": "St. Louis", "phone": "+1 314-644-3288", "website": "https://hahnobgyn.com/", "rating": 5.0, "reviews": 4, "place_id": "ChIJkSsA3b3K2IcRLFKYfa2YENQ", "latitude": 38.6327105, "longitude": -90.312812, "care_type": "OB-GYN"}, {"name": "Dr. Yoram Hahn, MD", "address": "1035 Bellevue Ave # 211, St. Louis, MO 63117", "city": "St. Louis", "phone": "+1 314-644-3288", "website": "", "rating": 5.0, "reviews": 1, "place_id": "ChIJkSsA3b3K2IcRx3mychiw-KI", "latitude": 38.6326929, "longitude": -90.3127635, "care_type": "OB-GYN"}, {"name": "Dr. Emanuel Vlastos", "address": "1031 Bellevue Ave #400, St. Louis, MO 63117", "city": "St. Louis", "phone": "+1 314-781-7455", "website": "", "rating": null, "reviews": 0, "place_id": "ChIJ23tGw73K2IcR5d4HXOtYx7U", "latitude": 38.6331676, "longitude": -90.3130462, "care_type": "OB-GYN"}, {"name": "BJC Medical Group Midwifery at Ladue", "address": "8888 Ladue Rd Suite 220, St. Louis, MO 63124", "city": "St. Louis", "phone": "+1 314-996-3531", "website": "https://www.bjcmedicalgroup.org/Find-a-Location/BJC-Medical-Group-Midwifery-at-Ladue%3Futm_source%3Dextnet%26utm_medium%3Dorganic%26utm_campaign%3Dyext", "rating": 5.0, "reviews": 2, "place_id": "ChIJeUPC4ijL2IcRcaXpT-t5GUs", "latitude": 38.6512524, "longitude": -90.35156769999999, "care_type": "OB-GYN"}, {"name": "Physicians for Women OB/GYN", "address": "1000 E Primrose St, Springfield, MO 65807", "city": "Springfield", "phone": "+1 417-269-6850", "website": "https://www.coxhealth.com/services/womens-health/", "rating": 3.3, "reviews": 29, "place_id": "ChIJvfB3GcBkz4cRPocfSdQfJV0", "latitude": 37.1458033, "longitude": -93.28124009999999, "care_type": "OB-GYN"}, {"name": "Ferrell-Duncan Clinic: Obstetrics and Gynecology", "address": "1000 E Primrose St, Springfield, MO 65807", "city": "Springfield", "phone": "+1 417-269-7900", "website": "https://www.coxhealth.com/services/womens-health/", "rating": 3.4, "reviews": 17, "place_id": "ChIJNbND2ZRkz4cRhYMXVhyVjvM", "latitude": 37.1458222, "longitude": -93.28117809999999, "care_type": "OB-GYN"}, {"name": "Springfield OB/GYN LLC | Matthew Ting MD, FACOG", "address": "909 E Montclair St #120, Springfield, MO 65807", "city": "Springfield", "phone": "+1 417-882-4466", "website": "https://www.springfieldobgyn.com/", "rating": 4.2, "reviews": 130, "place_id": "ChIJ17P5g5lkz4cRXHMbVGQx0kw", "latitude": 37.1580941, "longitude": -93.2829828, "care_type": "OB-GYN"}, {"name": "CoxHealth Primrose OB/GYN", "address": "1000 E Primrose St, Springfield, MO 65807", "city": "Springfield", "phone": "+1 417-882-6900", "website": "https://www.coxhealth.com/services/womens-health/", "rating": 2.5, "reviews": 40, "place_id": "ChIJkfNc2ZRkz4cRBUlMK7TiA2E", "latitude": 37.1458033, "longitude": -93.28124009999999, "care_type": "OB-GYN"}, {"name": "Mercy Clinic OB/GYN - Smith Glynn Callaway", "address": "3231 S National Ave Suite 250, Springfield, MO 65807", "city": "Springfield", "phone": "+1 417-885-0827", "website": "https://www.mercy.net/practice/mercy-clinic-obgyn-smith-glynn-callaway%3Futm_source%3Dgoogle%26utm_medium%3Dorganic_search%26utm_campaign%3Dyext%26utm_term%3DCentral%26utm_content%3Dwebsite%26y_source%3D1_MTI5OTU1ODUtNzE1LWxvY2F0aW9uLndlYnNpdGU%253D", "rating": 3.6, "reviews": 49, "place_id": "ChIJd5B785dkz4cRS9xcUgZXBTM", "latitude": 37.1554578, "longitude": -93.27952739999999, "care_type": "OB-GYN"}, {"name": "Mary Therese Duff, MD", "address": "1000 E Primrose St, Springfield, MO 65807", "city": "Springfield", "phone": "+1 417-269-7900", "website": "https://doctors.coxhealth.com/provider/Mary%2BTherese%2BDuff/913319", "rating": 4.8, "reviews": 24, "place_id": "ChIJNbND2ZRkz4cRnHpRa0rxofc", "latitude": 37.1458033, "longitude": -93.28124009999999, "care_type": "OB-GYN"}, {"name": "Mercy Clinic OB/GYN - S. Fremont Suite 270", "address": "1965 S Fremont Ave # 270, Springfield, MO 65804", "city": "Springfield", "phone": "+1 417-820-3890", "website": "https://www.mercy.net/practice/mercy-clinic-obgyn-s-fremont-suite-270%3Futm_source%3Dgoogle%26utm_medium%3Dorganic_search%26utm_campaign%3Dyext%26utm_term%3DCentral%26utm_content%3Dwebsite%26y_source%3D1_MTI5OTU3NzAtNzE1LWxvY2F0aW9uLndlYnNpdGU%253D", "rating": 3.4, "reviews": 37, "place_id": "ChIJVUV_6ERjz4cR4u7XZPBtv-4", "latitude": 37.179104, "longitude": -93.272258, "care_type": "OB-GYN"}, {"name": "The Woman's Clinic", "address": "1135 E Lakewood St # 112, Springfield, MO 65810", "city": "Springfield", "phone": "+1 417-887-5500", "website": "http://www.womansclinic.net/", "rating": 4.9, "reviews": 282, "place_id": "ChIJKZnOv-Bkz4cR6ynArXAfBEE", "latitude": 37.1276319, "longitude": -93.2796788, "care_type": "OB-GYN"}, {"name": "Barbara Ellen Wotherspoon, MD", "address": "1965 S Fremont Ave # 270, Springfield, MO 65804", "city": "Springfield", "phone": "+1 417-820-3890", "website": "https://www.mercy.net/doctor/barbara-ellen-wotherspoon-md%3Futm_source%3Dgoogle%26utm_medium%3Dorganic_search%26utm_campaign%3Dyext%26utm_term%3DCentral%26utm_content%3Dwebsite%26y_source%3D1_MTMwMDA2ODQtNzE1LWxvY2F0aW9uLndlYnNpdGU%253D", "rating": 3.6, "reviews": 49, "place_id": "ChIJP7g-6ERjz4cR6_ctJqjqcII", "latitude": 37.1791048, "longitude": -93.2721925, "care_type": "OB-GYN"}, {"name": "Juliette A. Gibbons, MD", "address": "2135 S Fremont Ave Suite 2nd Floor, Springfield, MO 65804", "city": "Springfield", "phone": "+1 417-820-3709", "website": "https://www.mercy.net/doctor/juliette-a-gibbons-md%3Futm_source%3Dgoogle%26utm_medium%3Dorganic_search%26utm_campaign%3Dyext%26utm_term%3DCentral%26utm_content%3Dwebsite%26y_source%3D1_MTI5OTk2OTctNzE1LWxvY2F0aW9uLndlYnNpdGU%253D", "rating": 3.9, "reviews": 30, "place_id": "ChIJP7g-6ERjz4cRP4DY6L_bs2w", "latitude": 37.1749958, "longitude": -93.2727443, "care_type": "OB-GYN"}, {"name": "Mercy Clinic OB/GYN - Seminole-Fremont", "address": "2135 S Fremont Ave Suite 2nd Floor, Springfield, MO 65804", "city": "Springfield", "phone": "+1 417-820-3709", "website": "https://www.mercy.net/practice/mercy-clinic-obgyn-seminole-fremont%3Futm_source%3Dgoogle%26utm_medium%3Dorganic_search%26utm_campaign%3Dyext%26utm_term%3DCentral%26utm_content%3Dwebsite%26y_source%3D1_MTM4NTk5NDAtNzE1LWxvY2F0aW9uLndlYnNpdGU%253D", "rating": 4.3, "reviews": 6, "place_id": "ChIJqRdsR7Fjz4cRURG4303_pyA", "latitude": 37.1749958, "longitude": -93.2727443, "care_type": "OB-GYN"}, {"name": "Christina L. Litherland, MD", "address": "1965 S Fremont Ave Suite 270, Springfield, MO 65804", "city": "Springfield", "phone": "+1 417-820-3890", "website": "https://www.mercy.net/doctor/christina-l-litherland-md%3Futm_source%3Dgoogle%26utm_medium%3Dorganic_search%26utm_campaign%3Dyext%26utm_term%3DCentral%26utm_content%3Dwebsite%26y_source%3D1_MTMwMDA4NDUtNzE1LWxvY2F0aW9uLndlYnNpdGU%253D", "rating": 4.1, "reviews": 20, "place_id": "ChIJpTw1k0Rjz4cRZINjQIOUgJk", "latitude": 37.179104, "longitude": -93.272258, "care_type": "OB-GYN"}, {"name": "Tama Lynn Franklin, MD", "address": "1000 E Primrose St, Springfield, MO 65807", "city": "Springfield", "phone": "+1 417-269-6850", "website": "https://doctors.coxhealth.com/provider/Tama%2BLynn%2BFranklin/913579", "rating": 3.9, "reviews": 25, "place_id": "ChIJvfB3GcBkz4cR1ZiK3MR3ME8", "latitude": 37.1458033, "longitude": -93.28124009999999, "care_type": "OB-GYN"}, {"name": "Holly Bolger, DO", "address": "3231 S National Ave Suite 250, Springfield, MO 65807", "city": "Springfield", "phone": "+1 800-777-8442", "website": "https://uihc.org/holly-bolger", "rating": 5.0, "reviews": 2, "place_id": "ChIJuSRfRWtlz4cRhaXZU_K2deo", "latitude": 37.1554578, "longitude": -93.27952739999999, "care_type": "OB-GYN"}, {"name": "Scott Michael Ballmann, MD", "address": "1000 E Primrose St, Springfield, MO 65807", "city": "Springfield", "phone": "+1 417-269-7900", "website": "https://doctors.coxhealth.com/provider/Scott%2BMichael%2BBallmann/913245", "rating": 4.4, "reviews": 17, "place_id": "ChIJs5cq8hdlz4cRGQI16B864-g", "latitude": 37.1458033, "longitude": -93.28124009999999, "care_type": "OB-GYN"}, {"name": "Darren L. Lehnert, MD", "address": "1965 S Fremont Ave # 270, Springfield, MO 65804", "city": "Springfield", "phone": "+1 417-820-3890", "website": "https://www.mercy.net/doctor/darren-l-lehnert-md%3Futm_source%3Dgoogle%26utm_medium%3Dorganic_search%26utm_campaign%3Dyext%26utm_term%3DCentral%26utm_content%3Dwebsite%26y_source%3D1_MTI5OTk5ODAtNzE1LWxvY2F0aW9uLndlYnNpdGU%253D", "rating": 4.0, "reviews": 27, "place_id": "ChIJP7g-6ERjz4cRGMpPnpMw3XE", "latitude": 37.179104, "longitude": -93.272258, "care_type": "OB-GYN"}, {"name": "Jennifer Lee Wolf, MD", "address": "3231 S National Ave Suite 250, Springfield, MO 65807", "city": "Springfield", "phone": "+1 417-885-0827", "website": "https://www.mercy.net/doctor/jennifer-lee-wolf-md%3Futm_source%3Dgoogle%26utm_medium%3Dorganic_search%26utm_campaign%3Dyext%26utm_term%3DCentral%26utm_content%3Dwebsite%26y_source%3D1_MTI5OTg4NzAtNzE1LWxvY2F0aW9uLndlYnNpdGU%253D", "rating": 3.4, "reviews": 20, "place_id": "ChIJd5RulGFlz4cRSgKP3_WW27k", "latitude": 37.1554578, "longitude": -93.27952739999999, "care_type": "OB-GYN"}, {"name": "Southwestern Women's Health", "address": "1000 E Primrose St, Springfield, MO 65807", "city": "Springfield", "phone": "+1 417-269-7600", "website": "", "rating": 5.0, "reviews": 1, "place_id": "ChIJAQBA2ZRkz4cR7KRcoeV7QyY", "latitude": 37.1458242, "longitude": -93.28123389999999, "care_type": "OB-GYN"}, {"name": "Thomas M. Shultz, MD", "address": "1000 E Primrose St, Springfield, MO 65807", "city": "Springfield", "phone": "+1 417-882-6900", "website": "", "rating": 4.3, "reviews": 11, "place_id": "ChIJNbND2ZRkz4cRCdRck6yIBdQ", "latitude": 37.1458033, "longitude": -93.28124009999999, "care_type": "OB-GYN"}, {"name": "Geoffery L. Stanczyk, MD", "address": "3231 S National Ave Suite 250, Springfield, MO 65807", "city": "Springfield", "phone": "+1 417-885-0827", "website": "https://www.mercy.net/doctor/geoffery-l-stanczyk-md%3Futm_source%3Dgoogle%26utm_medium%3Dorganic_search%26utm_campaign%3Dyext%26utm_term%3DCentral%26utm_content%3Dwebsite%26y_source%3D1_MTI5OTk0NzItNzE1LWxvY2F0aW9uLndlYnNpdGU%253D", "rating": 3.6, "reviews": 32, "place_id": "ChIJt-gtJCZlz4cRNEj3PO0aGeU", "latitude": 37.1554578, "longitude": -93.27952739999999, "care_type": "OB-GYN"}, {"name": "Family Medical Care Center: Bell Laird A MD", "address": "1423 N Jefferson Ave b100, Springfield, MO 65802", "city": "Springfield", "phone": "+1 417-269-8817", "website": "", "rating": 3.5, "reviews": 2, "place_id": "ChIJl4VuIPJiz4cRrfnSihn2KyM", "latitude": 37.224561, "longitude": -93.2892928, "care_type": "OB-GYN"}, {"name": "Wright Andy J MD", "address": "1911 S National Ave # 408, Springfield, MO 65804", "city": "Springfield", "phone": "+1 417-863-9381", "website": "", "rating": 4.4, "reviews": 11, "place_id": "ChIJvQm2YUJjz4cR0v1-5eWN0TI", "latitude": 37.1799484, "longitude": -93.2772736, "care_type": "OB-GYN"}, {"name": "Mercy Maternal-Fetal Medicine - Springfield Smith Glynn Callaway", "address": "3231 S National Ave #130, Springfield, MO 65807", "city": "Springfield", "phone": "+1 417-888-6735", "website": "https://www.mercy.net/practice/mercy-maternal-fetal-medicine-springfield-smith-glynn-callaway%3Futm_source%3Dgoogle%26utm_medium%3Dorganic_search%26utm_campaign%3Dyext%26utm_term%3D%26utm_content%3Dwebsite%26y_source%3D1_MjA0MTI5OTczMy03MTUtbG9jYXRpb24ud2Vic2l0ZQ%253D%253D", "rating": null, "reviews": 0, "place_id": "ChIJ-dDMlstlz4cRvx5erDbNyxw", "latitude": 37.155525, "longitude": -93.27968489999999, "care_type": "OB-GYN"}, {"name": "Hunter J Bane, MD", "address": "1000 E Primrose St, Springfield, MO 65807", "city": "Springfield", "phone": "+1 417-269-6850", "website": "https://doctors.coxhealth.com/provider/Hunter%2BJ%2BBane/3143629", "rating": 5.0, "reviews": 5, "place_id": "ChIJTSaC1bllz4cRl3LJoGJFTq8", "latitude": 37.1458033, "longitude": -93.28124009999999, "care_type": "OB-GYN"}, {"name": "Jessica Leigh Workman, WHNP", "address": "3231 S National Ave Suite 250, Springfield, MO 65807", "city": "Springfield", "phone": "+1 417-885-0827", "website": "https://www.mercy.net/doctor/jessica-leigh-workman-whnp%3Futm_source%3Dgoogle%26utm_medium%3Dorganic_search%26utm_campaign%3Dyext%26utm_term%3D%26utm_content%3Dwebsite%26y_source%3D1_MTA2NTg0ODM4OS03MTUtbG9jYXRpb24ud2Vic2l0ZQ%253D%253D", "rating": 5.0, "reviews": 1, "place_id": "ChIJw0U-i-5lz4cR69tjf8-pKnM", "latitude": 37.1553855, "longitude": -93.27963179999999, "care_type": "OB-GYN"}, {"name": "Jordan A. McManus, DO", "address": "3231 S National Ave Suite 250, Springfield, MO 65807", "city": "Springfield", "phone": "+1 417-885-0827", "website": "https://www.mercy.net/doctor/jordan-a-mcmanus-do%3Futm_source%3Dgoogle%26utm_medium%3Dorganic_search%26utm_campaign%3Dyext%26utm_term%3D%26utm_content%3Dwebsite%26y_source%3D1_MTA4MDUxNDA0OC03MTUtbG9jYXRpb24ud2Vic2l0ZQ%253D%253D", "rating": 5.0, "reviews": 2, "place_id": "ChIJJxAJjsJlz4cR-SKDPqiKkXo", "latitude": 37.1554001, "longitude": -93.2796635, "care_type": "OB-GYN"}, {"name": "Courtney Gray Wiese, MD", "address": "1000 E Primrose St, Springfield, MO 65807", "city": "Springfield", "phone": "+1 417-269-6850", "website": "https://doctors.coxhealth.com/provider/Courtney%2BGray%2BWiese/913103", "rating": 4.3, "reviews": 12, "place_id": "ChIJ21Gl20xlz4cR5tD4CIammto", "latitude": 37.1458033, "longitude": -93.28124009999999, "care_type": "OB-GYN"}, {"name": "Matthew Allen Weis, MD", "address": "1000 E Primrose St, Springfield, MO 65807", "city": "Springfield", "phone": "+1 417-269-7900", "website": "https://doctors.coxhealth.com/provider/Matthew%2BAllen%2BWeis/913949", "rating": 4.3, "reviews": 52, "place_id": "ChIJNbND2ZRkz4cR_LD2Q1xSRZk", "latitude": 37.1458033, "longitude": -93.28124009999999, "care_type": "OB-GYN"}, {"name": "Dr. Michael P. Smith-O'brien, MD", "address": "3231 S National Ave Suite 250, Springfield, MO 65807", "city": "Springfield", "phone": "", "website": "https://www.mercy.net/newsroom/2011-10-25/pondering-parenthood-mercy-can-help", "rating": 5.0, "reviews": 3, "place_id": "ChIJd5B785dkz4cRWGW9Da0xfF4", "latitude": 37.1554578, "longitude": -93.27952739999999, "care_type": "OB-GYN"}, {"name": "Dr. Juliette Gibbons", "address": "1965 S Fremont Ave, Springfield, MO 65804", "city": "Springfield", "phone": "+1 417-820-3500", "website": "https://www.mercy.net/doctor/juliette-a-gibbons-md/", "rating": 3.7, "reviews": 3, "place_id": "ChIJ967zkkRjz4cR4bcaIwVy9fk", "latitude": 37.1791758, "longitude": -93.2723235, "care_type": "OB-GYN"}, {"name": "Ashley D Valenzuela, DO", "address": "3850 S National Ave, Springfield, MO 65807", "city": "Springfield", "phone": "+1 417-875-3065", "website": "https://doctors.coxhealth.com/provider/Ashley%2BD%2BValenzuela/3184530", "rating": 5.0, "reviews": 2, "place_id": "ChIJK7M7vT1lz4cR6vH6zDt01Yk", "latitude": 37.1449651, "longitude": -93.277264, "care_type": "OB-GYN"}, {"name": "Shanon Marie Tuter, DO, FACOOG", "address": "3231 S National Ave Suite 250, Springfield, MO 65807", "city": "Springfield", "phone": "+1 417-885-0827", "website": "https://www.mercy.net/doctor/shanon-marie-tuter-do-facoog%3Futm_source%3Dgoogle%26utm_medium%3Dorganic_search%26utm_campaign%3Dyext%26utm_term%3DCentral%26utm_content%3Dwebsite%26y_source%3D1_MTI5OTk5MzEtNzE1LWxvY2F0aW9uLndlYnNpdGU%253D", "rating": 3.4, "reviews": 12, "place_id": "ChIJnzdCRL1kz4cRoCoYpn4nfbg", "latitude": 37.1552023, "longitude": -93.2795699, "care_type": "OB-GYN"}, {"name": "Kristy Ann McCall, MD", "address": "1000 E Primrose St, Springfield, MO 65807", "city": "Springfield", "phone": "+1 417-269-7900", "website": "https://doctors.coxhealth.com/provider/Kristy%2BAnn%2BMcCall/913844", "rating": 3.5, "reviews": 23, "place_id": "ChIJNbND2ZRkz4cRdJS_tl_BC9E", "latitude": 37.1458033, "longitude": -93.28124009999999, "care_type": "OB-GYN"}, {"name": "Karleen King, FNP-BC", "address": "1000 E Primrose St, Springfield, MO 65807", "city": "Springfield", "phone": "+1 417-269-6850", "website": "https://doctors.coxhealth.com/provider/Karleen%2BKing/2536193", "rating": 5.0, "reviews": 1, "place_id": "ChIJMQkVs8Jlz4cRIwdfhPC6NTs", "latitude": 37.1458033, "longitude": -93.28124009999999, "care_type": "OB-GYN"}, {"name": "Dr. Laura B. Luehr, MD", "address": "1235 E Cherokee St, Springfield, MO 65804", "city": "Springfield", "phone": "+1 417-820-3890", "website": "http://www.mercy.net/", "rating": 5.0, "reviews": 8, "place_id": "ChIJu1M0nUNjz4cRVf8c0JBkEfU", "latitude": 37.1799869, "longitude": -93.274092, "care_type": "OB-GYN"}, {"name": "P. Michael Kidder, DO", "address": "1000 E Primrose St, Springfield, MO 65807", "city": "Springfield", "phone": "+1 417-882-6900", "website": "https://doctors.coxhealth.com/provider/P.%2BMichael%2BKidder/913537", "rating": 4.6, "reviews": 27, "place_id": "ChIJb9GYMNFlz4cR2Bo3tGlgdjk", "latitude": 37.1458033, "longitude": -93.28124009999999, "care_type": "OB-GYN"}, {"name": "D. Cameron Rice, DO", "address": "1000 E Primrose St, Springfield, MO 65807", "city": "Springfield", "phone": "+1 417-882-6900", "website": "https://doctors.coxhealth.com/provider/D.%2BCameron%2BRice/1102702", "rating": 5.0, "reviews": 14, "place_id": "ChIJFULcbXVlz4cRLq9PxyuUb4Y", "latitude": 37.1458033, "longitude": -93.28124009999999, "care_type": "OB-GYN"}, {"name": "Jaime N Lambeth, FNP-BC", "address": "1000 E Primrose St #400, Springfield, MO 65807", "city": "Springfield", "phone": "+1 417-269-7900", "website": "https://doctors.coxhealth.com/provider/jaime-n-lambeth/2603219", "rating": 5.0, "reviews": 2, "place_id": "ChIJ4Rhq4F5lz4cR5Yhr25AIKzE", "latitude": 37.145831, "longitude": -93.2812577, "care_type": "OB-GYN"}, {"name": "Redfern David L MD", "address": "1235 E Cherokee St, Springfield, MO 65804", "city": "Springfield", "phone": "+1 417-820-2554", "website": "", "rating": 5.0, "reviews": 1, "place_id": "ChIJu1M0nUNjz4cRKZrPRMCbbmM", "latitude": 37.1799824, "longitude": -93.2740932, "care_type": "OB-GYN"}, {"name": "Kobbermann Kobby J MD", "address": "1965 S Fremont Ave, Springfield, MO 65804", "city": "Springfield", "phone": "+1 417-820-3550", "website": "", "rating": 3.0, "reviews": 4, "place_id": "ChIJP7g-6ERjz4cRN28ZFQoC4MM", "latitude": 37.1791758, "longitude": -93.2723235, "care_type": "OB-GYN"}, {"name": "Heather R. Hall, DO", "address": "1965 S Fremont Ave # 270, Springfield, MO 65804", "city": "Springfield", "phone": "+1 417-820-3890", "website": "https://www.mercy.net/doctor/heather-r-hall-do%3Futm_source%3Dgoogle%26utm_medium%3Dorganic_search%26utm_campaign%3Dyext%26utm_term%3D%26utm_content%3Dwebsite%26y_source%3D1_MTA4MjEwMDQyMC03MTUtbG9jYXRpb24ud2Vic2l0ZQ%253D%253D", "rating": 5.0, "reviews": 1, "place_id": "ChIJg_vi_ypjz4cRnzJPc61TnGA", "latitude": 37.179104, "longitude": -93.272258, "care_type": "OB-GYN"}, {"name": "Mercy Maternal and Fetal Medicine - S. Fremont", "address": "1965 S Fremont Ave Suite 170, Springfield, MO 65804", "city": "Springfield", "phone": "+1 417-820-3715", "website": "https://www.mercy.net/practice/mercy-maternal-and-fetal-medicine-s-fremont%3Futm_source%3Dgoogle%26utm_medium%3Dorganic_search%26utm_campaign%3Dyext%26utm_term%3DCentral%26utm_content%3Dwebsite%26y_source%3D1_MTI5OTU4MTgtNzE1LWxvY2F0aW9uLndlYnNpdGU%253D", "rating": 3.6, "reviews": 8, "place_id": "ChIJP7g-6ERjz4cR9dTCsKSd3lQ", "latitude": 37.1791758, "longitude": -93.2723235, "care_type": "OB-GYN"}, {"name": "Dr. Rachel Archer", "address": "1443 N Robberson Ave, Springfield, MO 65802", "city": "Springfield", "phone": "+1 417-851-1551", "website": "https://doctors.coxhealth.com/provider/rachel-marie-archer/913058", "rating": 1.0, "reviews": 2, "place_id": "ChIJAQDAd_Fiz4cRTJFvon7fm-w", "latitude": 37.22413969999999, "longitude": -93.2911402, "care_type": "OB-GYN"}, {"name": "Daphne R. LeMon, MD", "address": "1000 E Primrose St, Springfield, MO 65807", "city": "Springfield", "phone": "+1 417-269-7900", "website": "https://doctors.coxhealth.com/provider/Daphne%2BR.%2BLeMon/913545", "rating": 2.7, "reviews": 29, "place_id": "ChIJNbND2ZRkz4cR7Ewb9nTTO00", "latitude": 37.1458033, "longitude": -93.28124009999999, "care_type": "OB-GYN"}, {"name": "Wright Andy MD", "address": "2828 N National Ave G, Springfield, MO 65803", "city": "Springfield", "phone": "+1 417-837-4079", "website": "", "rating": 5.0, "reviews": 1, "place_id": "ChIJDzra6aZiz4cRms6NUS2j1z0", "latitude": 37.248592, "longitude": -93.272171, "care_type": "OB-GYN"}, {"name": "Dr. Marcus D. Mccorcle, MD", "address": "1000 E Primrose St # 270, Springfield, MO 65807", "city": "Springfield", "phone": "+1 417-882-6900", "website": "https://doctors.coxhealth.com/provider/Marcus%2BDuane%2BMcCorcle/913520", "rating": 3.7, "reviews": 3, "place_id": "ChIJNbND2ZRkz4cR3g0RjrkwKLk", "latitude": 37.1458377, "longitude": -93.2812816, "care_type": "OB-GYN"}, {"name": "Randy Hill, MD", "address": "1000 E Primrose St #400, Springfield, MO 65807", "city": "Springfield", "phone": "+1 417-269-7900", "website": "", "rating": 2.7, "reviews": 19, "place_id": "ChIJNbND2ZRkz4cRaBksQBWDMF0", "latitude": 37.1458242, "longitude": -93.28123389999999, "care_type": "OB-GYN"}, {"name": "Marcia Lynn Hernandez, DO", "address": "2115 S Fremont Ave Suite 1100, Springfield, MO 65804", "city": "Springfield", "phone": "+1 417-820-3554", "website": "https://www.mercy.net/doctor/marcia-lynn-hernandez-do%3Futm_source%3Dgoogle%26utm_medium%3Dorganic_search%26utm_campaign%3Dyext%26utm_term%3DCentral%26utm_content%3Dwebsite%26y_source%3D1_MTI5OTg0ODItNzE1LWxvY2F0aW9uLndlYnNpdGU%253D", "rating": 4.6, "reviews": 9, "place_id": "ChIJRdylVlBjz4cRrOKee_pAUEo", "latitude": 37.1756011, "longitude": -93.2723726, "care_type": "OB-GYN"}, {"name": "Dr. Kathryne R. Derrough, MD", "address": "3850 S National Ave # 400, Springfield, MO 65807", "city": "Springfield", "phone": "+1 417-269-6850", "website": "http://coxhealth.com/", "rating": 4.0, "reviews": 4, "place_id": "ChIJvfB3GcBkz4cRmm7FwuV8qRQ", "latitude": 37.1449057, "longitude": -93.2772876, "care_type": "OB-GYN"}, {"name": "Faith Robin Jones, FNP", "address": "1965 S Fremont Ave # 270, Springfield, MO 65804", "city": "Springfield", "phone": "+1 417-820-3890", "website": "https://www.mercy.net/doctor/faith-robin-jones-fnp%3Futm_source%3Dgoogle%26utm_medium%3Dorganic_search%26utm_campaign%3Dyext%26utm_term%3DCentral%26utm_content%3Dwebsite%26y_source%3D1_MTI5OTk2MjAtNzE1LWxvY2F0aW9uLndlYnNpdGU%253D", "rating": 5.0, "reviews": 2, "place_id": "ChIJ26rUCx5jz4cRvbJ2TLSZ-bk", "latitude": 37.179104, "longitude": -93.272258, "care_type": "OB-GYN"}, {"name": "Cynthia Lynn Armstrong, DNP", "address": "3800 S National Ave, Springfield, MO 65807", "city": "Springfield", "phone": "+1 417-269-8817", "website": "https://doctors.coxhealth.com/provider/Cynthia%2BLynn%2BArmstrong/913957", "rating": 3.2, "reviews": 11, "place_id": "ChIJS1VerFNjz4cRomuVWPSCo4Y", "latitude": 37.1457317, "longitude": -93.2770527, "care_type": "OB-GYN"}, {"name": "Gregory Scott Stamps, MD", "address": "1000 E Primrose St, Springfield, MO 65807", "city": "Springfield", "phone": "+1 417-882-6900", "website": "", "rating": 4.6, "reviews": 28, "place_id": "ChIJNbND2ZRkz4cRFxzCcGa1nEA", "latitude": 37.1458033, "longitude": -93.28124009999999, "care_type": "OB-GYN"},