[{"name": "Helena OB/GYN, PC", "address": "2560 Tracy Dr, Helena, MT 59601", "city": "Helena", "phone": "+1 406-442-1914", "website": "http://obgynoffices.com/", "rating": 4.6, "reviews": 350, "place_id": "ChIJt_bByp5VQ1MRNPTP-kzgwh0", "latitude": 46.580378, "longitude": -111.995251, "care_type": "OB-GYN"}, {"name": "Drew Malany, MD", "address": "45 Medical Park Dr, Helena, MT 59601", "city": "Helena", "phone": "+1 406-442-1914", "website": "https://obgynoffices.com/helena-obgyn-staff/", "rating": 5.0, "reviews": 64, "place_id": "ChIJe1sHpm1VQ1MREUcmfgikSX4", "latitude": 46.5804368, "longitude": -111.9951135, "care_type": "OB-GYN"}, {"name": "Alexis O'Leary, DO", "address": "2560 Tracy Dr, Helena, MT 59601", "city": "Helena", "phone": "+1 406-442-1914", "website": "https://obgynoffices.com/", "rating": 4.0, "reviews": 8, "place_id": "ChIJ11dFNZlVQ1MRrzO4kfNHQE8", "latitude": 46.5804271, "longitude": -111.9951452, "care_type": "OB-GYN"}, {"name": "Jessica Parson, MD", "address": "2560 Tracy Dr, Helena, MT 59601", "city": "Helena", "phone": "+1 406-442-1914", "website": "https://obgynoffices.com/", "rating": 4.3, "reviews": 6, "place_id": "ChIJ11dFNZlVQ1MR1f4S741sK6M", "latitude": 46.5804271, "longitude": -111.9951452, "care_type": "OB-GYN"}, {"name": "Great Falls OB-GYN Associates", "address": "1400 29th St S #101, Great Falls, MT 59405", "city": "Great Falls", "phone": "+1 406-761-7924", "website": "https://greatfallsobgyn.com/", "rating": 3.6, "reviews": 56, "place_id": "ChIJvaAFlMU3QlMR3n9cfR7HBME", "latitude": 47.490748, "longitude": -111.2581399, "care_type": "OB-GYN"}, {"name": "Stephanie Bryant, DO, FACOG", "address": "4506, 1400 29th St S #101, Great Falls, MT 59405", "city": "Great Falls", "phone": "+1 406-761-7924", "website": "https://gfobgyn.com/about-us/physicians/%23bryant", "rating": 2.6, "reviews": 15, "place_id": "ChIJcaA1lcU3QlMR4PRkJameb3Q", "latitude": 47.4906, "longitude": -111.2583969, "care_type": "OB-GYN"}, {"name": "Amanda Henzel, MD, FACOG", "address": "1400 29th St S #101, Great Falls, MT 59405", "city": "Great Falls", "phone": "+1 406-761-7924", "website": "https://gfobgyn.com/about-us/physicians/%23henzel", "rating": 4.6, "reviews": 7, "place_id": "ChIJVVVVVa43QlMRD2eej5Yg0gQ", "latitude": 47.4905435, "longitude": -111.2583543, "care_type": "OB-GYN"}, {"name": "Alyson Miser, MD, FACOG", "address": "Suite 101, 5353, 1400 29th St S, Great Falls, MT 59405", "city": "Great Falls", "phone": "+1 406-731-8888", "website": "https://greatfallsobgyn.com/about-us/alyson-miser-md-facog/", "rating": 3.9, "reviews": 14, "place_id": "ChIJ2cCiHa83QlMRTnOvMncRR9g", "latitude": 47.4908335, "longitude": -111.2633782, "care_type": "OB-GYN"}, {"name": "Daren J. Braget, MD, FACOG", "address": "1400 29th St S #101, Great Falls, MT 59405", "city": "Great Falls", "phone": "+1 406-761-7924", "website": "http://www.gfobgyn.com/", "rating": 4.3, "reviews": 11, "place_id": "ChIJedm-E6k3QlMRHGF0afvSJ2Y", "latitude": 47.4905997, "longitude": -111.2583974, "care_type": "OB-GYN"}, {"name": "Julie Kuykendall, MD, FACOG", "address": "1400 29th St S, Great Falls, MT 59405", "city": "Great Falls", "phone": "+1 406-731-8017", "website": "", "rating": 4.5, "reviews": 8, "place_id": "ChIJAQAAAMU3QlMRASjc3MluYqE", "latitude": 47.4905997, "longitude": -111.2583974, "care_type": "OB-GYN"}, {"name": "Sandra Bailey, DO, FACOG", "address": "1400 29th St S #101, Great Falls, MT 59405", "city": "Great Falls", "phone": "+1 406-761-7924", "website": "https://gfobgyn.com/about-us/physicians/%23bailey", "rating": 3.7, "reviews": 6, "place_id": "ChIJvaAFlMU3QlMRmBxI-YjQ_Gk", "latitude": 47.4905997, "longitude": -111.2583974, "care_type": "OB-GYN"}, {"name": "Dr. Melissa Papp", "address": "1401 25th St S, Great Falls, MT 59405", "city": "Great Falls", "phone": "+1 406-731-8017", "website": "https://www.benefis.org/find-a-provider/profile/melissa-papp/", "rating": 4.2, "reviews": 5, "place_id": "ChIJq6qqGa83QlMRVnDKOVyxfj0", "latitude": 47.4909924, "longitude": -111.2634047, "care_type": "OB-GYN"}, {"name": "Mark Miles", "address": "1400 29th St S #101, Great Falls, MT 59405", "city": "Great Falls", "phone": "+1 406-761-7924", "website": "https://greatfallsobgyn.com/about-us/mark-miles-m-d-f-a-c-o-g/", "rating": 5.0, "reviews": 1, "place_id": "ChIJ6YJCEak3QlMRMMaZXfOzRBQ", "latitude": 47.4905716, "longitude": -111.2583761, "care_type": "OB-GYN"}, {"name": "Benefis Women's and Children's Center", "address": "2720 10th Ave S, Great Falls, MT 59405", "city": "Great Falls", "phone": "+1 406-731-8017", "website": "https://www.benefis.org/locations/profile/womens-and-childrens-center/", "rating": 3.3, "reviews": 16, "place_id": "ChIJ67cYvn83QlMRrOe4d2aUsIo", "latitude": 47.4931917, "longitude": -111.2604221, "care_type": "OB-GYN"}, {"name": "Vicki Chapman, DO, FACOG", "address": "1400 29th St S #101, Great Falls, MT 59405", "city": "Great Falls", "phone": "+1 406-761-7924", "website": "https://greatfallsobgyn.com/about-us/vicki-chapman-do-facog/", "rating": 3.2, "reviews": 9, "place_id": "ChIJedm-E6k3QlMRiKAXIm4xtqo", "latitude": 47.4908673, "longitude": -111.2633125, "care_type": "OB-GYN"}, {"name": "Kelsey J. Dressen", "address": "1101 26th St S, Great Falls, MT 59405", "city": "Great Falls", "phone": "+1 800-579-7777", "website": "", "rating": 5.0, "reviews": 2, "place_id": "ChIJRTmMH6k3QlMR6H_ayLcv4uM", "latitude": 47.4911874, "longitude": -111.2594192, "care_type": "OB-GYN"}, {"name": "Kelsey Dressen", "address": "1401 25th St S, Great Falls, MT 59405", "city": "Great Falls", "phone": "+1 406-731-8017", "website": "https://www.benefis.org/find-a-provider/profile/kelsey-dressen/", "rating": 4.0, "reviews": 8, "place_id": "ChIJq6qqGa83QlMRd_RXOTcT3ds", "latitude": 47.4909924, "longitude": -111.2634047, "care_type": "OB-GYN"}, {"name": "Julia Middleton", "address": "1400 29th St S #101, Great Falls, MT 594055316", "city": "Great Falls", "phone": "+1 406-761-7924", "website": "", "rating": 5.0, "reviews": 1, "place_id": "ChIJ6YJCEak3QlMREGjyc3m4cTc", "latitude": 47.4905716, "longitude": -111.2583761, "care_type": "OB-GYN"}, {"name": "Jeffery Palen, DO, FACOOG", "address": "2720 10th Ave S, Great Falls, MT 59405", "city": "Great Falls", "phone": "+1 406-731-8017", "website": "https://www.benefis.org/find-a-provider/find-a-provider%3Fid%3D1157", "rating": 3.3, "reviews": 7, "place_id": "ChIJeyKfG683QlMRDL0JnFZZ0BY", "latitude": 47.4935495, "longitude": -111.2597568, "care_type": "OB-GYN"}, {"name": "Dr. Peter L. Burleigh, MD", "address": "1400 29th St S #2nd, Great Falls, MT 59405", "city": "Great Falls", "phone": "+1 406-454-2171", "website": "", "rating": null, "reviews": 0, "place_id": "ChIJedm-E6k3QlMRXWSndg7E63Q", "latitude": 47.49061649999999, "longitude": -111.258387, "care_type": "OB-GYN"}, {"name": "Chapman Vicki DO", "address": "400 13th Ave S #203, Great Falls, MT 59405", "city": "Great Falls", "phone": "+1 406-455-2705", "website": "", "rating": null, "reviews": 0, "place_id": "ChIJZ6EVSNs3QlMRzmIHCCRcakA", "latitude": 47.48992699999999, "longitude": -111.2998371, "care_type": "OB-GYN"}, {"name": "Lee-Evenson Dorothy MD", "address": "2516 13th Ave S, Great Falls, MT 59405", "city": "Great Falls", "phone": "+1 406-731-8888", "website": "http://www.benefis.org/", "rating": null, "reviews": 0, "place_id": "ChIJedm-E6k3QlMRwbVa8BKU754", "latitude": 47.4914163, "longitude": -111.265069, "care_type": "OB-GYN"}, {"name": "Lee-Evenson Dorothy MD", "address": "400 13th Ave S #203, Great Falls, MT 59405", "city": "Great Falls", "phone": "+1 406-455-2705", "website": "", "rating": null, "reviews": 0, "place_id": "ChIJZ6EVSNs3QlMRi7uCMEvlYtU", "latitude": 47.48992699999999, "longitude": -111.2998371, "care_type": "OB-GYN"}, {"name": "Bozeman OB/GYN", "address": "925 Highland Blvd, Bozeman, MT 59715", "city": "Bozeman", "phone": "+1 406-587-9202", "website": "https://www.billingsclinic.com/care-at-billings-clinic/care-locations-and-directions/location-profile/bozeman-obgyn-wellness-way/%3Futm_source%3Dgmb-providers%26utm_campaign%3Dlocal-listings%26utm_medium%3D74L", "rating": 4.6, "reviews": 139, "place_id": "ChIJx_io4_JERVMRzANCoBE3GMA", "latitude": 45.6699458, "longitude": -111.0196701, "care_type": "OB-GYN"}, {"name": "Bozeman Health Women's Specialists Clinic", "address": "905 Highland Blvd Entrance 8, Suite 4500, Bozeman, MT 59715", "city": "Bozeman", "phone": "+1 406-414-5150", "website": "https://www.bozemanhealth.org/services/womens-health/", "rating": 3.9, "reviews": 31, "place_id": "ChIJs9ji4fJERVMRRpmqKRJpHgY", "latitude": 45.6699578, "longitude": -111.0196731, "care_type": "OB-GYN"}, {"name": "Shelby L Haugan - FACOG, MD - Billings Clinic Bozeman OB/GYN", "address": "Billings Clinic Bozeman, 3905 Wellness Wy, Bozeman, MT 59718", "city": "Bozeman", "phone": "+1 406-587-9202", "website": "https://providers.billingsclinic.com/provider/shelby-l-haugan/2052014%3Futm_source%3Dgmb-providers%26utm_campaign%3Dlocal-listings%26utm_medium%3D1710175120", "rating": 5.0, "reviews": 1, "place_id": "ChIJx_io4_JERVMRmBc3pMCXvm8", "latitude": 45.7212565, "longitude": -111.0780385, "care_type": "OB-GYN"}, {"name": "Jennifer L Yarger - FACOG, MD - Billings Clinic Bozeman OB/GYN", "address": "925 Highland Blvd Suite 1210/1220, Bozeman, MT 59715", "city": "Bozeman", "phone": "+1 406-587-9202", "website": "https://providers.billingsclinic.com/provider/jennifer-l-yarger/2051923%3Futm_source%3Dgmb-providers%26utm_campaign%3Dlocal-listings%26utm_medium%3D1013133123", "rating": 5.0, "reviews": 3, "place_id": "ChIJtWzYpPNERVMRTdxZoS88lcc", "latitude": 45.6698177, "longitude": -111.0200333, "care_type": "OB-GYN"}, {"name": "Bozeman Health Women's Specialists Clinic: Gillis, Shaun J MD", "address": "905 Highland Blvd #4500, Bozeman, MT 59715", "city": "Bozeman", "phone": "+1 406-414-5150", "website": "https://bozemanhealth.org/services/womens-specialists/", "rating": 3.8, "reviews": 10, "place_id": "ChIJvWY1p_NERVMRzdBwimf3OZ4", "latitude": 45.6698537, "longitude": -111.0199372, "care_type": "OB-GYN"}, {"name": "Amy E Korten - FACOG, MD - Billings Clinic Bozeman OB/GYN", "address": "925 Highland Blvd Suite 1210/1220, Bozeman, MT 59715", "city": "Bozeman", "phone": "+1 406-587-9202", "website": "https://providers.billingsclinic.com/provider/amy-e-korten/2052141%3Futm_source%3Dgmb-providers%26utm_campaign%3Dlocal-listings%26utm_medium%3D1649258674", "rating": 4.4, "reviews": 7, "place_id": "ChIJx_io4_JERVMRn1pmB___bx4", "latitude": 45.6698177, "longitude": -111.0200333, "care_type": "OB-GYN"}, {"name": "Bridgercare", "address": "1288 N 14th Ave #201, Bozeman, MT 59715", "city": "Bozeman", "phone": "+1 406-587-0681", "website": "http://www.bridgercare.org/", "rating": 4.9, "reviews": 518, "place_id": "ChIJdwLDs1pERVMR8NbVXy5sQuw", "latitude": 45.6926832, "longitude": -111.0546589, "care_type": "OB-GYN"}, {"name": "Bozeman Deaconess Women's Spec: Nikisch Steve MD", "address": "905 Highland Blvd #4440, Bozeman, MT 59715", "city": "Bozeman", "phone": "+1 406-556-5150", "website": "", "rating": 5.0, "reviews": 1, "place_id": "ChIJs9ji4fJERVMRPhOA3mipiwA", "latitude": 45.6698297, "longitude": -111.0199581, "care_type": "OB-GYN"}, {"name": "Frigg Birth & Wellness", "address": "2135 Charlotte St Suite 1, Bozeman, MT 59718", "city": "Bozeman", "phone": "+1 406-813-1555", "website": "http://www.friggbirth.com/", "rating": 5.0, "reviews": 38, "place_id": "ChIJkYhzeSpFRVMRHKPYRMbmuEc", "latitude": 45.6869915, "longitude": -111.0644936, "care_type": "OB-GYN"}, {"name": "Melissa A. Wolf, MD", "address": "905 Highland Blvd #4440, Bozeman, MT 59715", "city": "Bozeman", "phone": "+1 406-414-5150", "website": "https://www.bozemanhealth.org/provider-directory/providers/melissa-wolf/", "rating": 4.0, "reviews": 2, "place_id": "ChIJs9ji4fJERVMROUUpK7P6EnA", "latitude": 45.6698297, "longitude": -111.0199581, "care_type": "OB-GYN"}, {"name": "Mc Donnell Christene M", "address": "925 Highland Blvd # 1210, Bozeman, MT 59715", "city": "Bozeman", "phone": "+1 406-587-9202", "website": "", "rating": 5.0, "reviews": 1, "place_id": "ChIJx_io4_JERVMRl-b3QfJ0Swo", "latitude": 45.6691547, "longitude": -111.0176192, "care_type": "OB-GYN"}, {"name": "Bozeman Health Women's Specialists Clinic: Drake, Kristen PA-C", "address": "905 Highland Blvd #4500, Bozeman, MT 59715", "city": "Bozeman", "phone": "+1 406-414-5150", "website": "http://www.bozemanhealth.org/", "rating": null, "reviews": 0, "place_id": "ChIJvWY1p_NERVMRDZ-VYT_mT54", "latitude": 45.6698537, "longitude": -111.0199372, "care_type": "OB-GYN"}, {"name": "Shaina Long", "address": "905 Highland Blvd #4500, Bozeman, MT 59715", "city": "Bozeman", "phone": "+1 406-414-2400", "website": "", "rating": 5.0, "reviews": 2, "place_id": "ChIJSVLTo_NERVMRZxOF0AJHXr0", "latitude": 45.6701623, "longitude": -111.0198514, "care_type": "OB-GYN"}, {"name": "Jan Hunt - MD - Billings Clinic Bozeman OBGYN", "address": "3905 Wellness Wy, Bozeman, MT 59718", "city": "Bozeman", "phone": "+1 406-898-1200", "website": "https://providers.billingsclinic.com/provider/jan-hunt/2481118%3Futm_source%3Dgmb-providers%26utm_campaign%3Dlocal-listings%26utm_medium%3D1061", "rating": 2.0, "reviews": 4, "place_id": "ChIJBe0BMVNHRVMRcDTLpTkfUzY", "latitude": 45.7212565, "longitude": -111.0780385, "care_type": "OB-GYN"}, {"name": "Dr. Jami L. Chisdak, MD", "address": "905 Highland Blvd #4440, Bozeman, MT 59715", "city": "Bozeman", "phone": "+1 406-414-5150", "website": "http://www.bozemanhealth.org/", "rating": 3.8, "reviews": 9, "place_id": "ChIJs9ji4fJERVMRTnfMFGyA6p0", "latitude": 45.6698297, "longitude": -111.0199581, "care_type": "OB-GYN"}, {"name": "Dr. Linda Waring", "address": "905 Highland Blvd #4440, Bozeman, MT 59715", "city": "Bozeman", "phone": "+1 406-414-5150", "website": "https://www.bozemanhealth.org/provider-directory/providers/linda-waring/", "rating": 5.0, "reviews": 1, "place_id": "ChIJP8nYpPNERVMRh_DqGtpPgMc", "latitude": 45.6698417, "longitude": -111.0199476, "care_type": "OB-GYN"}, {"name": "Rebecca Fox - DO - Billings Clinic Bozeman OBGYN", "address": "3905 Wellness Wy, Bozeman, MT 59718", "city": "Bozeman", "phone": "+1 406-587-9202", "website": "https://providers.billingsclinic.com/provider/rebecca-g-fox/2051965%3Futm_source%3Dgmb-providers%26utm_campaign%3Dlocal-listings%26utm_medium%3D921", "rating": null, "reviews": 0, "place_id": "ChIJL6WsCglHRVMRRz_3dY513ZY", "latitude": 45.7212565, "longitude": -111.0780385, "care_type": "OB-GYN"}, {"name": "Dr. Adriane Haragan", "address": "915 Highland Blvd, Bozeman, MT 59715", "city": "Bozeman", "phone": "+1 406-414-5000", "website": "", "rating": 5.0, "reviews": 2, "place_id": "ChIJVVVVpfNERVMRdXQce8dcVG4", "latitude": 45.6696882, "longitude": -111.0199131, "care_type": "OB-GYN"}, {"name": "Dr. Alice M. Wong, MD", "address": "925 Highland Blvd Suite 1210, Bozeman, MT 59715", "city": "Bozeman", "phone": "+1 406-587-9202", "website": "http://www.billingsclinic.com/", "rating": 1.0, "reviews": 1, "place_id": "ChIJx_io4_JERVMRreVuA4GwLvQ", "latitude": 45.6682294, "longitude": -111.0190762, "care_type": "OB-GYN"}, {"name": "Marcia Voigt", "address": "905 Highland Blvd #4500, Bozeman, MT 597156903", "city": "Bozeman", "phone": "+1 406-414-5150", "website": "https://www.bozemanhealth.org/provider-directory/providers/marcia-voigt/", "rating": null, "reviews": 0, "place_id": "ChIJSVLTo_NERVMR6h7wcr0sgMQ", "latitude": 45.6701623, "longitude": -111.0198514, "care_type": "OB-GYN"}, {"name": "Dr. Melissa Casper", "address": "1288 N 14th Ave, Bozeman, MT 59715", "city": "Bozeman", "phone": "+1 406-587-0681", "website": "https://bridgercare.org/welcome-dr-melissa-casper/", "rating": null, "reviews": 0, "place_id": "ChIJAQDAhDZERVMREHE-pLVAUYo", "latitude": 45.6926314, "longitude": -111.0543974, "care_type": "OB-GYN"}, {"name": "Big Sky Fertility and Wellness", "address": "1087 Stoneridge Dr # 3, Bozeman, MT 59718", "city": "Bozeman", "phone": "+1 406-518-1887", "website": "http://www.bigskyfertility.com/", "rating": 5.0, "reviews": 31, "place_id": "ChIJE58Tg0hPRVMRCI75JO9wuaQ", "latitude": 45.6904148, "longitude": -111.063644, "care_type": "OB-GYN"}, {"name": "Bozeman Birth Center", "address": "601 W Villard St, Bozeman, MT 59715", "city": "Bozeman", "phone": "+1 406-585-0752", "website": "http://www.bozemanbirthcenter.com/", "rating": 4.7, "reviews": 106, "place_id": "ChIJz7x4Rk5ERVMRj4FSTpUnOPs", "latitude": 45.6831989, "longitude": -111.0452949, "care_type": "OB-GYN"}, {"name": "ZoeCare", "address": "2251 W Kagy Blvd #2, Bozeman, MT 59718", "city": "Bozeman", "phone": "+1 406-586-9444", "website": "https://gotozoe.org/", "rating": 4.3, "reviews": 50, "place_id": "ChIJnZCbWA9FRVMRDlJrI8DVlI0", "latitude": 45.660473, "longitude": -111.067114, "care_type": "OB-GYN"}, {"name": "Alaina Bennett", "address": "905 Highland Blvd #4500, Bozeman, MT 597156903", "city": "Bozeman", "phone": "+1 406-414-5150", "website": "https://bozemanhealth.org/listing/alaina-t-bennett-md-ms-facog/", "rating": null, "reviews": 0, "place_id": "ChIJSVLTo_NERVMReJ2kvvuKIlM", "latitude": 45.6701623, "longitude": -111.0198514, "care_type": "OB-GYN"}, {"name": "Dr. Renee Frederickson", "address": "905 Highland Blvd #4500, Bozeman, MT 59715", "city": "Bozeman", "phone": "+1 406-414-5150", "website": "", "rating": 1.0, "reviews": 1, "place_id": "ChIJSVLTo_NERVMRCxUOIk1qEUo", "latitude": 45.6701623, "longitude": -111.0198514, "care_type": "OB-GYN"}, {"name": "Kristie Bodnar", "address": "905 Highland Blvd #4500, Bozeman, MT 59715", "city": "Bozeman", "phone": "+1 406-414-5150", "website": "https://www.bozemanhealth.org/provider-directory/providers/kristie-bodnar/", "rating": null, "reviews": 0, "place_id": "ChIJSVLTo_NERVMRrtXQgUW_GNQ", "latitude": 45.6701623, "longitude": -111.0198514, "care_type": "OB-GYN"}, {"name": "Brooke Cadwell", "address": "905 Highland Blvd #4440, Bozeman, MT 59715", "city": "Bozeman", "phone": "+1 406-414-5150", "website": "https://www.bozemanhealth.org/provider-directory/providers/brooke-cadwell/", "rating": 5.0, "reviews": 2, "place_id": "ChIJP8nYpPNERVMRLUBG6s_TNNI", "latitude": 45.6698417, "longitude": -111.0199476, "care_type": "OB-GYN"}, {"name": "Dr. Sina Haeri", "address": "905 Highland Blvd #4500, Bozeman, MT 59715", "city": "Bozeman", "phone": "+1 406-414-2400", "website": "", "rating": null, "reviews": 0, "place_id": "ChIJSVLTo_NERVMRUNIM_snhMQA", "latitude": 45.6701623, "longitude": -111.0198514, "care_type": "OB-GYN"}, {"name": "Dr. Stephanie A. Dubravac, MD", "address": "925 Highland Blvd, Bozeman, MT 59715", "city": "Bozeman", "phone": "+1 406-587-9202", "website": "", "rating": null, "reviews": 0, "place_id": "ChIJx_io4_JERVMRx3UcqVw5_Oo", "latitude": 45.6682294, "longitude": -111.0190762, "care_type": "OB-GYN"}, {"name": "Marilee Simons", "address": "905 Highland Blvd #4440, Bozeman, MT 59715", "city": "Bozeman", "phone": "+1 406-414-5150", "website": "https://www.bozemanhealth.org/provider-directory/providers/marilee-simons/", "rating": null, "reviews": 0, "place_id": "ChIJP8nYpPNERVMRwDfVwFB4Stg", "latitude": 45.6698417, "longitude": -111.0199476, "care_type": "OB-GYN"}, {"name": "Holly Omar", "address": "915 Highland Blvd, Bozeman, MT 59715", "city": "Bozeman", "phone": "", "website": "", "rating": null, "reviews": 0, "place_id": "ChIJVVVVpfNERVMRR6Xhwp0HHFY", "latitude": 45.6696882, "longitude": -111.0199131, "care_type": "OB-GYN"}, {"name": "Fanee Freeman", "address": "925 Highland Blvd SUITE 1210, Bozeman, MT 597156905", "city": "Bozeman", "phone": "+1 406-587-9202", "website": "", "rating": null, "reviews": 0, "place_id": "ChIJ_4zVuvNERVMRliDSWWabnNQ", "latitude": 45.6698177, "longitude": -111.0200333, "care_type": "OB-GYN"}, {"name": "Silddy Atilano", "address": "305 W Pennsylvania St, Anaconda, MT 59711", "city": "Anaconda", "phone": "+1 406-563-7282", "website": "", "rating": 5.0, "reviews": 2, "place_id": "ChIJAQAQuciQW1MR69nOb95EMN4", "latitude": 46.1325635, "longitude": -112.955029, "care_type": "OB-GYN"}, {"name": "Jennifer D. Austin, DO", "address": "305 W Pennsylvania St #1, Anaconda, MT 59711", "city": "Anaconda", "phone": "+1 406-563-7282", "website": "", "rating": 1.0, "reviews": 1, "place_id": "ChIJDa6MuciQW1MRs40XtOovVb4", "latitude": 46.1325685, "longitude": -112.95508, "care_type": "OB-GYN"}, {"name": "Andrew Bognanno, M.D.", "address": "305 W Pennsylvania St, Anaconda, MT 59711", "city": "Anaconda", "phone": "+1 406-563-7282", "website": "http://www.communityhospitalofanaconda.org/", "rating": 2.3, "reviews": 3, "place_id": "ChIJTzt9z36RW1MRXN6KeMOnTLc", "latitude": 46.1325635, "longitude": -112.955029, "care_type": "OB-GYN"}, {"name": "Dr. J R. Rauh, MD", "address": "330 Roger Lane #4, Miles City, MT 59301", "city": "Miles City", "phone": "+1 406-234-7660", "website": "", "rating": 5.0, "reviews": 6, "place_id": "ChIJm355eL12OlMROyqU9CZJOFc", "latitude": 46.404838, "longitude": -105.8201176, "care_type": "OB-GYN"}, {"name": "Lisa Ross, MD", "address": "214 14th Ave SW, Sidney, MT 59270", "city": "Sidney", "phone": "+1 406-488-2577", "website": "https://www.sidneyhealth.org/Providers/Lisa-Ross-MD", "rating": 5.0, "reviews": 52, "place_id": "ChIJ-93rzaFxJFMR3_2hNiPFYEs", "latitude": 47.7158662, "longitude": -104.1731519, "care_type": "OB-GYN"}, {"name": "Malua Tambi, MD", "address": "214 14th Ave SW, Sidney, MT 59270", "city": "Sidney", "phone": "+1 406-488-2577", "website": "https://www.sidneyhealth.org/Providers/Malua-Tambi-MD", "rating": 4.9, "reviews": 58, "place_id": "ChIJNRoXwaFxJFMRfwunKD6EoQs", "latitude": 47.7158662, "longitude": -104.1731519, "care_type": "OB-GYN"}, {"name": "Kristan V. Adams, MD", "address": "214 14th Ave SW, Sidney, MT 59270", "city": "Sidney", "phone": "+1 406-488-2577", "website": "https://www.sidneyhealth.org/Providers/Kristan-V-Adams-MD", "rating": 5.0, "reviews": 8, "place_id": "ChIJ-93rzaFxJFMRLRzurWTQ4hI", "latitude": 47.7158662, "longitude": -104.1731519, "care_type": "OB-GYN"}, {"name": "Bitterroot Health - Obstetrics and Gynecology", "address": "1200 Westwood Dr Suite G, Hamilton, MT 59840", "city": "Hamilton", "phone": "+1 406-375-4777", "website": "https://www.bitterroothealth.org/locations/obstetrics-gynecology/", "rating": 4.8, "reviews": 200, "place_id": "ChIJ2x7XGWq3XlMRx-mthxuxSTM", "latitude": 46.2482409, "longitude": -114.1705575, "care_type": "OB-GYN"}, {"name": "Mary E Camden, MD", "address": "1200 Westwood Dr Suite G, Hamilton, MT 59840", "city": "Hamilton", "phone": "+1 406-375-4777", "website": "https://www.bitterroothealth.org/OBGYN", "rating": 4.9, "reviews": 89, "place_id": "ChIJpzCGJGq3XlMRmLRhrv3oYOA", "latitude": 46.2480621, "longitude": -114.1720215, "care_type": "OB-GYN"}, {"name": "Ann L Kimmel, MD", "address": "1200 Westwood Dr Suite G, Hamilton, MT 59840", "city": "Hamilton", "phone": "+1 406-375-4777", "website": "", "rating": 4.7, "reviews": 110, "place_id": "ChIJ9wb6D_S3XlMRGcSVeVGyw0g", "latitude": 46.2480621, "longitude": -114.1720215, "care_type": "OB-GYN"}, {"name": "Megan W Metcalf, MD", "address": "1200 Westwood Dr Suite G, Hamilton, MT 59840", "city": "Hamilton", "phone": "+1 406-375-4777", "website": "", "rating": 4.9, "reviews": 59, "place_id": "ChIJg_IqHG-3XlMR1soOA1Z3a70", "latitude": 46.2480621, "longitude": -114.1720215, "care_type": "OB-GYN"}, {"name": "Byrke Beller, MD", "address": "1200 Westwood Dr Suite G, Hamilton, MT 59840", "city": "Hamilton", "phone": "+1 406-375-4777", "website": "https://www.bitterroothealth.org/obgyn", "rating": null, "reviews": 0, "place_id": "ChIJX7gbhTG3XlMRU881-r5A_ME", "latitude": 46.2480621, "longitude": -114.1720215, "care_type": "OB-GYN"}, {"name": "Nishan Chobanian, MD", "address": "1200 Westwood Dr Suite G, Hamilton, MT 59840", "city": "Hamilton", "phone": "+1 406-375-4777", "website": "https://www.bitterroothealth.org/OBGYN", "rating": 5.0, "reviews": 1, "place_id": "ChIJ6QZApQjJJIgR0yzwIttajWY", "latitude": 46.2480621, "longitude": -114.1720215, "care_type": "OB-GYN"}, {"name": "Kalispell OB/GYN at The Falls", "address": "165 Commons Loop Suite E, Kalispell, MT 59901", "city": "Kalispell", "phone": "+1 406-752-5252", "website": "https://www.kalispellobgyn.com/", "rating": 4.1, "reviews": 60, "place_id": "ChIJi2RXu59QZlMRcS9BSyY5pu8", "latitude": 48.2206671, "longitude": -114.3270057, "care_type": "OB-GYN"}, {"name": "Katiera Rivera, DO", "address": "1675 Talbot Rd, Columbia Falls, MT 59912", "city": "Columbia Falls", "phone": "+1 406-892-3208", "website": "", "rating": 5.0, "reviews": 1, "place_id": "ChIJqwr1h55BZlMRGd1FxwA_wRI", "latitude": 48.3640994, "longitude": -114.2014143, "care_type": "OB-GYN"}, {"name": "Logan Health Women's Care - GYN", "address": "75 Claremont St STE A, Kalispell, MT 59901", "city": "Kalispell", "phone": "+1 406-858-8200", "website": "https://www.logan.org/location/logan-health-womens-care-gyn/", "rating": 3.5, "reviews": 28, "place_id": "ChIJH-B2JJ9QZlMRxsSQZc_n2IY", "latitude": 48.2124543, "longitude": -114.3239405, "care_type": "OB-GYN"}, {"name": "Logan Health Women's Care - OB/GYN", "address": "75 Claremont St STE A, Kalispell, MT 59901", "city": "Kalispell", "phone": "+1 406-858-8200", "website": "https://www.logan.org/location/logan-health-ob-gyn/", "rating": 2.9, "reviews": 9, "place_id": "ChIJgSyMfetRZlMRFA7i-BoQr1k", "latitude": 48.2124543, "longitude": -114.3239405, "care_type": "OB-GYN"}, {"name": "Alpine Women's Center", "address": "2002 Hospital Way, Whitefish, MT 59937", "city": "Whitefish", "phone": "+1 406-862-6436", "website": "https://www.alpinewomenscenter.com/", "rating": 4.4, "reviews": 89, "place_id": "ChIJR8rozZxCZlMRlw-_DBQq7i0", "latitude": 48.3791574, "longitude": -114.3310553, "care_type": "OB-GYN"}, {"name": "Erin Lauer", "address": "210 Sunnyview Ln STE 201, Kalispell, MT 59901", "city": "Kalispell", "phone": "+1 406-858-8200", "website": "https://www.logan.org/provider/erin-lauer/", "rating": 5.0, "reviews": 4, "place_id": "ChIJB6xTup9QZlMR00jBJ1KQ7dU", "latitude": 48.2145036, "longitude": -114.326117, "care_type": "OB-GYN"}, {"name": "Dr. Gwenda C. Jonas, MD", "address": "165 Commons Loop Suite E, Kalispell, MT 59901", "city": "Kalispell", "phone": "+1 406-752-5252", "website": "http://www.kalispellobgyn.com/", "rating": 3.4, "reviews": 5, "place_id": "ChIJi2RXu59QZlMRgzSkKznw5go", "latitude": 48.2206671, "longitude": -114.3270057, "care_type": "OB-GYN"}, {"name": "Dr. Mirna D. Bowden, MD", "address": "2002 Hospital Way, Whitefish, MT 59937", "city": "Whitefish", "phone": "+1 406-862-6436", "website": "http://alpinewomenscenter.com/", "rating": 4.4, "reviews": 7, "place_id": "ChIJR8rozZxCZlMRDoknA5H_uLE", "latitude": 48.380967, "longitude": -114.3310974, "care_type": "OB-GYN"}, {"name": "Gina Nelson, MD", "address": "1297 Burns Way Unit 2, Kalispell, MT 59901", "city": "Kalispell", "phone": "+1 406-755-6550", "website": "http://drginanelson.com/", "rating": 3.2, "reviews": 29, "place_id": "ChIJi2RXu59QZlMR6uDU3bZcKpg", "latitude": 48.213276, "longitude": -114.3254809, "care_type": "OB-GYN"}, {"name": "Dr. Brad Kasavana", "address": "2002 Hospital Way, Whitefish, MT 59937", "city": "Whitefish", "phone": "+1 406-862-6436", "website": "http://alpinewomenscenter.com/", "rating": 5.0, "reviews": 3, "place_id": "ChIJ25xyTrxDZlMRYDkkhnYZf94", "latitude": 48.3791574, "longitude": -114.3310553, "care_type": "OB-GYN"}, {"name": "Kalispell Midwives & Women's Health", "address": "165 Commons Loop Suite A, Kalispell, MT 59901", "city": "Kalispell", "phone": "+1 406-858-8009", "website": "https://www.kalispellmidwives.clinic/", "rating": 5.0, "reviews": 64, "place_id": "ChIJ6xjiu59QZlMRz4f5u6sReFE", "latitude": 48.22069, "longitude": -114.3270949, "care_type": "OB-GYN"}, {"name": "Logan Health Women's Care - Midwives", "address": "75 Claremont St STE A, Kalispell, MT 59901", "city": "Kalispell", "phone": "+1 406-858-8200", "website": "https://www.logan.org/location/logan-health-midwives/", "rating": 5.0, "reviews": 12, "place_id": "ChIJi2RXu59QZlMRMPdtQpRs744", "latitude": 48.2124543, "longitude": -114.3239405, "care_type": "OB-GYN"}, {"name": "Robert M. Rogers Jr., MD", "address": "75 Claremont St STE A, Kalispell, MT 59901", "city": "Kalispell", "phone": "+1 406-752-8282", "website": "", "rating": 5.0, "reviews": 1, "place_id": "ChIJH-B2JJ9QZlMR6FYCKC-Q_hc", "latitude": 48.2125202, "longitude": -114.3237305, "care_type": "OB-GYN"}, {"name": "Kathleen Lewison, MD", "address": "2002 Hospital Way, Whitefish, MT 59937", "city": "Whitefish", "phone": "+1 406-862-6436", "website": "http://alpinewomenscenter.com/", "rating": 2.8, "reviews": 9, "place_id": "ChIJR8rozZxCZlMRCsoOLZ98bMQ", "latitude": 48.3791574, "longitude": -114.3310553, "care_type": "OB-GYN"}, {"name": "Logan Health Maternal-Fetal Medicine", "address": "210 Sunnyview Ln # 103, Kalispell, MT 59901", "city": "Kalispell", "phone": "+1 406-257-3872", "website": "https://www.logan.org/location/logan-health-maternal-fetal-medicine/", "rating": 4.0, "reviews": 11, "place_id": "ChIJ6xjiu59QZlMRpIvDQKNQ7Fo", "latitude": 48.2145218, "longitude": -114.326087, "care_type": "OB-GYN"}, {"name": "Dehoop Thomas A MD", "address": "210 Sunnyview Ln, Kalispell, MT 59901", "city": "Kalispell", "phone": "+1 406-858-8200", "website": "https://www.logan.org/provider/thomas-dehoop/", "rating": 5.0, "reviews": 2, "place_id": "ChIJi2RXu59QZlMR0voesqzY1cM", "latitude": 48.2145218, "longitude": -114.326087, "care_type": "OB-GYN"}, {"name": "Kathleen Nelson, MD", "address": "210 Sunnyview Ln STE 201, Kalispell, MT 59901", "city": "Kalispell", "phone": "+1 406-752-5252", "website": "", "rating": 5.0, "reviews": 0, "place_id": "ChIJi2RXu59QZlMRpuluKAUttZE", "latitude": 48.2144854, "longitude": -114.3261471, "care_type": "OB-GYN"}, {"name": "Dr. Dennis R. Beach, MD", "address": "2002 Hospital Way, Whitefish, MT 59937", "city": "Whitefish", "phone": "+1 406-862-6436", "website": "http://alpinewomenscenter.com/", "rating": 5.0, "reviews": 1, "place_id": "ChIJR8rozZxCZlMR4mmhqOblTJI", "latitude": 48.3791495, "longitude": -114.3310622, "care_type": "OB-GYN"}, {"name": "Mountain View Women's Care - Julie Cook, FNP-BC", "address": "911 Wisconsin Ave Suite 201, Whitefish, MT 59937", "city": "Whitefish", "phone": "+1 406-333-1733", "website": "https://mvwcmt.com/", "rating": 5.0, "reviews": 12, "place_id": "ChIJ1dXZeX5pZlMRiFmAVBWDknQ", "latitude": 48.42511469999999, "longitude": -114.3402376, "care_type": "OB-GYN"}, {"name": "Glacier Women's Health & Wellness Center", "address": "195 Commons Loop ste f, Kalispell, MT 59901", "city": "Kalispell", "phone": "+1 406-752-0303", "website": "http://www.glacierwomenshealth.com/", "rating": 4.5, "reviews": 16, "place_id": "ChIJoz1UcP5bZlMRtTyft6IAn7M", "latitude": 48.2210756, "longitude": -114.3288027, "care_type": "OB-GYN"}, {"name": "Northwest Women's Health Care: Taylor Richard H MD Drs. R Rogers S Barrong H Miller", "address": "75 Claremont St STE A, Kalispell, MT 59901", "city": "Kalispell", "phone": "+1 406-752-8282", "website": "", "rating": 5.0, "reviews": 1, "place_id": "ChIJH-B2JJ9QZlMR_E4XwNZu2iE", "latitude": 48.21252, "longitude": -114.323731, "care_type": "OB-GYN"}, {"name": "Whitefish Women's Wellness & Midwifery", "address": "704 13th St E Suite F-1, Whitefish, MT 59937", "city": "Whitefish", "phone": "+1 406-249-1849", "website": "", "rating": 5.0, "reviews": 3, "place_id": "ChIJMdon0tJRZlMRgQKlESog2VI", "latitude": 48.4008779, "longitude": -114.3345213, "care_type": "OB-GYN"}, {"name": "Jenna Huff", "address": "210 Sunnyview Ln STE 201, Kalispell, MT 59901", "city": "Kalispell", "phone": "+1 406-858-8200", "website": "https://www.logan.org/provider/jenna-huff/", "rating": 3.0, "reviews": 2, "place_id": "ChIJB6xTup9QZlMRnRsio0c1LY4", "latitude": 48.2145036, "longitude": -114.326117, "care_type": "OB-GYN"}, {"name": "Cabinet Peaks OB/GYN", "address": "401 Louisiana Ave #2131, Libby, MT 59923", "city": "Libby", "phone": "+1 406-283-7440", "website": "http://www.cabinetpeaks.org/", "rating": 1.0, "reviews": 1, "place_id": "ChIJVVXFxgSpZlMR8DfJ_CVBtFM", "latitude": 48.3910159, "longitude": -115.5489843, "care_type": "OB-GYN"}, {"name": "Jeanne Baker", "address": "35 5th Ave W, Kalispell, MT 59901", "city": "Kalispell", "phone": "+1 406-871-8888", "website": "", "rating": 4.0, "reviews": 4, "place_id": "ChIJ_Q0IlV9aZlMRHFqlCnFKUgQ", "latitude": 48.1969554, "longitude": -114.3206731, "care_type": "OB-GYN"}, {"name": "All Families Healthcare", "address": "737 Spokane Ave, Whitefish, MT 59937", "city": "Whitefish", "phone": "+1 406-730-8682", "website": "https://www.allfamilieshealth.org/", "rating": 4.8, "reviews": 42, "place_id": "ChIJK9RCqcppZlMR0eTtz1zmAHY", "latitude": 48.404483, "longitude": -114.3348789, "care_type": "OB-GYN"}, {"name": "Brian Bell", "address": "401 Louisiana Ave #2131, Libby, MT 59923", "city": "Libby", "phone": "+1 406-283-7440", "website": "", "rating": null, "reviews": 0, "place_id": "ChIJVVXFxgSpZlMRG3V-UmAKu3Q", "latitude": 48.3910352, "longitude": -115.5489043, "care_type": "OB-GYN"}, {"name": "Kelly G. Bagnell, MD", "address": "6 13th Ave E, Polson, MT 59860", "city": "Polson", "phone": "+1 406-883-5680", "website": "https://www.providence.org/doctors/obstetrics-and-gynecology/mt/polson/kelly-bagnell-1558390617%3Fls%3Dprovider%26y_source%3D1_NTg3OTg4ODctNzE1LWxvY2F0aW9uLndlYnNpdGU%253D", "rating": 5.0, "reviews": 0, "place_id": "ChIJ1zvCeO1zZ1MR0v5EMN2XMVI", "latitude": 47.6827573, "longitude": -114.1625424, "care_type": "OB-GYN"}, {"name": "Jamie G. Straub, DO", "address": "6 13th Ave E, Polson, MT 59860", "city": "Polson", "phone": "+1 406-883-5680", "website": "https://www.providence.org/doctors/obstetrics-and-gynecology/mt/polson/jamie-straub-1295762714%3Fls%3Dprovider%26y_source%3D1_NDQxMzUxOTctNzE1LWxvY2F0aW9uLndlYnNpdGU%253D", "rating": 1.0, "reviews": 1, "place_id": "ChIJoTnCeO1zZ1MRdY_z1WH43Yc", "latitude": 47.6822197, "longitude": -114.1624467, "care_type": "OB-GYN"}, {"name": "Juan Martinez-Poyer", "address": "210 Sunnyview Ln # 103, Kalispell, MT 59901", "city": "Kalispell", "phone": "+1 406-257-3852", "website": "https://www.logan.org/provider/juan-martinez-poyer/", "rating": null, "reviews": 0, "place_id": "ChIJAQBQup9QZlMR0fyuenqX01c", "latitude": 48.2145218, "longitude": -114.326087, "care_type": "OB-GYN"}, {"name": "Mick Lifson, MD, FACOG", "address": "Lower Level, 30 State Hwy 91 S, Dillon, MT 59725", "city": "Dillon", "phone": "+1 406-683-3060", "website": "", "rating": 4.9, "reviews": 38, "place_id": "ChIJm5XYtv0HWlMR4x3T_ezTEWY", "latitude": 45.207142, "longitude": -112.6425058, "care_type": "OB-GYN"}, {"name": "Kelly Smith, MD, OB", "address": "Second Level, 30 State Hwy 91 S, Dillon, MT 59725", "city": "Dillon", "phone": "+1 406-683-1188", "website": "", "rating": 5.0, "reviews": 94, "place_id": "ChIJGzQRw8oHWlMRuIgL5HUVmoM", "latitude": 45.207142, "longitude": -112.6425058, "care_type": "OB-GYN"}, {"name": "Patrick Casey Rasch, MD, OB", "address": "Second Level, 30 State Hwy 91 S, Dillon, MT 59725", "city": "Dillon", "phone": "+1 406-683-1188", "website": "", "rating": 4.9, "reviews": 92, "place_id": "ChIJHernrykHWlMR-V7fH2X0ndQ", "latitude": 45.207142, "longitude": -112.6425058, "care_type": "OB-GYN"}, {"name": "Cooper James M MD", "address": "519 E Main St, Cut Bank, MT 59427", "city": "Cut Bank", "phone": "+1 406-873-5670", "website": "", "rating": null, "reviews": 0, "place_id": "ChIJGxUdXpINaVMRihFdAREcQQw", "latitude": 48.6325977, "longitude": -112.325533, "care_type": "OB-GYN"}, {"name": "Denise Helin, MD", "address": "320 Alpenglow Ln, Livingston, MT 59047", "city": "Livingston", "phone": "+1 406-222-0800", "website": "http://www.livingstonhealthcare.org/", "rating": null, "reviews": 0, "place_id": "ChIJK8qyBdx7RVMRMzU8ZXWo7C8", "latitude": 45.674906, "longitude": -110.531503, "care_type": "OB-GYN"}, {"name": "Erdman Deborah MD", "address": "100 Deep Creek Rd, Livingston, MT 59047", "city": "Livingston", "phone": "+1 406-222-0400", "website": "", "rating": null, "reviews": 0, "place_id": "ChIJkS192NWHT1MRyBfBBQisUC8", "latitude": 45.5370439, "longitude": -110.5343073, "care_type": "OB-GYN"}, {"name": "Elizabeth Brown", "address": "107 Dilworth St, Glendive, MT 59330", "city": "Glendive", "phone": "+1 406-345-8901", "website": "https://www.gmc.org/blog/2019/april/obstetrician-gynecologist-physician-to-join-glen/", "rating": 5.0, "reviews": 1, "place_id": "ChIJudp9CLMgJVMR54IkKGhP7Hk", "latitude": 47.1173802, "longitude": -104.7036283, "care_type": "OB-GYN"}, {"name": "Jessica Miller, MD", "address": "202 Prospect Dr, Glendive, MT 59330", "city": "Glendive", "phone": "+1 406-345-8930", "website": "https://www.gmc.org/providers/jessica-miller-md/", "rating": 5.0, "reviews": 0, "place_id": "ChIJnThNdVHR2IcR1FjzsroCwV8", "latitude": 47.1174591, "longitude": -104.7037856, "care_type": "OB-GYN"}, {"name": "Dr. Richard J. Lewis, DO", "address": "107 Dilworth St, Glendive, MT 59330", "city": "Glendive", "phone": "+1 406-345-2229", "website": "http://www.gmc.org/", "rating": 5.0, "reviews": 1, "place_id": "ChIJe00wDrMgJVMRkjjp1zu38dY", "latitude": 47.1172997, "longitude": -104.7036337, "care_type": "OB-GYN"}, {"name": "Dr. Randy Wobser", "address": "107 Dilworth St, Glendive, MT 59330", "city": "Glendive", "phone": "+1 406-345-8901", "website": "", "rating": 1.0, "reviews": 1, "place_id": "ChIJudp9CLMgJVMRDvxj87x-X5g", "latitude": 47.1173802, "longitude": -104.7036283, "care_type": "OB-GYN"}, {"name": "Tondy Baumgartner, MD, MSEd", "address": "2825 Fort Missoula Rd Building 1, Suite 304, Missoula, MT 59804", "city": "Missoula", "phone": "+1 406-808-6647", "website": "https://www.missoula-obgyn.com/our-team", "rating": 4.8, "reviews": 42, "place_id": "ChIJ8417m07TXVMRJyz1JEoPTOM", "latitude": 46.8460983, "longitude": -114.0484017, "care_type": "OB-GYN"}, {"name": "Dionne Drakulich, MD", "address": "2825 Fort Missoula Rd Building 1, Suite 304, Missoula, MT 59804", "city": "Missoula", "phone": "+1 406-808-6647", "website": "https://www.missoula-obgyn.com/our-team", "rating": 4.6, "reviews": 18, "place_id": "ChIJr5fDAMPTXVMRYhyiBsr1H78", "latitude": 46.847206, "longitude": -114.046655, "care_type": "OB-GYN"}, {"name": "Missoula OB/GYN", "address": "2825 Fort Missoula Rd STE 304, Missoula, MT 59804", "city": "Missoula", "phone": "+1 406-808-6647", "website": "https://missoula-obgyn.com/", "rating": 5.0, "reviews": 6, "place_id": "ChIJCRz4dezTXVMRMIll8b8KA-k", "latitude": 46.8471662, "longitude": -114.0464075, "care_type": "OB-GYN"}, {"name": "Paul Baumgartner, MD, MPH", "address": "2825 Fort Missoula Rd Building 1, Suite 304, Missoula, MT 59804", "city": "Missoula", "phone": "+1 406-808-6647", "website": "https://www.missoula-obgyn.com/our-team", "rating": 4.8, "reviews": 42, "place_id": "ChIJDUMJdAzTXVMRyGKdrpXij9k", "latitude": 46.8472118, "longitude": -114.0466583, "care_type": "OB-GYN"}, {"name": "Lauren D. Hinkle, CNM", "address": "16 N Miles Ave, Hardin, MT 59034", "city": "Hardin", "phone": "+1 406-238-6010", "website": "https://doctors.intermountainhealth.org/provider/Lauren%2520Deanne%2520Hinkle/3205476", "rating": 4.0, "reviews": 1, "place_id": "ChIJxUlckQ17SFMRuJBujaNNW3s", "latitude": 45.7291012, "longitude": -107.6173533, "care_type": "OB-GYN"}, {"name": "One Health Bighorn - Campus Clinic", "address": "16 N Miles Ave, Hardin, MT 59034", "city": "Hardin", "phone": "", "website": "", "rating": null, "reviews": 0, "place_id": "ChIJleqVVADdN1MRes61Q-GaSaw", "latitude": 45.7290622, "longitude": -107.6174356, "care_type": "OB-GYN"}, {"name": "Palazzo Lawrence R MD", "address": "221 5th Ave S, Glasgow, MT 59230", "city": "Glasgow", "phone": "+1 406-228-3400", "website": "http://www.fmdh.org/", "rating": null, "reviews": 0, "place_id": "ChIJZ9a_13WrPVMROBKtg46hCnk", "latitude": 48.1898516, "longitude": -106.6347592, "care_type": "OB-GYN"}, {"name": "Dr. John Lavin", "address": "310 Sunnyview Ln, Kalispell, MT 59901", "city": "Kalispell", "phone": "", "website": "", "rating": 5.0, "reviews": 1, "place_id": "ChIJi2RXu59QZlMRyVc6biO09E8", "latitude": 48.2147675, "longitude": -114.3236774, "care_type": "OB-GYN"}, {"name": "Dr. Margo J. Hein Muniz, MD", "address": "1410 1st Ave, Familt MediceCliinic, Havre, MT 59501", "city": "Havre", "phone": "+1 406-265-5408", "website": "https://rymap.org/business/dr-margo-j-hein-muniz-md-6l8nu7", "rating": 3.9, "reviews": 14, "place_id": "ChIJFxhjHtOzalMR6h7DOlW9RlQ", "latitude": 48.5373887, "longitude": -109.6841643, "care_type": "OB-GYN"}, {"name": "Dr. Suzanne R. Swietnicki, MD", "address": "20 13th St W, Havre, MT 59501", "city": "Havre", "phone": "+1 406-265-7831", "website": "", "rating": null, "reviews": 0, "place_id": "ChIJ_7BTXguzalMRsyXSVvr89Zo", "latitude": 48.5384063, "longitude": -109.6883483, "care_type": "OB-GYN"}, {"name": "Billings OB-GYN", "address": "1611 Zimmerman Trail, Billings, MT 59102", "city": "Billings", "phone": "+1 406-248-3607", "website": "http://billings-obgyn.com/", "rating": 3.1, "reviews": 137, "place_id": "ChIJmQH90OJ8SFMRaNrZv_TBPNI", "latitude": 45.78696559999999, "longitude": -108.5998206, "care_type": "OB-GYN"}, {"name": "Downtown Clinic \u2013 Midwifery & Women's Health", "address": "2900 12th Ave N # 245W, Billings, MT 59101", "city": "Billings", "phone": "+1 406-238-6010", "website": "https://intermountainhealthcare.org/locations/intermountain-health-downtown-clinic/downtown-clinic-midwifery-womens-health%3Futm_campaign%3Dgmb%26utm_medium%3Dorganic%26utm_source%3Dlocal", "rating": 4.7, "reviews": 13, "place_id": "ChIJIbEO9L17SFMRpNFQsy8dJ78", "latitude": 45.7925721, "longitude": -108.5182078, "care_type": "OB-GYN"}, {"name": "Family Beginnings Wellness", "address": "134 Grand Ave, Billings, MT 59101", "city": "Billings", "phone": "+1 406-534-1300", "website": "https://familybeginningswellness.org/", "rating": 4.7, "reviews": 15, "place_id": "ChIJu3_eqJp7SFMR6BXY49y6Bus", "latitude": 45.78389629999999, "longitude": -108.5197672, "care_type": "OB-GYN"}, {"name": "Bridget C Eckley - PA - Billings Clinic West", "address": "2675 Central Ave, Billings, MT 59101", "city": "Billings", "phone": "+1 406-435-8973", "website": "https://providers.billingsclinic.com/provider/bridget-c-eckley/2055816%3Futm_source%3Dgmb-providers%26utm_campaign%3Dlocal-listings%26utm_medium%3D1912288283", "rating": 4.5, "reviews": 8, "place_id": "ChIJo6X5CXl6SFMRI1AHwKfVLUo", "latitude": 45.77057, "longitude": -108.5841757, "care_type": "OB-GYN"}, {"name": "Regina C. Ommen, CNM", "address": "2900 12th Ave N, Billings, MT 59101", "city": "Billings", "phone": "+1 406-238-6010", "website": "https://doctors.intermountainhealth.org/provider/Regina%2520Chase%2520Ommen/2624793%3Futm_campaign%3Dgmb%26utm_medium%3Dorganic%26utm_source%3Dlocal", "rating": 5.0, "reviews": 1, "place_id": "ChIJE2j06kV7SFMRJJOGL1mv8g8", "latitude": 45.7925721, "longitude": -108.5182078, "care_type": "OB-GYN"}, {"name": "Dr. Dona C. Dahl, MD", "address": "2520 17th St W #202, Billings, MT 59102", "city": "Billings", "phone": "+1 406-248-3607", "website": "http://www.billings-obgyn.com/", "rating": 5.0, "reviews": 2, "place_id": "ChIJBxvpYYN8SFMRZ2n5NGhfzAY", "latitude": 45.7955169, "longitude": -108.56015, "care_type": "OB-GYN"}, {"name": "James F Metherell - FACOG, MD - Billings Clinic", "address": "801 N 29th St, Billings, MT 59101", "city": "Billings", "phone": "+1 406-238-2500", "website": "https://providers.billingsclinic.com/provider/james-f-metherell/2068299%3Futm_source%3Dgmb-providers%26utm_campaign%3Dlocal-listings%26utm_medium%3D1023109253", "rating": 5.0, "reviews": 2, "place_id": "ChIJjQK4Azx7SFMRjl7tegsQ4-U", "latitude": 45.7877894, "longitude": -108.5125865, "care_type": "OB-GYN"}, {"name": "Clayton H \"Tersh\" McCracken, III - FACOG, MD - Billings Clinic", "address": "801 N 29th St, Billings, MT 59101", "city": "Billings", "phone": "+1 406-238-2500", "website": "https://providers.billingsclinic.com/provider/clayton-h-tersh-mc-cracken/2068288%3Futm_source%3Dgmb-providers%26utm_campaign%3Dlocal-listings%26utm_medium%3D1760589345", "rating": 3.0, "reviews": 4, "place_id": "ChIJQ8KMqz57SFMRxiDASeH2TkE", "latitude": 45.7877894, "longitude": -108.5125865, "care_type": "OB-GYN"}, {"name": "Downtown Clinic \u2013 Maternal Fetal Medicine", "address": "2900 12th Ave N Ste 130W, Billings, MT 59101", "city": "Billings", "phone": "+1 406-237-8480", "website": "https://intermountainhealthcare.org/locations/intermountain-health-downtown-clinic/intermountain-health-downtown-clinic-maternal-fetal-medicine%3Futm_campaign%3Dgmb%26utm_medium%3Dorganic%26utm_source%3Dlocal", "rating": 3.8, "reviews": 10, "place_id": "ChIJZQi1zHN7SFMRaHpFiJYYL4U", "latitude": 45.7925721, "longitude": -108.5182078, "care_type": "OB-GYN"}, {"name": "Dr. Douglas A. Neuhoff, MD", "address": "1611 Zimmerman Trail, Billings, MT 59102", "city": "Billings", "phone": "+1 406-248-3607", "website": "https://www.billings-obgyn.com/physician/douglas-a-neuhoff-md/", "rating": 5.0, "reviews": 3, "place_id": "ChIJmQH90OJ8SFMRW4nPLtOXnmQ", "latitude": 45.7870166, "longitude": -108.5998875, "care_type": "OB-GYN"}, {"name": "Alexis N. Hokenstad, MD", "address": "602 Henry Chapple St, Billings, MT 59102", "city": "Billings", "phone": "+1 406-901-2440", "website": "https://doctors.intermountainhealth.org/provider/Alexis%2520N%2520Hokenstad/2610025%3Futm_campaign%3Dgmb%26utm_medium%3Dorganic%26utm_source%3Dlocal", "rating": 5.0, "reviews": 10, "place_id": "ChIJy9siGzx7SFMRmxJ1pTHf4oI", "latitude": 45.7594998, "longitude": -108.6207948, "care_type": "OB-GYN"}, {"name": "Camille S Osborn - FACOG, MD - Billings Clinic West", "address": "2675 Central Ave, Billings, MT 59101", "city": "Billings", "phone": "+1 406-238-2900", "website": "https://providers.billingsclinic.com/provider/camille-s-osborn/2055820%3Futm_source%3Dgmb-providers%26utm_campaign%3Dlocal-listings%26utm_medium%3D1245338292", "rating": null, "reviews": 0, "place_id": "ChIJH8mPCdp8SFMRLyxcfTbszu0", "latitude": 45.77057, "longitude": -108.5841757, "care_type": "OB-GYN"}, {"name": "Chad Abbey", "address": "1611 Zimmerman Trail, Billings, MT 59102", "city": "Billings", "phone": "+1 406-248-3607", "website": "https://www.billings-obgyn.com/physician/chad-s-abbey-do/", "rating": 2.3, "reviews": 3, "place_id": "ChIJR_Q2KeN8SFMR-xhZEHF22As", "latitude": 45.7870154, "longitude": -108.5997263, "care_type": "OB-GYN"}, {"name": "Bailey Ieva L MD", "address": "2900 12th Ave N #240w, Billings, MT 59101", "city": "Billings", "phone": "+1 406-237-5875", "website": "", "rating": 5.0, "reviews": 1, "place_id": "ChIJszRiuRV7SFMRQWeN42EDssY", "latitude": 45.7925721, "longitude": -108.5182078, "care_type": "OB-GYN"}, {"name": "Iona Einset, CNM", "address": "2900 12th Ave N, Billings, MT 59101", "city": "Billings", "phone": "+1 406-238-6010", "website": "https://doctors.intermountainhealth.org/provider/Iona%2520Kari%2520Einset/6197156", "rating": null, "reviews": 0, "place_id": "ChIJN6bw5xF7SFMRsF9Uh7BXMgY", "latitude": 45.7926812, "longitude": -108.5183512, "care_type": "OB-GYN"}, {"name": "Chelsea Drake - MD - Billings Clinic OBGYN", "address": "801 N 29th St, Billings, MT 59101", "city": "Billings", "phone": "+1 406-238-2500", "website": "https://providers.billingsclinic.com/provider/chelsea-j-drake/2297167%3Futm_source%3Dgmb-providers%26utm_campaign%3Dlocal-listings%26utm_medium%3D1021", "rating": null, "reviews": 0, "place_id": "ChIJvUZzAzx7SFMREmHeD6OvuvI", "latitude": 45.7877894, "longitude": -108.5125865, "care_type": "OB-GYN"}, {"name": "Carlson Kyla DO", "address": "1611 Zimmerman Trail, Billings, MT 59102", "city": "Billings", "phone": "+1 406-248-3607", "website": "", "rating": null, "reviews": 0, "place_id": "ChIJCUn80OJ8SFMRXRqT5p2jHVw", "latitude": 45.7870166, "longitude": -108.5998875, "care_type": "OB-GYN"}, {"name": "Megan Marie Clute Petersen", "address": "602 Henry Chapple St, Billings, MT 59106", "city": "Billings", "phone": "+1 406-901-2440", "website": "https://doctors.intermountainhealth.org/provider/megan-m-petersen/2610021", "rating": 5.0, "reviews": 2, "place_id": "ChIJvUZzAzx7SFMRnpQ9_EwhxDc", "latitude": 45.7594998, "longitude": -108.6207948, "care_type": "OB-GYN"}, {"name": "Dr. Dana Edwards", "address": "801 N 29th St, Billings, MT 59101", "city": "Billings", "phone": "+1 406-238-2500", "website": "", "rating": 1.0, "reviews": 1, "place_id": "ChIJy9siGzx7SFMRAGEde9culV4", "latitude": 45.7880093, "longitude": -108.5124602, "care_type": "OB-GYN"}, {"name": "Craig A Mayr - MD - Billings Clinic", "address": "801 N 29th St, Billings, MT 59101", "city": "Billings", "phone": "+1 406-238-2500", "website": "https://providers.billingsclinic.com/provider/craig-a-mayr/2068390%3Futm_source%3Dgmb-providers%26utm_campaign%3Dlocal-listings%26utm_medium%3D1437487238", "rating": 5.0, "reviews": 2, "place_id": "ChIJjQK4Azx7SFMRzDHweZEZrI8", "latitude": 45.7877894, "longitude": -108.5125865, "care_type": "OB-GYN"}, {"name": "Marianna Holland, CNM", "address": "2900 12th Ave N # 245W, Billings, MT 59101", "city": "Billings", "phone": "+1 406-237-6010", "website": "", "rating": null, "reviews": 0, "place_id": "ChIJr_Yqz5J7SFMR3-9u5_rAQHU", "latitude": 45.7925721, "longitude": -108.5182078, "care_type": "OB-GYN"}, {"name": "Carlson Kyla M DO", "address": "1233 N 30th St Allard 3, Billings, MT 59101", "city": "Billings", "phone": "+1 406-237-7167", "website": "", "rating": null, "reviews": 0, "place_id": "ChIJUbx4shV7SFMRqsrYAf1Ik7Y", "latitude": 45.7934332, "longitude": -108.5190684, "care_type": "OB-GYN"}, {"name": "Dr. Camille S. Osborn, MD", "address": "801 N 29th St, Billings, MT 59101", "city": "Billings", "phone": "+1 406-238-2500", "website": "https://providers.billingsclinic.com/provider/camille-s-osborn/2055820", "rating": null, "reviews": 0, "place_id": "ChIJQ8KMqz57SFMRHx5QzZebhtY", "latitude": 45.7879047, "longitude": -108.5124975, "care_type": "OB-GYN"}, {"name": "Juliann Lazzaro, CNM", "address": "2900 12th Ave N # 245W, Billings, MT 59101", "city": "Billings", "phone": "+1 406-238-6010", "website": "https://doctors.intermountainhealth.org/provider/Juliann%2520Lazzaro/2451958%3Futm_campaign%3Dgmb%26utm_medium%3Dorganic%26utm_source%3Dlocal", "rating": 5.0, "reviews": 1, "place_id": "ChIJq_5QHn57SFMRdo7skr5xdEI", "latitude": 45.7925721, "longitude": -108.5182078, "care_type": "OB-GYN"}, {"name": "Dr. Danielle D. Emery, MD", "address": "2520 17th St W, Billings, MT 59102", "city": "Billings", "phone": "+1 406-248-3607", "website": "http://www.billings-obgyn.com/", "rating": null, "reviews": 0, "place_id": "ChIJBxvpYYN8SFMRPxXW-6Qz9aU", "latitude": 45.7955169, "longitude": -108.56015, "care_type": "OB-GYN"}, {"name": "Dr. Laura M. Ferries, MD", "address": "2825 8th Ave N, Billings, MT 59101", "city": "Billings", "phone": "+1 406-238-2500", "website": "http://www.billingsclinic.com/", "rating": null, "reviews": 0, "place_id": "ChIJQ8KMqz57SFMRw8U09jxjXdk", "latitude": 45.7880638, "longitude": -108.5125803, "care_type": "OB-GYN"}, {"name": "Dr. Judith Lacy", "address": "801 N 29th St, Billings, MT 59101", "city": "Billings", "phone": "+1 406-238-2500", "website": "", "rating": null, "reviews": 0, "place_id": "ChIJvUZzAzx7SFMRXEdMk29WfxQ", "latitude": 45.7877894, "longitude": -108.5125865, "care_type": "OB-GYN"}, {"name": "Dr. Amanda Langager", "address": "801 N 29th St, Billings, MT 59101", "city": "Billings", "phone": "+1 406-238-2500", "website": "", "rating": null, "reviews": 0, "place_id": "ChIJy9siGzx7SFMR7mih81zZezc", "latitude": 45.7880093, "longitude": -108.5124602, "care_type": "OB-GYN"}, {"name": "Janelise Clarke", "address": "2800 10th Ave N, Billings, MT 59101", "city": "Billings", "phone": "+1 406-238-2500", "website": "", "rating": null, "reviews": 0, "place_id": "ChIJVVVVMjx7SFMRrh0GYwd032A", "latitude": 45.78953689999999, "longitude": -108.5129947, "care_type": "OB-GYN"}, {"name": "Dr. Sandra J. Johnson, MD", "address": "2675 Central Ave, Billings, MT 59102", "city": "Billings", "phone": "+1 406-238-2900", "website": "https://www.billingsclinic.com/contact-us/", "rating": null, "reviews": 0, "place_id": "ChIJH8mPCdp8SFMRDw822PMtJZg", "latitude": 45.7704866, "longitude": -108.5841029, "care_type": "OB-GYN"}, {"name": "Laura Waylander Hornung, CNM", "address": "2900 12th Ave N # 245W, Billings, MT 59101", "city": "Billings", "phone": "+1 406-237-6010", "website": "https://www.sclhealth.org/find-a-doctor/w/waylander-hornung-laura-a/", "rating": null, "reviews": 0, "place_id": "ChIJFXdFlTd7SFMRo3X_s4R0uK8", "latitude": 45.7925721, "longitude": -108.5182078, "care_type": "OB-GYN"}, {"name": "Eric Hodgson, MD", "address": "2900 12th Ave N Ste 130W, Billings, MT 59101", "city": "Billings", "phone": "", "website": "", "rating": null, "reviews": 0, "place_id": "ChIJdScgHcR7SFMRG0vDJlyRlJ8", "latitude": 45.7925721, "longitude": -108.5182078, "care_type": "OB-GYN"}, {"name": "Ellis Jean MD", "address": "1233 N 30th St Allard 3, Billings, MT 59101", "city": "Billings", "phone": "+1 406-237-4116", "website": "", "rating": null, "reviews": 0, "place_id": "ChIJUbx4shV7SFMRgOkcg_uKqW8", "latitude": 45.79348419999999, "longitude": -108.5187094, "care_type": "OB-GYN"}, {"name": "Montville Michelle MD", "address": "801 N 29th St, Billings, MT 59101", "city": "Billings", "phone": "+1 406-238-2500", "website": "", "rating": null, "reviews": 0, "place_id": "ChIJcQkvqj57SFMRgrYheOfBhSA", "latitude": 45.7879047, "longitude": -108.5124975, "care_type": "OB-GYN"}, {"name": "Nicole Mandala", "address": "801 N 29th St, Billings, MT 59101", "city": "Billings", "phone": "+1 406-238-2500", "website": "", "rating": null, "reviews": 0, "place_id": "ChIJy9siGzx7SFMRn_KaDH_D4g0", "latitude": 45.7880093, "longitude": -108.5124602, "care_type": "OB-GYN"}, {"name": "Dr. Thomas C. Olson, MD", "address": "2825 8th Ave N, Billings, MT 59101", "city": "Billings", "phone": "+1 406-238-2500", "website": "http://www.billingsclinic.com/", "rating": null, "reviews": 0, "place_id": "ChIJQ8KMqz57SFMRfyeZbqsCf9E", "latitude": 45.7879843, "longitude": -108.5123914, "care_type": "OB-GYN"}, {"name": "Dr. Julie A. Danaher, MD", "address": "1844 Broadwater Ave #4, Billings, MT 59102", "city": "Billings", "phone": "+1 406-248-3636", "website": "", "rating": null, "reviews": 0, "place_id": "ChIJFYoTCbl8SFMRabEU4ffP7PM", "latitude": 45.7764762, "longitude": -108.5637211, "care_type": "OB-GYN"}, {"name": "James Harris", "address": "801 N 29th St, Billings, MT 59101", "city": "Billings", "phone": "+1 406-238-2500", "website": "", "rating": null, "reviews": 0, "place_id": "ChIJvUZzAzx7SFMRyqqYPVbFZMY", "latitude": 45.7877894, "longitude": -108.5125865, "care_type": "OB-GYN"}, {"name": "Jennifer Mayo, MD", "address": "500 W Broadway St 5th floor, Missoula, MT 59802", "city": "Missoula", "phone": "+1 406-721-5600", "website": "http://www.westernmontanaclinic.com/jennifer-mayo-md", "rating": 4.7, "reviews": 15, "place_id": "ChIJAevcEAzSXVMRto6htyXIcRA", "latitude": 46.8755594, "longitude": -114.0000297, "care_type": "OB-GYN"}, {"name": "Leah Miller, MD, MPH", "address": "2831 Fort Missoula Rd Building 2, Suite 232, Missoula, MT 59804", "city": "Missoula", "phone": "+1 406-523-5650", "website": "http://www.originhealth.com/", "rating": 4.5, "reviews": 27, "place_id": "ChIJ8QhpCAzSXVMRdiMJ3aMjAts", "latitude": 46.84657439999999, "longitude": -114.0455335, "care_type": "OB-GYN"}, {"name": "Scott C. Wyman MD", "address": "2835 Fort Missoula Rd Suite 305, Missoula, MT 59804", "city": "Missoula", "phone": "+1 406-926-1088", "website": "https://www.hometownmedmissoula.com/", "rating": 4.7, "reviews": 55, "place_id": "ChIJZw6OjAvSXVMRTvp1TyrkgSw", "latitude": 46.845937, "longitude": -114.0488218, "care_type": "OB-GYN"}, {"name": "Western Montana Clinic", "address": "500 W Broadway St, Missoula, MT 59802", "city": "Missoula", "phone": "+1 406-721-5600", "website": "http://www.westernmontanaclinic.com/", "rating": 3.3, "reviews": 109, "place_id": "ChIJvylWi4DOXVMRj0jhb3Jlc1s", "latitude": 46.87462499999999, "longitude": -114.0006229, "care_type": "OB-GYN"}, {"name": "Dr. Maria Lynn Huntley M.D.", "address": "2831 Fort Missoula Rd Building 2, Suite 232, Missoula, MT 59804", "city": "Missoula", "phone": "", "website": "", "rating": 5.0, "reviews": 1, "place_id": "ChIJU8X1pZhVQ1MRtUnhk0HI8hI", "latitude": 46.84657439999999, "longitude": -114.0455335, "care_type": "OB-GYN"}, {"name": "Janice Givler, MD", "address": "500 W Broadway St 5th floor, Missoula, MT 59802", "city": "Missoula", "phone": "+1 406-721-5600", "website": "http://www.westernmontanaclinic.com/janice-givler-md", "rating": 4.2, "reviews": 10, "place_id": "ChIJAevcEAzSXVMRildk1gc1N-I", "latitude": 46.8755594, "longitude": -114.0000297, "care_type": "OB-GYN"}, {"name": "Origin Health Maternal Fetal Care Missoula", "address": "2831 Fort Missoula Rd Building 2, Suite 232, Missoula, MT 59804", "city": "Missoula", "phone": "+1 406-523-5650", "website": "http://originhealth.com/", "rating": 4.6, "reviews": 16, "place_id": "ChIJDzYR_fLTXVMRhrfRqJQKrW8", "latitude": 46.84657439999999, "longitude": -114.0455335, "care_type": "OB-GYN"}, {"name": "Dr. Merlin Fausett", "address": "2831 Fort Missoula Rd STE 232, Missoula, MT 59804", "city": "Missoula", "phone": "+1 406-523-5650", "website": "https://originhealth.com/about-us-services/meet-our-team/", "rating": 5.0, "reviews": 1, "place_id": "ChIJ5Whh3QvSXVMRoouWKNyOSdk", "latitude": 46.8467034, "longitude": -114.0457513, "care_type": "OB-GYN"}, {"name": "Roots Birth & Women's Health", "address": "2831 Fort Missoula Rd STE 232, Missoula, MT 59804", "city": "Missoula", "phone": "+1 406-523-5650", "website": "http://rootsmt.com/", "rating": 5.0, "reviews": 12, "place_id": "ChIJi8oPDDjTXVMRiHBuN7ATn_Y", "latitude": 46.8467034, "longitude": -114.0457513, "care_type": "OB-GYN"}, {"name": "Holly Omar", "address": "500 W Broadway St, Missoula, MT 59802", "city": "Missoula", "phone": "+1 406-329-7500", "website": "", "rating": 3.0, "reviews": 2, "place_id": "ChIJ_Yuri4DOXVMRn1qjPDPP5iY", "latitude": 46.8755594, "longitude": -114.0000297, "care_type": "OB-GYN"}, {"name": "Janice Givler, M.D.", "address": "601 W Spruce St, Missoula, MT 59802", "city": "Missoula", "phone": "+1 406-721-5600", "website": "http://westernmontanaclinic.com/", "rating": 3.0, "reviews": 1, "place_id": "ChIJB6VPnoDOXVMROmERg7fa9V8", "latitude": 46.876038, "longitude": -114.0019982, "care_type": "OB-GYN"}, {"name": "Tamarack wellness clinic missoula, missoula womens healthcare", "address": "2825 Fort Missoula Rd Building 1, Suite 113, Missoula, MT 59801", "city": "Missoula", "phone": "+1 406-542-2116", "website": "https://tamarackwellnessclinic.com/", "rating": 5.0, "reviews": 3, "place_id": "ChIJ7-_KhC3NXVMRywfMZozXsAM", "latitude": 46.847206, "longitude": -114.046655, "care_type": "OB-GYN"}, {"name": "Keith Balderston", "address": "Parking lot, 2825 Fort Missoula Rd STE 317, Missoula, MT 59804", "city": "Missoula", "phone": "+1 406-327-3924", "website": "", "rating": null, "reviews": 0, "place_id": "ChIJvxAs4AvSXVMRUUR9DNQlM_Q", "latitude": 46.8471592, "longitude": -114.0464014, "care_type": "OB-GYN"}, {"name": "Butte Clinic - OB-GYN", "address": "305 W Porphyry St Suite 200, Butte, MT 59701", "city": "Butte", "phone": "+1 406-496-3627", "website": "https://intermountainhealthcare.org/locations/butte-clinic-obgyn%3Futm_campaign%3Dgmb%26utm_medium%3Dorganic%26utm_source%3Dlocal", "rating": 5.0, "reviews": 31, "place_id": "ChIJceu4AdilW1MRaNZlnMZo94E", "latitude": 46.0091311, "longitude": -112.5410547, "care_type": "OB-GYN"}, {"name": "Mark F. Garnaas, MD", "address": "305 W Porphyry St Suite 200, Butte, MT 59701", "city": "Butte", "phone": "+1 406-496-3627", "website": "https://doctors.intermountainhealth.org/provider/Mark%2520Frithjof%2520Garnaas/2230371%3Futm_campaign%3Dgmb%26utm_medium%3Dorganic%26utm_source%3Dlocal", "rating": 4.9, "reviews": 18, "place_id": "ChIJ2ye-qGYJW1MRI65-T1Hs5cE", "latitude": 46.0091311, "longitude": -112.5410547, "care_type": "OB-GYN"}, {"name": "Women's Health Connection", "address": "401 S Washington St, Butte, MT 59701", "city": "Butte", "phone": "+1 406-723-8051", "website": "", "rating": 5.0, "reviews": 3, "place_id": "ChIJVbnrtcwJW1MRFG4iCaA0yh0", "latitude": 46.0084448, "longitude": -112.5421519, "care_type": "OB-GYN"}, {"name": "Origin Health Butte", "address": "225 S Clark St, Butte, MT 59701", "city": "Butte", "phone": "+1 406-221-1195", "website": "http://www.originhealth.com/", "rating": 5.0, "reviews": 5, "place_id": "ChIJ4aGM7cIJW1MRgJ3nbJ9Z_LA", "latitude": 46.0102235, "longitude": -112.5463542, "care_type": "OB-GYN"}, {"name": "Kathren E. McGree, DO", "address": "435 S Crystal St # 300, Butte, MT 59701", "city": "Butte", "phone": "+1 406-496-3600", "website": "https://doctors.intermountainhealth.org/provider/Kathren%2520E%2520McGree/1615572%3Futm_campaign%3Dgmb%26utm_medium%3Dorganic%26utm_source%3Dlocal", "rating": 4.9, "reviews": 48, "place_id": "ChIJA-x2bcsJW1MRgZsMJnMj2vA", "latitude": 46.008547, "longitude": -112.545603, "care_type": "OB-GYN"}, {"name": "Luke Wendt, DO", "address": "305 W Porphyry St Suite 200, Butte, MT 59701", "city": "Butte", "phone": "", "website": "", "rating": null, "reviews": 0, "place_id": "ChIJJzSAhBAJW1MRcOdsLpm0KvU", "latitude": 46.0091311, "longitude": -112.5410547, "care_type": "OB-GYN"}, {"name": "Daniel A. Tomlinson, MD", "address": "305 W Porphyry St, Butte, MT 59701", "city": "Butte", "phone": "+1 406-496-3627", "website": "https://doctors.intermountainhealth.org/provider/Daniel%2520Alan%2520Tomlinson/1616160", "rating": null, "reviews": 0, "place_id": "ChIJ1X6IIAkJW1MRSCnLKMmqAMo", "latitude": 46.0092399, "longitude": -112.5409076, "care_type": "OB-GYN"}, {"name": "Alexis N. Hokenstad, MD", "address": "305 W Porphyry St, Butte, MT 59701", "city": "Butte", "phone": "+1 406-901-2440", "website": "https://doctors.intermountainhealth.org/provider/Alexis%2520N%2520Hokenstad/2610025%3Futm_campaign%3Dgmb%26utm_medium%3Dorganic%26utm_source%3Dlocal", "rating": null, "reviews": 0, "place_id": "ChIJcQAexzEJW1MRpiYJjK59W0k", "latitude": 46.0092399, "longitude": -112.5409076, "care_type": "OB-GYN"}, {"name": "Dr. Mallory Novack", "address": "401 S Alabama St # 6A, Butte, MT 59701", "city": "Butte", "phone": "+1 406-563-4700", "website": "", "rating": null, "reviews": 0, "place_id": "ChIJVVUVtcwJW1MRQZWB43Tabr4", "latitude": 46.0081016, "longitude": -112.5480931, "care_type": "OB-GYN"}]