[{"name": "Dr Karine Arseneault", "address": "100 Rue Olivier B, Dieppe, NB E1A 1N6", "city": "Dieppe", "phone": "+1 506-383-4201", "website": "", "rating": 5.0, "reviews": 2, "place_id": "ChIJ7asI4ky5oEwRu6zxpsRqkcI", "latitude": 46.0952664, "longitude": -64.75326129999999, "care_type": "OB-GYN"}, {"name": "Dr Deborah Hawkins", "address": "100 Arden St #123, Moncton, NB E1C 4B7", "city": "Moncton", "phone": "", "website": "", "rating": 5.0, "reviews": 2, "place_id": "ChIJIbpifgC5oEwRkp27ca3MQa4", "latitude": 46.105973, "longitude": -64.80625599999999, "care_type": "OB-GYN"}, {"name": "Maternal Fetal Medicine Clinic", "address": "100 Arden St #315, Moncton, NB E1C 4B7", "city": "Moncton", "phone": "+1 506-870-2551", "website": "", "rating": 4.0, "reviews": 4, "place_id": "ChIJj7OQws24oEwRV7WVVwUm_mU", "latitude": 46.1059726, "longitude": -64.8062559, "care_type": "OB-GYN"}, {"name": "Dr Sophia Halassy", "address": "100 Rue Olivier B, Dieppe, NB E1A 1S4", "city": "Dieppe", "phone": "+1 506-204-2578", "website": "", "rating": null, "reviews": 0, "place_id": "ChIJ9YZzr9W5oEwRLvjTZHLOJ6Q", "latitude": 46.0952664, "longitude": -64.753261, "care_type": "OB-GYN"}, {"name": "Dre Carole Williams", "address": "100 Rue Olivier B, Dieppe, NB E1A 1S4", "city": "Dieppe", "phone": "+1 506-204-2578", "website": "", "rating": null, "reviews": 0, "place_id": "ChIJXbY1EAi5oEwRZiydzVlY7e4", "latitude": 46.0952664, "longitude": -64.753261, "care_type": "OB-GYN"}, {"name": "Gyn\u00e9cologie Chaleur Gynecology", "address": "970 Rue Principale, Beresford, NB E8K 2H6", "city": "Beresford", "phone": "", "website": "", "rating": 3.0, "reviews": 2, "place_id": "ChIJs1DJl4CTmEwRufpfTdTMiq4", "latitude": 47.69154839999999, "longitude": -65.7009261, "care_type": "OB-GYN"}, {"name": "Dr. Laurina Leyenaar", "address": "55 Drury Cove Rd, Saint John, NB E2H 2Z8", "city": "Saint John", "phone": "+1 506-214-9288", "website": "", "rating": 4.4, "reviews": 7, "place_id": "ChIJI-vbicyzp0wRmqqenr4EqFQ", "latitude": 45.33087159999999, "longitude": -66.0320169, "care_type": "OB-GYN"}, {"name": "Dr. Amanda Webb - OBGYN", "address": "55 Drury Cove Rd, Saint John, NB E2H 2Z8", "city": "Saint John", "phone": "+1 506-214-5500", "website": "", "rating": 4.2, "reviews": 5, "place_id": "ChIJ9RUa5gizp0wR6YBTURu4bxw", "latitude": 45.3309383, "longitude": -66.0321514, "care_type": "OB-GYN"}, {"name": "Dr. Craig Morton", "address": "55 Drury Cove Rd #101, Saint John, NB E2H 2Z8", "city": "Saint John", "phone": "+1 506-214-7866", "website": "", "rating": 4.3, "reviews": 6, "place_id": "ChIJF9C-Diyzp0wR51b64A7QDPI", "latitude": 45.3309383, "longitude": -66.0321514, "care_type": "OB-GYN"}, {"name": "Dr Allison DeLong - OBGYN", "address": "55 Drury Cove Rd, Saint John, NB E2H 2Z8", "city": "Saint John", "phone": "+1 506-214-5500", "website": "", "rating": 3.0, "reviews": 2, "place_id": "ChIJvcBTjPazp0wRA_Bf3P565so", "latitude": 45.3309383, "longitude": -66.0321514, "care_type": "OB-GYN"}, {"name": "Sussex Pregnancy & New Parents Centre", "address": "617 Main St, Sussex, NB E4E 2H9", "city": "Sussex", "phone": "+1 506-432-4006", "website": "http://sussexpregnancycare.com/", "rating": 5.0, "reviews": 2, "place_id": "ChIJ5bxo-4wip0wRpIQHB9pInv4", "latitude": 45.72306529999999, "longitude": -65.5080002, "care_type": "OB-GYN"}, {"name": "Capital OBGYN", "address": "1015 Regent St #201, Fredericton, NB E3B 3Y9", "city": "Fredericton", "phone": "+1 506-457-2113", "website": "http://capitalobgyn.ca/", "rating": 2.8, "reviews": 8, "place_id": "ChIJAQOyTRQipEwR1T9Q4wR8TR8", "latitude": 45.94245799999999, "longitude": -66.65567519999999, "care_type": "OB-GYN"}, {"name": "Ruth Farrell, MD", "address": "970 Rue Principale, Beresford, NB E8K 2H6", "city": "Beresford", "phone": "+1 506-548-4485", "website": "", "rating": 3.0, "reviews": 2, "place_id": "ChIJPZ0makWTmEwR1ipK5kmtO90", "latitude": 47.6916883, "longitude": -65.70111969999999, "care_type": "OB-GYN"}]