[{"name": "Dr. Anna Coolen", "address": "21 Roy Ave Suite 160, New Minas, NS B4N 3R7", "city": "New Minas", "phone": "+1 902-365-3888", "website": "", "rating": 4.7, "reviews": 13, "place_id": "ChIJ_eb3byhXWEsRX6xB4jEd6Go", "latitude": 45.068817, "longitude": -64.47059999999999, "care_type": "OB-GYN"}, {"name": "Coolen\u2022Joice\u2022Nette", "address": "21 Roy Ave Suite 160, New Minas, NS B4N 3R7", "city": "New Minas", "phone": "+1 902-365-3888", "website": "", "rating": 4.3, "reviews": 12, "place_id": "ChIJQ_OOCTxXWEsRyEcTRbFPAA8", "latitude": 45.068817, "longitude": -64.47059999999999, "care_type": "OB-GYN"}, {"name": "Tynski G Dr", "address": "8799 Commercial St, New Minas, NS B4N 3C4", "city": "New Minas", "phone": "+1 902-678-9679", "website": "", "rating": 4.4, "reviews": 7, "place_id": "ChIJu-QbLSlXWEsR2ivqb_Q5dwQ", "latitude": 45.07027859999999, "longitude": -64.4713696, "care_type": "OB-GYN"}, {"name": "Dr. Jaspal Singh", "address": "60 Aberdeen St, Kentville, NS B4N 2N3", "city": "Kentville", "phone": "", "website": "", "rating": null, "reviews": 0, "place_id": "ChIJa6-TFChXWEsRfNYiPFQFeC4", "latitude": 45.0784771, "longitude": -64.4965457, "care_type": "OB-GYN"}, {"name": "Glace Bay Hospital", "address": "300 South St, Glace Bay, NS B1A 1W5", "city": "Glace Bay", "phone": "+1 902-849-5511", "website": "http://www.nshealth.ca/locations-details/Glace%2520Bay%2520Hospital", "rating": 3.2, "reviews": 33, "place_id": "ChIJ7QWum3EKaEsRjtXYDhNlFAA", "latitude": 46.183254, "longitude": -59.938837, "care_type": "OB-GYN"}, {"name": "Juniper Group", "address": "1482 George St, Sydney, NS B1S 0K1", "city": "Sydney", "phone": "+1 902-567-7261", "website": "https://junipergroupcapebreton.ca/", "rating": 5.0, "reviews": 1, "place_id": "ChIJEZnGioj7Z0sROfGPWmSlr7w", "latitude": 46.1129202, "longitude": -60.1742686, "care_type": "OB-GYN"}, {"name": "Dr Cheryl Kathryn", "address": "1297 Station A, Sydney, NS B1P 6H6", "city": "Sydney", "phone": "", "website": "", "rating": null, "reviews": 0, "place_id": "ChIJd_pyVDf7Z0sRBUdugIAsOeQ", "latitude": 46.1389757, "longitude": -60.1946565, "care_type": "OB-GYN"}, {"name": "Maritime Women's Health Care", "address": "250 Baker Dr, Dartmouth, NS B2W 6L4", "city": "Dartmouth", "phone": "+1 902-463-1244", "website": "", "rating": 4.3, "reviews": 15, "place_id": "ChIJrzKolI4jWksRegYf8HeAfns", "latitude": 44.6574399, "longitude": -63.5308461, "care_type": "OB-GYN"}, {"name": "Obstetrics & Gynaecology Associates", "address": "182 Victoria Rd Ext, Dartmouth, NS B3A 1W2", "city": "Dartmouth", "phone": "+1 902-461-2246", "website": "", "rating": 3.5, "reviews": 19, "place_id": "ChIJS3OGX-cjWksRnVnQ2DfuD4U", "latitude": 44.6764232, "longitude": -63.5786162, "care_type": "OB-GYN"}, {"name": "Truro Women\u2019s Clinic", "address": "640 Prince St, Truro, NS B2N 1G4", "city": "Truro", "phone": "+1 902-893-3718", "website": "", "rating": 3.2, "reviews": 22, "place_id": "ChIJeYM-UmxPWUsROTaFngn4lYI", "latitude": 45.365043, "longitude": -63.2822706, "care_type": "OB-GYN"}, {"name": "Colchester Obs-Gyn", "address": "316 Willow St, Truro, NS B2N 5A4", "city": "Truro", "phone": "+1 902-895-4477", "website": "", "rating": 3.5, "reviews": 11, "place_id": "ChIJQ-8igelPWUsRoRFQQT9oCag", "latitude": 45.3543947, "longitude": -63.2949712, "care_type": "OB-GYN"}, {"name": "South Shore Women's Health", "address": "42 Glen Allan Dr Suite 207, Bridgewater, NS B4V 3N2", "city": "Bridgewater", "phone": "+1 902-543-8788", "website": "", "rating": 3.7, "reviews": 3, "place_id": "ChIJZ6v5QyJnV0sRdpxfuOgkX9c", "latitude": 44.383771, "longitude": -64.5140064, "care_type": "OB-GYN"}, {"name": "Bedford Basin Women's Health Clinic", "address": "967 Bedford Hwy Suite 208B, Bedford, NS B4A 1A9", "city": "Bedford", "phone": "+1 902-444-8726", "website": "https://bbwomenshealth.ca/", "rating": 3.1, "reviews": 38, "place_id": "ChIJyVY1E_SJWUsR4GAvhrK4HEI", "latitude": 44.71592829999999, "longitude": -63.67732849999999, "care_type": "OB-GYN"}, {"name": "Department of Obstetrics and Gynecology", "address": "5980 University Ave, Halifax, NS B3K 6R8", "city": "Halifax", "phone": "+1 902-494-2455", "website": "http://www.dal.ca/academics/academic_calendars/Dentistry_Law_Medicine_Calendar_2014_2015/Faculty_of_Medicine_Departments/Obstetrics_and_Gynecology.html", "rating": 3.3, "reviews": 6, "place_id": "ChIJsaVZdQIlVEARXIXLWlvgJE8", "latitude": 44.63755949999999, "longitude": -63.5828745, "care_type": "OB-GYN"}, {"name": "Dr Nathaniel Abutu", "address": "60 Vancouver St, Yarmouth, NS B5A 2P4", "city": "Yarmouth", "phone": "", "website": "", "rating": null, "reviews": 0, "place_id": "ChIJE6n9rkcRVksRbEyClRg3rIc", "latitude": 43.8506469, "longitude": -66.12176459999999, "care_type": "OB-GYN"}]