[{"name": "Caring For Women", "address": "705 Tiogue Ave, Coventry, RI 02816", "city": "Coventry", "phone": "+1 401-739-2000", "website": "http://www.rhodeislandhospital.org/", "rating": 2.8, "reviews": 4, "place_id": "ChIJc5JdWVY15IkRayK9ZpzJtDM", "latitude": 41.6836166, "longitude": -71.5588971, "care_type": "OB-GYN"}, {"name": "Lifespan Physician Group Gynecology - Warwick", "address": "400 Bald Hill Rd # 508, Warwick, RI 02886", "city": "Warwick", "phone": "+1 401-384-6444", "website": "https://www.lifespan.org/centers-services/obstetrics-and-gynecology-services/ob-gyn-practitioners", "rating": 5.0, "reviews": 1, "place_id": "ChIJIZnBGghM5IkRUPSuAj_rDbw", "latitude": 41.7239622, "longitude": -71.4767178, "care_type": "OB-GYN"}, {"name": "Caring For Women", "address": "166 Toll Gate Rd, Warwick, RI 02886", "city": "Warwick", "phone": "+1 401-739-2000", "website": "https://www.womenandinfants.org/services/obstetrics-gynecology-care", "rating": 3.4, "reviews": 61, "place_id": "ChIJM_1KnHtM5IkRd_WW5y5PVAE", "latitude": 41.7000078, "longitude": -71.46877719999999, "care_type": "OB-GYN"}, {"name": "Toll Gate Obstetrics & GYN.Erinakes Christos MD", "address": "390 Toll Gate Rd # 101, Warwick, RI 02886", "city": "Warwick", "phone": "+1 401-737-2280", "website": "", "rating": 4.5, "reviews": 8, "place_id": "ChIJG2kxb3hM5IkRIW_WMUXx_hk", "latitude": 41.7023915, "longitude": -71.4767507, "care_type": "OB-GYN"}, {"name": "Mary Catherine DeRosa, MD", "address": "400 Bald Hill Rd # 508, Warwick, RI 02886", "city": "Warwick", "phone": "+1 401-384-6444", "website": "https://www.brownhealth.org/people/mary-catherine-derosa-md-facog-ncmp-ccd", "rating": 5.0, "reviews": 3, "place_id": "ChIJTTKxBwhM5IkR5VPKLntJvkc", "latitude": 41.7250874, "longitude": -71.4766167, "care_type": "OB-GYN"}, {"name": "Robert A. Salk, DO", "address": "166 Toll Gate Rd STE 306, Warwick, RI 02886", "city": "Warwick", "phone": "+1 401-739-2000", "website": "https://www.brownhealth.org/providers/robert-salk-do", "rating": 2.3, "reviews": 22, "place_id": "ChIJM_1KnHtM5IkRXJeZ4bF7Img", "latitude": 41.6999972, "longitude": -71.4687519, "care_type": "OB-GYN"}, {"name": "Lifespan Obstetrics and Gynecology Services - Warwick", "address": "400 Bald Hill Rd Suite 508, Warwick, RI 02886", "city": "Warwick", "phone": "+1 401-384-6444", "website": "https://www.lifespan.org/centers-services/obstetrics-and-gynecology-services", "rating": null, "reviews": 0, "place_id": "ChIJ84FnBdG75YkRD_TRZp3VuNU", "latitude": 41.7256256, "longitude": -71.4790271, "care_type": "OB-GYN"}, {"name": "Womens Medical Center Of Rhode Island", "address": "215 Toll Gate Rd #106, Warwick, RI 02886", "city": "Warwick", "phone": "+1 401-467-9111", "website": "", "rating": 3.7, "reviews": 6, "place_id": "ChIJu3Lq_MFP5IkR9G89I6jM9KE", "latitude": 41.7012679, "longitude": -71.469916, "care_type": "OB-GYN"}, {"name": "Dr. John DiOrio Jr, MD", "address": "215 Toll Gate Rd #106, Warwick, RI 02886", "city": "Warwick", "phone": "", "website": "", "rating": 5.0, "reviews": 6, "place_id": "ChIJu3Lq_MFP5IkRLqhYSi1zcY0", "latitude": 41.7012679, "longitude": -71.469916, "care_type": "OB-GYN"}, {"name": "Independent Woman", "address": "400 Bald Hill Rd # 508, Warwick, RI 02886", "city": "Warwick", "phone": "+1 401-384-6444", "website": "", "rating": 3.0, "reviews": 2, "place_id": "ChIJTTKxBwhM5IkRyOatlVGrZpo", "latitude": 41.7262468, "longitude": -71.4767269, "care_type": "OB-GYN"}, {"name": "South County Health Center for Women's Health \u2014 Warwick", "address": "120 Centerville Rd, Warwick, RI 02886", "city": "Warwick", "phone": "+1 401-789-0661", "website": "https://www.southcountyhealth.org/services-care/primary-care/south-county-health-medical-wellness-centers/medical-and-wellness-center-warwick", "rating": 3.1, "reviews": 10, "place_id": "ChIJ8ea5Ykmz5YkRE1L9Z-f5kUA", "latitude": 41.6973981, "longitude": -71.4641941, "care_type": "OB-GYN"}, {"name": "J. Douglas Nisbet, II, MD", "address": "390 Toll Gate Rd STE 201, Warwick, RI 02886", "city": "Warwick", "phone": "+1 401-738-8800", "website": "https://www.brownhealth.org/providers/j-douglas-nisbet-ii-md", "rating": 3.5, "reviews": 39, "place_id": "ChIJG2kxb3hM5IkRJxEnrCidLbU", "latitude": 41.7023069, "longitude": -71.4767475, "care_type": "OB-GYN"}, {"name": "A.Michael Coppa, M.D.", "address": "725 Reservoir Ave STE 203, Cranston, RI 02910", "city": "Cranston", "phone": "+1 401-946-4022", "website": "https://www.drcoppaobgyn.com/%3Futm_source%3Dgmb_auth", "rating": 4.8, "reviews": 590, "place_id": "ChIJl0d2vRFP5IkRyIMha8EIQPY", "latitude": 41.780429, "longitude": -71.44385799999999, "care_type": "OB-GYN"}, {"name": "Dr. Kumiko Tanaka", "address": "166 Toll Gate Rd, Warwick, RI 02886", "city": "Warwick", "phone": "+1 401-273-0641", "website": "", "rating": 5.0, "reviews": 1, "place_id": "ChIJq6penHtM5IkRVGdFXMABRoA", "latitude": 41.6999791, "longitude": -71.4687828, "care_type": "OB-GYN"}, {"name": "Nisbet & Scott", "address": "390 Toll Gate Rd STE 201, Warwick, RI 02886", "city": "Warwick", "phone": "+1 401-738-8800", "website": "", "rating": 4.1, "reviews": 12, "place_id": "ChIJG2kxb3hM5IkRu6fxb68oWKU", "latitude": 41.7023915, "longitude": -71.4767507, "care_type": "OB-GYN"}, {"name": "Alfredo Gil", "address": "390 Toll Gate Rd # 204, Warwick, RI 02886", "city": "Warwick", "phone": "+1 401-737-2280", "website": "", "rating": 5.0, "reviews": 3, "place_id": "ChIJQTPxhXhM5IkR2p6SgkHZ64o", "latitude": 41.7025821, "longitude": -71.4767214, "care_type": "OB-GYN"}, {"name": "Lifespan Physician Group, OBGYN Associates", "address": "1377 S County Trl, East Greenwich, RI 02818", "city": "East Greenwich", "phone": "+1 401-606-3000", "website": "http://www.rhodeislandhospital.org/", "rating": 2.8, "reviews": 11, "place_id": "ChIJ6fiGG7W05YkRzo23gBxMbQs", "latitude": 41.6591613, "longitude": -71.4985896, "care_type": "OB-GYN"}, {"name": "Venus OBGYN", "address": "1150 Reservoir Ave #300, Cranston, RI 02920", "city": "Cranston", "phone": "+1 401-223-2828", "website": "https://www.venusobgyn.com/", "rating": 4.5, "reviews": 130, "place_id": "ChIJ8TvY9d9O5IkRwCV_BOJnlnY", "latitude": 41.7689611, "longitude": -71.45476719999999, "care_type": "OB-GYN"}, {"name": "Mark F. Scott, MD", "address": "390 Toll Gate Rd STE 201, Warwick, RI 02886", "city": "Warwick", "phone": "+1 401-738-8800", "website": "https://www.brownhealth.org/providers/mark-f-scott-md", "rating": 4.0, "reviews": 2, "place_id": "ChIJG2kxb3hM5IkRWD4d95OtAnE", "latitude": 41.7023069, "longitude": -71.4767475, "care_type": "OB-GYN"}, {"name": "Annmarie Jurczak, MD", "address": "1377 S County Trl, East Greenwich, RI 02818", "city": "East Greenwich", "phone": "+1 401-606-3000", "website": "https://www.brownhealth.org/providers/annmarie-jurczak-md-facog", "rating": 5.0, "reviews": 4, "place_id": "ChIJn5gxGA9F5IkRHX4cjzeg93U", "latitude": 41.6591613, "longitude": -71.4985896, "care_type": "OB-GYN"}, {"name": "Amr Abdel Kader, MD", "address": "1150 Reservoir Ave #300, Cranston, RI 02920", "city": "Cranston", "phone": "+1 401-223-2828", "website": "https://www.venusobgyn.com/", "rating": 5.0, "reviews": 11, "place_id": "ChIJcxwhEWZF5IkRnxq8Q1pv_tU", "latitude": 41.768959, "longitude": -71.454804, "care_type": "OB-GYN"}, {"name": "Center for Obstetrics & Gynecology", "address": "297 Promenade St, Providence, RI 02908", "city": "Providence", "phone": "+1 401-490-6464", "website": "http://www.center-obgyn.com/", "rating": 3.0, "reviews": 126, "place_id": "ChIJn5gxGA9F5IkR8zy4siJcxSY", "latitude": 41.8306099, "longitude": -71.4221921, "care_type": "OB-GYN"}, {"name": "Erin Kunkel, MD", "address": "2639 S County Trl, East Greenwich, RI 02818", "city": "East Greenwich", "phone": "+1 401-400-2699", "website": "https://www.directdoctors.org/womens-health.html", "rating": 4.9, "reviews": 28, "place_id": "ChIJ75WwgqFF5IkR_RB23vvFWaI", "latitude": 41.6245604, "longitude": -71.4928992, "care_type": "OB-GYN"}, {"name": "Dr. Michael A. Economos, MD", "address": "215 Toll Gate Rd, Warwick, RI 02886", "city": "Warwick", "phone": "+1 401-732-5600", "website": "", "rating": null, "reviews": 0, "place_id": "ChIJ69dFyHtM5IkRAuiG-Mgolcc", "latitude": 41.7012679, "longitude": -71.469916, "care_type": "OB-GYN"}, {"name": "Mohamad Hamdi, MD", "address": "120 Centerville Rd, Warwick, RI 02886", "city": "Warwick", "phone": "+1 401-789-0661", "website": "https://www.southcountyhealth.org/doctors/mohamad-hamdi-md/431", "rating": 1.0, "reviews": 1, "place_id": "ChIJq6o6QGNM5IkRFRhVOaMGf4Q", "latitude": 41.69733, "longitude": -71.4641188, "care_type": "OB-GYN"}, {"name": "Dr. Bethany Wortman, MD", "address": "Landmark Obgyn and Midwifery, 206 Cass Ave, Woonsocket, RI 02895", "city": "Woonsocket", "phone": "+1 401-597-5070", "website": "", "rating": 4.5, "reviews": 40, "place_id": "ChIJM_1KnHtM5IkRLgcNPAdPk9Q", "latitude": 42.00604999999999, "longitude": -71.495284, "care_type": "OB-GYN"}, {"name": "Lefkowitz Janet B MD", "address": "166 Toll Gate Rd, Warwick, RI 02886", "city": "Warwick", "phone": "+1 401-739-2000", "website": "http://www.rhodeislandhospital.org/", "rating": 1.0, "reviews": 1, "place_id": "ChIJM_1KnHtM5IkRhApwjjCHmqM", "latitude": 41.7000187, "longitude": -71.46877169999999, "care_type": "OB-GYN"}, {"name": "Koen Susan M", "address": "455 Toll Gate Rd, Warwick, RI 02886", "city": "Warwick", "phone": "+1 401-737-7000", "website": "http://www.kenthospital.org/", "rating": null, "reviews": 0, "place_id": "ChIJX8i3_YdL5IkRnHOXGMVwSqg", "latitude": 41.705411, "longitude": -71.477898, "care_type": "OB-GYN"}, {"name": "Dr. Elizabeth A. Mayhall, MD", "address": "101 Dudley St, Providence, RI 02905", "city": "Providence", "phone": "+1 401-274-1100", "website": "http://www.womenandinfants.org/", "rating": 4.0, "reviews": 4, "place_id": "ChIJdWawtGhF5IkReSUHbA5ywYU", "latitude": 41.8108357, "longitude": -71.4122641, "care_type": "OB-GYN"}, {"name": "David A. Carcieri, MD Inc", "address": "1637 Mineral Spring Ave Suite 211, North Providence, RI 02904", "city": "North Providence", "phone": "+1 401-443-8719", "website": "https://www.carcieriobgyn.com/", "rating": 4.4, "reviews": 53, "place_id": "ChIJk1Q0j2pE5IkR83BD5sHRzAg", "latitude": 41.8652199, "longitude": -71.4510781, "care_type": "OB-GYN"}, {"name": "Brown Health Medical Group Obstetrics & Gynecology - East Greenwich", "address": "1377 S County Trl Unit 2A, East Greenwich, RI 02818", "city": "East Greenwich", "phone": "+1 401-606-3000", "website": "https://www.brownhealth.org/centers-services/obstetrics-and-gynecology-services", "rating": 5.0, "reviews": 3, "place_id": "ChIJ6fiGG7W05YkR0D6H65B_bqA", "latitude": 41.6591613, "longitude": -71.4985896, "care_type": "OB-GYN"}, {"name": "A. Michael Coppa, MD", "address": "101 Dudley St, Providence, RI 02905", "city": "Providence", "phone": "+1 401-274-1100", "website": "https://www.drcoppaobgyn.com/%3Futm_source%3Dgmb_auth", "rating": 5.0, "reviews": 41, "place_id": "ChIJzeHuuZlF5IkRYirWeQGogSU", "latitude": 41.8108357, "longitude": -71.4122641, "care_type": "OB-GYN"}, {"name": "Kathleen C Bowling, MD", "address": "235 Plain St # 401, Providence, RI 02905", "city": "Providence", "phone": "+1 401-421-1710", "website": "https://www.brownhealth.org/providers/kathleen-c-bowling-md", "rating": 5.0, "reviews": 13, "place_id": "ChIJnxZNF2ZF5IkRo8jGv1noBPI", "latitude": 41.8090914, "longitude": -71.4110843, "care_type": "OB-GYN"}, {"name": "Women & Infants Hospital", "address": "101 Dudley St, Providence, RI 02905", "city": "Providence", "phone": "+1 401-274-1100", "website": "http://www.womenandinfants.org/", "rating": 2.9, "reviews": 390, "place_id": "ChIJdWawtGhF5IkRCyrBlCXyyNQ", "latitude": 41.8108373, "longitude": -71.4125038, "care_type": "OB-GYN"}, {"name": "Partners In Obstetrics", "address": "1050 Main St, East Greenwich, RI 02818", "city": "East Greenwich", "phone": "+1 401-724-0600", "website": "https://www.piobgyn.com/", "rating": 5.0, "reviews": 1, "place_id": "ChIJT0zh10uz5YkRgxgF2zy2ckg", "latitude": 41.649397, "longitude": -71.45745699999999, "care_type": "OB-GYN"}, {"name": "Kaitlin Lee, MD, FACOG", "address": "120 Centerville Rd, Warwick, RI 02886", "city": "Warwick", "phone": "+1 401-789-0661", "website": "https://www.southcountyhealth.org/doctors/kaitlin-r-lee-md-facog/584", "rating": null, "reviews": 0, "place_id": "ChIJfUJ01fRN5IkR8tCInh5bsyg", "latitude": 41.69733, "longitude": -71.4641188, "care_type": "OB-GYN"}, {"name": "Dr. Beata Dizoglio", "address": "1539 Atwood Ave #301, Johnston, RI 02919", "city": "Johnston", "phone": "+1 401-272-1500", "website": "https://www.broadwayobgynri.com/beata-dizoglio-m-d-facog/", "rating": 5.0, "reviews": 1, "place_id": "ChIJsVwQSxZG5IkRQCz1FE305S4", "latitude": 41.8270883, "longitude": -71.4994502, "care_type": "OB-GYN"}, {"name": "Broadway OB/GYN", "address": "695 Eddy St, Providence, RI 02905", "city": "Providence", "phone": "+1 401-272-1550", "website": "http://www.broadwayobgynri.com/", "rating": 3.3, "reviews": 110, "place_id": "ChIJsXog4mdF5IkRLTpU1RA9NDQ", "latitude": 41.8093361, "longitude": -71.4073709, "care_type": "OB-GYN"}, {"name": "Dr. Jospeh D. Dizoglio, MD", "address": "695 Eddy St, Providence, RI 02905", "city": "Providence", "phone": "+1 401-272-1550", "website": "http://www.rhodeislandhospital.org/", "rating": 5.0, "reviews": 1, "place_id": "ChIJsXog4mdF5IkRSUbGQl48jBw", "latitude": 41.8091641, "longitude": -71.4075415, "care_type": "OB-GYN"}, {"name": "Debra L. Goldman, MD", "address": "1377 S County Trl Unit 2A, East Greenwich, RI 02818", "city": "East Greenwich", "phone": "+1 401-606-3000", "website": "https://www.brownhealth.org/providers/debra-l-goldman-md", "rating": 3.7, "reviews": 6, "place_id": "ChIJ-4tIn7W05YkRl9xO0gUPWIc", "latitude": 41.6591613, "longitude": -71.4985896, "care_type": "OB-GYN"}, {"name": "Independent Woman: De Rosa Mary C MD", "address": "400 Bald Hill Rd # 508, Warwick, RI 02886", "city": "Warwick", "phone": "+1 401-384-6444", "website": "", "rating": null, "reviews": 0, "place_id": "ChIJTTKxBwhM5IkRAqciTXg_Jpk", "latitude": 41.7262145, "longitude": -71.47650159999999, "care_type": "OB-GYN"}, {"name": "Bayside OBGYN Inc.", "address": "235 Plain St 401, Suite 401, Providence, RI 02905", "city": "Providence", "phone": "+1 401-648-2569", "website": "http://baysideobgyn.com/", "rating": 3.1, "reviews": 52, "place_id": "ChIJnxZNF2ZF5IkRibCtFNt6J5o", "latitude": 41.80909339999999, "longitude": -71.4111709, "care_type": "OB-GYN"}, {"name": "Martha Moe, MD", "address": "120 Centerville Rd, Warwick, RI 02886", "city": "Warwick", "phone": "+1 401-789-0661", "website": "", "rating": null, "reviews": 0, "place_id": "ChIJ0T-4QedN5IkRyoISTuAcTUA", "latitude": 41.69733, "longitude": -71.4641188, "care_type": "OB-GYN"}, {"name": "Healthy Beginnings", "address": "215 Toll Gate Rd #106, Warwick, RI 02886", "city": "Warwick", "phone": "+1 401-732-5600", "website": "", "rating": null, "reviews": 0, "place_id": "ChIJ69dFyHtM5IkREJC4Epwi1a8", "latitude": 41.7013038, "longitude": -71.47006809999999, "care_type": "OB-GYN"}, {"name": "Dr. Estefania Santamaria Flores", "address": "1539 Atwood Ave #301, Johnston, RI 02919", "city": "Johnston", "phone": "+1 401-272-1550", "website": "", "rating": 5.0, "reviews": 1, "place_id": "ChIJsVwQSxZG5IkRV6y6j1-7orA", "latitude": 41.8270883, "longitude": -71.4994502, "care_type": "OB-GYN"}, {"name": "Brown Health Medical Group Obstetrics & Gynecology - Providence", "address": "148 W River St Suite 8, Providence, RI 02904", "city": "Providence", "phone": "+1 401-606-3000", "website": "https://www.brownhealth.org/centers-services/obstetrics-and-gynecology-services", "rating": 3.2, "reviews": 28, "place_id": "ChIJCWwnVEtF5IkRu9wMEFNM1YI", "latitude": 41.8436971, "longitude": -71.4146298, "care_type": "OB-GYN"}, {"name": "Ob-Gyn Associates Inc", "address": "146 W River St, Providence, RI 02904", "city": "Providence", "phone": "+1 401-331-6980", "website": "", "rating": 2.7, "reviews": 22, "place_id": "ChIJXXJQQh5F5IkRFdWfbz9ybXk", "latitude": 41.8435411, "longitude": -71.4149583, "care_type": "OB-GYN"}, {"name": "Courtney Noonan", "address": "695 Eddy St #21, Providence, RI 02903", "city": "Providence", "phone": "+1 401-272-1550", "website": "https://www.broadwayobgynri.com/courtney-noonan-md-facog/", "rating": 5.0, "reviews": 6, "place_id": "ChIJjZLJ4WdF5IkRvwdz3cr_tOw", "latitude": 41.8091745, "longitude": -71.40746, "care_type": "OB-GYN"}, {"name": "Beata E. DiZoglio, MD", "address": "685 Eddy St Suite 21, Providence, RI 02903", "city": "Providence", "phone": "+1 401-272-1550", "website": "https://www.brownhealth.org/providers/beata-e-dizoglio-md", "rating": 3.7, "reviews": 6, "place_id": "ChIJsXog4mdF5IkRirTdQ7qmPOM", "latitude": 41.8096817, "longitude": -71.4072925, "care_type": "OB-GYN"}, {"name": "Laina E. Crowthers, MD", "address": "695 Eddy St #21, Providence, RI 02903", "city": "Providence", "phone": "+1 401-272-1550", "website": "https://www.brownhealth.org/providers/laina-e-crowthers-md", "rating": 3.5, "reviews": 8, "place_id": "ChIJsXog4mdF5IkRJM0FT05adgs", "latitude": 41.8091745, "longitude": -71.40746, "care_type": "OB-GYN"}, {"name": "Dr. Anh-Tai V. Dang, MD", "address": "18 Imperial Pl, Providence, RI 02903", "city": "Providence", "phone": "+1 401-616-1627", "website": "", "rating": 5.0, "reviews": 11, "place_id": "ChIJ7eXknGtF5IkR8oipK-J9gpU", "latitude": 41.8168905, "longitude": -71.41124889999999, "care_type": "OB-GYN"}, {"name": "Constance M. Brennan, MD, FACOG", "address": "1539 Atwood Ave UNIT 2, Johnston, RI 02919", "city": "Johnston", "phone": "+1 401-272-1550", "website": "http://broadwayobgynri.com/", "rating": null, "reviews": 0, "place_id": "ChIJgWUdSxZG5IkRD7NwWzoPDcc", "latitude": 41.8271044, "longitude": -71.4995007, "care_type": "OB-GYN"}, {"name": "Women & Infants Hospital of RI: Robison Katina MD", "address": "101 Dudley St, Providence, RI 02905", "city": "Providence", "phone": "+1 401-274-1100", "website": "http://www.womenandinfants.org/", "rating": 5.0, "reviews": 3, "place_id": "ChIJdWawtGhF5IkRmKb78Sh_wEE", "latitude": 41.8109879, "longitude": -71.4119953, "care_type": "OB-GYN"}, {"name": "Michael David Beitle, MD", "address": "235 Plain St, Providence, RI 02905", "city": "Providence", "phone": "+1 401-274-1533", "website": "https://www.brownhealth.org/providers/michael-david-beitle-md", "rating": 4.5, "reviews": 52, "place_id": "ChIJsXog4mdF5IkRp6hiBEvWOjU", "latitude": 41.8090725, "longitude": -71.4111135, "care_type": "OB-GYN"}, {"name": "Anthony Manocchio Inc", "address": "1524 Atwood Ave STE 442, Johnston, RI 02919", "city": "Johnston", "phone": "+1 401-273-1666", "website": "", "rating": 5.0, "reviews": 1, "place_id": "ChIJbb-SgT1G5IkR6AHg9dwlqp4", "latitude": 41.8273987, "longitude": -71.5016612, "care_type": "OB-GYN"}, {"name": "South County Health Center for Women's Health - Wakefield", "address": "70 Kenyon Avenue Suite G80, Ground Floor, Wakefield, RI 02879", "city": "Wakefield", "phone": "+1 401-789-0661", "website": "https://www.southcountyhealth.org/programs-services/center-for-women-s-health", "rating": 3.7, "reviews": 15, "place_id": "ChIJGyxRd0y55YkRg8ByxgH2p9w", "latitude": 41.43099, "longitude": -71.4963889, "care_type": "OB-GYN"}, {"name": "Dr. Cheryl Brodsky, MD", "address": "49 S County Commons Way, Wakefield, RI 02879", "city": "Wakefield", "phone": "+1 401-331-6980", "website": "http://www.rhodeislandhospital.org/", "rating": 5.0, "reviews": 1, "place_id": "ChIJY5iNJdG75YkRLo-ehZYqwR0", "latitude": 41.4561084, "longitude": -71.47079719999999, "care_type": "OB-GYN"}, {"name": "Broadway Ob-Gyn", "address": "49 S County Commons Way, Wakefield, RI 02879", "city": "Wakefield", "phone": "+1 401-272-1550", "website": "https://www.broadwayobgynri.com/", "rating": null, "reviews": 0, "place_id": "ChIJY5iNJdG75YkR-vFNBGrFkB0", "latitude": 41.4561493, "longitude": -71.46980479999999, "care_type": "OB-GYN"}, {"name": "Martha Moe, MD", "address": "70 Kenyon Avenue Suite G80, Ground Floor, Wakefield, RI 02879", "city": "Wakefield", "phone": "+1 401-789-0661", "website": "https://www.southcountyhealth.org/doctors/martha-moe-md", "rating": 5.0, "reviews": 1, "place_id": "ChIJ8cPiG8m55YkRImuYGGqkpGM", "latitude": 41.43099, "longitude": -71.4963889, "care_type": "OB-GYN"}, {"name": "Sarah West Allen, CNM", "address": "70 Kenyon Avenue Suite G80, Ground Floor, Wakefield, RI 02879", "city": "Wakefield", "phone": "+1 401-789-0661", "website": "https://www.southcountyhealth.org/doctors/sarah-west-allen-cnm/611", "rating": 3.7, "reviews": 3, "place_id": "ChIJeU-OIDm55YkRCvZKrjGCPcA", "latitude": 41.43099, "longitude": -71.4963889, "care_type": "OB-GYN"}, {"name": "Newport Ob/gyn Associates", "address": "19 Friendship St # 220, Newport, RI 02840", "city": "Newport", "phone": "+1 401-848-5556", "website": "", "rating": 5.0, "reviews": 4, "place_id": "ChIJJa3qsz6v5YkRX-TEq0FmeCA", "latitude": 41.497413, "longitude": -71.305517, "care_type": "OB-GYN"}, {"name": "Naomi Deutschman, CNM", "address": "70 Kenyon Avenue Suite G80, Ground Floor, Wakefield, RI 02879", "city": "Wakefield", "phone": "+1 401-789-0661", "website": "https://www.southcountyhealth.org/doctors/naomi-deutschman-cnm/554", "rating": 3.7, "reviews": 3, "place_id": "ChIJnRHIe3S55YkRuG0LuFAFS0w", "latitude": 41.43099, "longitude": -71.4963889, "care_type": "OB-GYN"}, {"name": "Carolyn Howard, MD", "address": "Potter Bldg, 6 Butterfield Rd, Kingston, RI 02881", "city": "Kingston", "phone": "+1 401-874-2246", "website": "", "rating": 5.0, "reviews": 4, "place_id": "ChIJb4ERlE645YkRclPwfXyJrjg", "latitude": 41.486235, "longitude": -71.532032, "care_type": "OB-GYN"}, {"name": "South County Health Center for Women's Health - Westerly", "address": "268 Post Rd 1) Suite 202, Westerly, RI 02891", "city": "Westerly", "phone": "+1 401-789-0661", "website": "https://www.southcountyhealth.org/services-care/primary-care/south-county-health-medical-wellness-centers/medical-and-wellness-center-westerly", "rating": 5.0, "reviews": 1, "place_id": "ChIJu9iWdSzn5YkRxL9na2h6LO0", "latitude": 41.3526031, "longitude": -71.7635919, "care_type": "OB-GYN"}, {"name": "Dr. Suzanne C. Dambek, MD", "address": "49 S County Commons Way, Wakefield, RI 02879", "city": "Wakefield", "phone": "+1 401-331-6980", "website": "http://www.rhodeislandhospital.org/", "rating": 4.0, "reviews": 4, "place_id": "ChIJY5iNJdG75YkRtqbgu5duR7Y", "latitude": 41.4561084, "longitude": -71.47079719999999, "care_type": "OB-GYN"}, {"name": "Megin Dalton, MD", "address": "70 Kenyon Avenue Suite G80, Ground Floor, Wakefield, RI 02879", "city": "Wakefield", "phone": "+1 401-789-0661", "website": "https://www.southcountyhealth.org/doctors/megin-dalton-md-chief-of-ob-gyn-medical-director-center-for-womens-health", "rating": 2.0, "reviews": 8, "place_id": "ChIJlZACnku55YkRV0yNb5tcRvo", "latitude": 41.43099, "longitude": -71.4963889, "care_type": "OB-GYN"}, {"name": "Dr. Colleen P. Cavanaugh, MD", "address": "49 S County Commons Way, Wakefield, RI 02879", "city": "Wakefield", "phone": "+1 401-331-6980", "website": "http://www.rhodeislandhospital.org/", "rating": null, "reviews": 0, "place_id": "ChIJY5iNJdG75YkR1GC1ZjNM17M", "latitude": 41.4561084, "longitude": -71.47079719999999, "care_type": "OB-GYN"}, {"name": "Ob/gyn And Midwifery Of Newport", "address": "358 Broadway, Newport, RI 02840", "city": "Newport", "phone": "+1 401-846-5590", "website": "https://www.southcoast.org/locations/obstetrical-associates/", "rating": 2.0, "reviews": 4, "place_id": "ChIJOy7Mazyv5YkRRLdsi2p33mE", "latitude": 41.4998657, "longitude": -71.3065143, "care_type": "OB-GYN"}, {"name": "Serena A Sposato Md", "address": "49 S County Commons Way, South Kingstown, RI 02879", "city": "South Kingstown", "phone": "+1 401-521-1522", "website": "", "rating": null, "reviews": 0, "place_id": "ChIJY5iNJdG75YkR6WWnKxKU-fc", "latitude": 41.4561084, "longitude": -71.47079719999999, "care_type": "OB-GYN"}, {"name": "Dr. Meera V. Simoes, MD", "address": "49 S County Commons Way, Wakefield, RI 02879", "city": "Wakefield", "phone": "+1 401-331-6980", "website": "http://www.rhodeislandhospital.org/", "rating": null, "reviews": 0, "place_id": "ChIJY5iNJdG75YkREK4S2qN5378", "latitude": 41.4561084, "longitude": -71.47079719999999, "care_type": "OB-GYN"}, {"name": "Dr. Jeffrey F. Joseph, MD", "address": "70 Kenyon Ave # 103, Wakefield, RI 02879", "city": "Wakefield", "phone": "+1 401-789-0661", "website": "", "rating": 5.0, "reviews": 7, "place_id": "ChIJGyxRd0y55YkRmteNJtg9B9A", "latitude": 41.4311431, "longitude": -71.4949358, "care_type": "OB-GYN"}, {"name": "O'Neill Robert T MD", "address": "70 Kenyon Ave, Wakefield, RI 02879", "city": "Wakefield", "phone": "+1 401-782-9900", "website": "", "rating": null, "reviews": 0, "place_id": "ChIJGyxRd0y55YkR250uk-OkD5Q", "latitude": 41.43099, "longitude": -71.4963889, "care_type": "OB-GYN"}, {"name": "Kaitlin Lee, MD, FACOG", "address": "70 Kenyon Avenue Suite G80, Ground Floor, Wakefield, RI 02879", "city": "Wakefield", "phone": "+1 401-789-0661", "website": "https://www.southcountyhealth.org/doctors/kaitlin-r-lee-md-facog/584", "rating": null, "reviews": 0, "place_id": "ChIJZUPXmEu55YkRaNaONodsZQM", "latitude": 41.43099, "longitude": -71.4963889, "care_type": "OB-GYN"}, {"name": "Center for Women's Health", "address": "3461 S County Trl, East Greenwich, RI 02818", "city": "East Greenwich", "phone": "+1 401-789-0661", "website": "http://www.southcountyhealth.org/", "rating": 5.0, "reviews": 2, "place_id": "ChIJT0zh10uz5YkRY_2amwrlJMs", "latitude": 41.6030374, "longitude": -71.4966252, "care_type": "OB-GYN"}, {"name": "Brown Health Medical Group Women\u2019s Health - Portsmouth, RI", "address": "77 Turnpike Ave, Portsmouth, RI 02871", "city": "Portsmouth", "phone": "+1 401-848-5556", "website": "https://www.brownhealth.org/centers-services/newport-womens-health", "rating": 4.0, "reviews": 8, "place_id": "ChIJ1_I0FiOr5YkRIk-oHeSaSQM", "latitude": 41.6031595, "longitude": -71.2498837, "care_type": "OB-GYN"}, {"name": "Cassin Kathleen A MD", "address": "70 Kenyon Ave # 323, Wakefield, RI 02879", "city": "Wakefield", "phone": "+1 401-284-1370", "website": "", "rating": 5.0, "reviews": 1, "place_id": "ChIJGyxRd0y55YkRnnL5SWQUb8g", "latitude": 41.4311431, "longitude": -71.4949358, "care_type": "OB-GYN"}, {"name": "Mohamad Hamdi, MD", "address": "70 Kenyon Avenue Suite G80, Ground Floor, Wakefield, RI 02879", "city": "Wakefield", "phone": "+1 401-789-0661", "website": "https://www.southcountyhealth.org/doctors/mohamad-hamdi-md/431", "rating": null, "reviews": 0, "place_id": "ChIJi71knku55YkR9hQQetEYJHM", "latitude": 41.43099, "longitude": -71.4963889, "care_type": "OB-GYN"}, {"name": "Steven Schneider, MD", "address": "70 Kenyon Avenue Suite G80, Ground Floor, Wakefield, RI 02879", "city": "Wakefield", "phone": "+1 401-789-0661", "website": "https://www.southcountyhealth.org/doctors/steven-h-schneider-md/271", "rating": null, "reviews": 0, "place_id": "ChIJGyxRd0y55YkRdlGTdPN1DDg", "latitude": 41.43099, "longitude": -71.4963889, "care_type": "OB-GYN"}, {"name": "Dr. Alfredo Gil, MD", "address": "1407 S County Trl, East Greenwich, RI 02818", "city": "East Greenwich", "phone": "+1 401-727-4800", "website": "http://www.rhodeislandhospital.org/", "rating": 3.7, "reviews": 3, "place_id": "ChIJ-4tIn7W05YkR5EC8ErEkSDE", "latitude": 41.6582826, "longitude": -71.49976629999999, "care_type": "OB-GYN"}, {"name": "Karen Browning", "address": "297 Promenade St, Providence, RI 02908", "city": "Providence", "phone": "+1 401-490-6464", "website": "https://www.center-obgyn.com/karen-browning-m-d/", "rating": 5.0, "reviews": 1, "place_id": "ChIJq6rqZg9F5IkRQz8Y3kxiHuA", "latitude": 41.8305576, "longitude": -71.4222368, "care_type": "OB-GYN"}, {"name": "Rameaka Lisa S MD", "address": "70 Kenyon Ave #103, Wakefield, RI 02879", "city": "Wakefield", "phone": "+1 401-789-0661", "website": "http://schospital.com/", "rating": null, "reviews": 0, "place_id": "ChIJGyxRd0y55YkRWic1UdS6FO4", "latitude": 41.43099, "longitude": -71.4963889, "care_type": "OB-GYN"}, {"name": "Emily G. Blosser, MD, PhD", "address": "20 Powel Ave, Newport, RI 02840", "city": "Newport", "phone": "+1 401-848-5556", "website": "https://www.brownhealth.org/providers/emily-g-blosser-md-phd", "rating": 5.0, "reviews": 4, "place_id": "ChIJHxM_vWqv5YkRH4s9NTbBqd8", "latitude": 41.4968059, "longitude": -71.30618419999999, "care_type": "OB-GYN"}, {"name": "Women's Care East Greenwich Office", "address": "1407 S County Trail, STE 420, (Building 4, 2nd floor, 1351 S County Trl Suite 210, East Greenwich, RI 02818", "city": "East Greenwich", "phone": "+1 401-727-4800", "website": "http://www.womenandinfants.org/alliance/womens-care-contact.cfm", "rating": 3.0, "reviews": 21, "place_id": "ChIJ_3WQL2RM5IkRJDdFLLBTtwM", "latitude": 41.6591628, "longitude": -71.5001011, "care_type": "OB-GYN"}, {"name": "Rebecca J. Mercier, MD, MPH", "address": "148 W River St 1st Floor, Suite 8, Providence, RI 02904", "city": "Providence", "phone": "+1 401-606-3000", "website": "https://www.brownhealth.org/providers/rebecca-j-mercier-md-mph", "rating": null, "reviews": 0, "place_id": "ChIJbZi08LRF5IkR-_R3hK0q_4E", "latitude": 41.8436971, "longitude": -71.4146298, "care_type": "OB-GYN"}, {"name": "Womens Care", "address": "18 Imperial Pl, Providence, RI 02903", "city": "Providence", "phone": "+1 401-727-4800", "website": "https://www.womenandinfants.org/services/womens-care-services%3FhsCtaTracking%3D4ffa6b30-00ce-412b-8e95-b626f41d8536%257C6fb0cd10-eae4-438d-90ae-23d6fd1ed398", "rating": 3.0, "reviews": 33, "place_id": "ChIJ7eXknGtF5IkRnGVdFxPgzGw", "latitude": 41.8173585, "longitude": -71.4112547, "care_type": "OB-GYN"}, {"name": "Burchard Elizabeth R MD", "address": "297 Promenade St, Providence, RI 02908", "city": "Providence", "phone": "+1 401-490-6464", "website": "http://www.center-obgyn.com/", "rating": 3.0, "reviews": 2, "place_id": "ChIJGYYaoHtM5IkR1QHBB_ASNLA", "latitude": 41.8305576, "longitude": -71.4222368, "care_type": "OB-GYN"}, {"name": "Broadway OB/GYN", "address": "1050 Main St, East Greenwich, RI 02818", "city": "East Greenwich", "phone": "+1 401-272-1550", "website": "http://www.broadwayobgynri.com/", "rating": null, "reviews": 0, "place_id": "ChIJT0zh10uz5YkRFWNdvRoLZxo", "latitude": 41.649397, "longitude": -71.45745699999999, "care_type": "OB-GYN"}, {"name": "Broadway Ob-Gyn: Brennan Constance M MD", "address": "1150 Main St, East Greenwich, RI 02818", "city": "East Greenwich", "phone": "+1 401-272-1550", "website": "https://www.broadwayobgynri.com/", "rating": null, "reviews": 0, "place_id": "ChIJ86RVx0uz5YkREhFUIX415Qs", "latitude": 41.65035, "longitude": -71.45769949999999, "care_type": "OB-GYN"}, {"name": "Mohamad Hamdi, MD", "address": "3461 S County Trl #203, East Greenwich, RI 02818", "city": "East Greenwich", "phone": "+1 401-789-0661", "website": "http://www.southcountyhealth.org/", "rating": 3.2, "reviews": 5, "place_id": "ChIJEYtwovK15YkRPhbt5znKhes", "latitude": 41.6029656, "longitude": -71.4966689, "care_type": "OB-GYN"}, {"name": "Broadway Ob-Gyn: Ramos Donald MD", "address": "1150 Main St, East Greenwich, RI 02818", "city": "East Greenwich", "phone": "+1 401-272-1550", "website": "https://www.broadwayobgynri.com/", "rating": null, "reviews": 0, "place_id": "ChIJ86RVx0uz5YkRTRw0NAMUoMQ", "latitude": 41.65035, "longitude": -71.45769949999999, "care_type": "OB-GYN"}, {"name": "Caroline M. Skudlarek-Prete, DO", "address": "235 Plain St # 401, Providence, RI 02905", "city": "Providence", "phone": "+1 401-421-1710", "website": "https://www.brownhealth.org/providers/caroline-m-skudlarek-prete-do", "rating": 3.7, "reviews": 12, "place_id": "ChIJnxZNF2ZF5IkRbwnR24WjBXo", "latitude": 41.8090914, "longitude": -71.4110843, "care_type": "OB-GYN"}, {"name": "Aquidneck Obstetrics and Midwives LLC", "address": "477 E Main Rd, Middletown, RI 02842", "city": "Middletown", "phone": "", "website": "", "rating": null, "reviews": 0, "place_id": "ChIJFWbAK7up5YkR08b_DfA0swg", "latitude": 41.520699, "longitude": -71.284897, "care_type": "OB-GYN"}, {"name": "Rebecca Randall, MD", "address": "1 Randall Square #205, Providence, RI 02904", "city": "Providence", "phone": "+1 401-331-6980", "website": "https://www.brownhealth.org/providers/rebecca-randall-md-facog", "rating": 1.0, "reviews": 1, "place_id": "ChIJXXJQQh5F5IkRvnQrucB4qI8", "latitude": 41.8369406, "longitude": -71.41057599999999, "care_type": "OB-GYN"}, {"name": "Mcmahon Megan D MD", "address": "1050 Main St, East Greenwich, RI 02818", "city": "East Greenwich", "phone": "+1 401-724-0600", "website": "https://www.piobgyn.com/megan-d-mcmahon-m-d-facog/", "rating": null, "reviews": 0, "place_id": "ChIJT0zh10uz5YkRKdrpUqRHmkQ", "latitude": 41.6490634, "longitude": -71.4574434, "care_type": "OB-GYN"}, {"name": "Gedney James C MD", "address": "77 Turnpike Ave, Portsmouth, RI 02871", "city": "Portsmouth", "phone": "+1 401-683-2290", "website": "", "rating": null, "reviews": 0, "place_id": "ChIJ1_I0FiOr5YkR8I8y0h0ztOQ", "latitude": 41.6031595, "longitude": -71.2498837, "care_type": "OB-GYN"}, {"name": "Powers Marilyn M MD", "address": "982 Tiogue Ave, Coventry, RI 02816", "city": "Coventry", "phone": "+1 401-739-2000", "website": "http://www.rhodeislandhospital.org/", "rating": null, "reviews": 0, "place_id": "ChIJc5JdWVY15IkROsZkGCviqEU", "latitude": 41.6795751, "longitude": -71.57515769999999, "care_type": "OB-GYN"}, {"name": "Dr. Kumiko Tanaka", "address": "11 Friendship St, Newport, RI 02840", "city": "Newport", "phone": "+1 401-646-6400", "website": "", "rating": null, "reviews": 0, "place_id": "ChIJEzcJuT6v5YkRJ0SKDiRukRU", "latitude": 41.497352, "longitude": -71.306187, "care_type": "OB-GYN"}, {"name": "Jeffrey Joseph", "address": "3461 S County Trl, East Greenwich, RI 02818", "city": "East Greenwich", "phone": "+1 401-471-6760", "website": "", "rating": null, "reviews": 0, "place_id": "ChIJ__-_SWu05YkREO9fVqmLyLU", "latitude": 41.6029656, "longitude": -71.4966689, "care_type": "OB-GYN"}, {"name": "Partners In Obstetrics", "address": "1525 Wampanoag Trl, Riverside, RI 02915", "city": "Riverside", "phone": "+1 401-724-0600", "website": "https://www.piobgyn.com/", "rating": 3.6, "reviews": 14, "place_id": "ChIJJx--8I5Q5IkR2UsomhvqQUk", "latitude": 41.7734222, "longitude": -71.3265873, "care_type": "OB-GYN"}, {"name": "Marc A Jaffe Inc", "address": "1180 Hope St, Bristol, RI 02809", "city": "Bristol", "phone": "+1 401-438-3300", "website": "", "rating": 5.0, "reviews": 3, "place_id": "ChIJhSAoZARU5IkRPpwjq1Q-ziA", "latitude": 41.6952681, "longitude": -71.2787958, "care_type": "OB-GYN"}, {"name": "Elizabeth Mayhall", "address": "1525 Wampanoag Trl UNIT 206, Riverside, RI 02915", "city": "Riverside", "phone": "", "website": "", "rating": 5.0, "reviews": 3, "place_id": "ChIJ0fs-8I5Q5IkRA0d_sg9qsSI", "latitude": 41.773398, "longitude": -71.32668579999999, "care_type": "OB-GYN"}, {"name": "Lievense Stacey P MD", "address": "1525 Wampanoag Trl UNIT 206, Riverside, RI 02915", "city": "Riverside", "phone": "+1 401-724-0600", "website": "", "rating": 5.0, "reviews": 1, "place_id": "ChIJJx--8I5Q5IkR3QoWq_Z_5cw", "latitude": 41.7734222, "longitude": -71.3265873, "care_type": "OB-GYN"}, {"name": "Partners in Obstetrics and Gynecology", "address": "333 School St #205, Pawtucket, RI 02860", "city": "Pawtucket", "phone": "+1 401-724-0600", "website": "https://www.piobgyn.com/", "rating": 3.1, "reviews": 60, "place_id": "ChIJD7IyD1Rb5IkRLDJE622J0qU", "latitude": 41.8670917, "longitude": -71.3774882, "care_type": "OB-GYN"}, {"name": "Tolga Kokturk, MD", "address": "333 School St STE 205, Pawtucket, RI 02860", "city": "Pawtucket", "phone": "+1 401-724-0600", "website": "https://www.brownhealth.org/providers/tolga-kokturk-md", "rating": 4.8, "reviews": 17, "place_id": "ChIJD7IyD1Rb5IkRfWfSurUKoZs", "latitude": 41.8718451, "longitude": -71.3806748, "care_type": "OB-GYN"}, {"name": "Highland Obstetrics & Gynecology", "address": "850 Aquidneck Ave Suite B-2, Middletown, RI 02842", "city": "Middletown", "phone": "+1 401-846-5590", "website": "https://myobassociates.com/", "rating": 3.0, "reviews": 2, "place_id": "ChIJ57688DKp5YkRo3xRdkmoqhw", "latitude": 41.5113401, "longitude": -71.28287689999999, "care_type": "OB-GYN"}, {"name": "Hanna Cynthia M MD", "address": "1525 Wampanoag Trl UNIT 201, Riverside, RI 02915", "city": "Riverside", "phone": "+1 401-724-0600", "website": "http://www.rhodeislandhospital.org/", "rating": 5.0, "reviews": 2, "place_id": "ChIJJx--8I5Q5IkRkOsNKEZ0nzM", "latitude": 41.7734222, "longitude": -71.3265873, "care_type": "OB-GYN"}, {"name": "Noreen Stonor Drexel Birthing Center at Newport Hospital", "address": "20 Powel Ave, Newport, RI 02840", "city": "Newport", "phone": "+1 401-845-1110", "website": "https://www.brownhealth.org/centers-services/noreen-stonor-drexel-birthing-center", "rating": 4.6, "reviews": 10, "place_id": "ChIJZehkgeOv5YkRNHwt3wuCKjc", "latitude": 41.4967995, "longitude": -71.3061907, "care_type": "OB-GYN"}, {"name": "Brown Health Medical Group Women\u2019s Health", "address": "20 Powel Ave, Newport, RI 02840", "city": "Newport", "phone": "+1 401-848-5556", "website": "https://www.brownhealth.org/centers-services/newport-womens-health", "rating": 2.4, "reviews": 34, "place_id": "ChIJJa3qsz6v5YkRKplQ4mOqvHE", "latitude": 41.4967995, "longitude": -71.3061907, "care_type": "OB-GYN"}, {"name": "Karolyn Zambrotta, CNM", "address": "19 Friendship St, Newport, RI 02840", "city": "Newport", "phone": "+1 401-848-5556", "website": "https://www.brownhealth.org/providers/karolyn-zambrotta-cnm", "rating": 5.0, "reviews": 2, "place_id": "ChIJJa3qsz6v5YkRKSEbz8k3hXw", "latitude": 41.497413, "longitude": -71.305517, "care_type": "OB-GYN"}, {"name": "Brown Health Medical Group Obstetrics & Gynecology - East Providence", "address": "900 Warren Ave # 101, East Providence, RI 02914", "city": "East Providence", "phone": "+1 401-606-3000", "website": "https://www.brownhealth.org/centers-services/obstetrics-and-gynecology-services", "rating": 2.4, "reviews": 12, "place_id": "ChIJVVWVqpJa5IkRF7mAN5mMvYA", "latitude": 41.8085642, "longitude": -71.3468865, "care_type": "OB-GYN"}, {"name": "Martha Moe, MD", "address": "38 Powel Ave, Newport, RI 02840", "city": "Newport", "phone": "+1 401-789-0661", "website": "", "rating": null, "reviews": 0, "place_id": "ChIJMcVukqmv5YkRDqEJcKkuJTo", "latitude": 41.4961035, "longitude": -71.3047824, "care_type": "OB-GYN"}, {"name": "Kokturk Tolga MD", "address": "1525 Wampanoag Trl UNIT 201, Riverside, RI 02915", "city": "Riverside", "phone": "+1 401-724-0600", "website": "http://www.rhodeislandhospital.org/", "rating": 5.0, "reviews": 1, "place_id": "ChIJJx--8I5Q5IkRmutJ2jBZCss", "latitude": 41.7734222, "longitude": -71.3265873, "care_type": "OB-GYN"}, {"name": "Coulombe Triste M MD", "address": "50 Memorial Blvd, Newport, RI 02840", "city": "Newport", "phone": "+1 401-847-2290", "website": "", "rating": null, "reviews": 0, "place_id": "ChIJL_qvtkSv5YkRTi7m7-PJ0YY", "latitude": 41.483847, "longitude": -71.30408, "care_type": "OB-GYN"}, {"name": "Mcmahon Megan D MD", "address": "1525 Wampanoag Trl UNIT 206, Riverside, RI 02915", "city": "Riverside", "phone": "+1 401-724-0600", "website": "https://www.piobgyn.com/megan-d-mcmahon-m-d-facog/", "rating": null, "reviews": 0, "place_id": "ChIJWf4Q9o5Q5IkRs0Z47SkXwng", "latitude": 41.7734222, "longitude": -71.3265873, "care_type": "OB-GYN"}, {"name": "Broadway Ob-Gyn: Crowthers Laina E MD", "address": "1150 Main St, East Greenwich, RI 02818", "city": "East Greenwich", "phone": "+1 401-272-1550", "website": "https://www.broadwayobgynri.com/our-locations/", "rating": null, "reviews": 0, "place_id": "ChIJ86RVx0uz5YkRFy47j1yFy1s", "latitude": 41.65035, "longitude": -71.45769949999999, "care_type": "OB-GYN"}, {"name": "Domagalski Lisa R MD", "address": "1525 Wampanoag Trl UNIT 201, Riverside, RI 02915", "city": "Riverside", "phone": "+1 401-724-0600", "website": "http://www.rhodeislandhospital.org/", "rating": null, "reviews": 0, "place_id": "ChIJJx--8I5Q5IkRNa2XazIwTXQ", "latitude": 41.7734222, "longitude": -71.3265873, "care_type": "OB-GYN"}, {"name": "Lievense Stacey P MD", "address": "1050 Main St, East Greenwich, RI 02818", "city": "East Greenwich", "phone": "+1 401-724-0600", "website": "", "rating": null, "reviews": 0, "place_id": "ChIJT0zh10uz5YkRAGkmsDVCYZE", "latitude": 41.6490634, "longitude": -71.4574434, "care_type": "OB-GYN"}, {"name": "Hawwa Tawfik F MD", "address": "1525 Wampanoag Trl UNIT 201, Riverside, RI 02915", "city": "Riverside", "phone": "+1 401-724-0600", "website": "http://www.rhodeislandhospital.org/", "rating": null, "reviews": 0, "place_id": "ChIJJx--8I5Q5IkR_ERg41rD1xE", "latitude": 41.7734222, "longitude": -71.3265873, "care_type": "OB-GYN"}, {"name": "Triste M. Coulombe, MD", "address": "77 Turnpike Ave, Portsmouth, RI 02871", "city": "Portsmouth", "phone": "+1 401-683-7070", "website": "https://www.lifespan.org/providers/triste-m-coulombe-md", "rating": 3.1, "reviews": 15, "place_id": "ChIJ1_I0FiOr5YkRnGaqz-ruIAw", "latitude": 41.6031595, "longitude": -71.2498837, "care_type": "OB-GYN"}, {"name": "University Ob-Gyn Inc", "address": "450 Veterans Memorial Pkwy #401, Building 4, 450 Veterans Memorial Pkwy #11, East Providence, RI 02914", "city": "East Providence", "phone": "+1 401-434-7747", "website": "https://www.womenandinfants.org/alliance/womens-care", "rating": 2.2, "reviews": 20, "place_id": "ChIJeS55G01F5IkR4LnEHxA8N18", "latitude": 41.8069365, "longitude": -71.38390199999999, "care_type": "OB-GYN"}, {"name": "Dr. Paula A. Deyoung, MD", "address": "900 Warren Ave, East Providence, RI 02914", "city": "East Providence", "phone": "+1 401-919-5200", "website": "", "rating": 5.0, "reviews": 2, "place_id": "ChIJ97hoqpJa5IkR2LT-rcJDh30", "latitude": 41.8085876, "longitude": -71.34684, "care_type": "OB-GYN"}, {"name": "Walker Scott W MD", "address": "900 Warren Ave # 101, East Providence, RI 02914", "city": "East Providence", "phone": "+1 401-919-5200", "website": "", "rating": 5.0, "reviews": 7, "place_id": "ChIJi4i5qZJa5IkRZ6UljuSsv1M", "latitude": 41.8085408, "longitude": -71.3469329, "care_type": "OB-GYN"}, {"name": "Karen L. McGoldrick, MD", "address": "450 Veterans Memorial Pkwy #101, East Providence, RI 02914", "city": "East Providence", "phone": "+1 401-751-5111", "website": "https://www.snewomenshealth.com/dr-karen-l-mcgoldrick/", "rating": 2.7, "reviews": 6, "place_id": "ChIJeS55G01F5IkRr1DtlI1ezLg", "latitude": 41.8075163, "longitude": -71.38459069999999, "care_type": "OB-GYN"}, {"name": "Landmark OBGYN-Woonsocket", "address": "206 Cass Ave, Woonsocket, RI 02895", "city": "Woonsocket", "phone": "+1 401-597-5070", "website": "http://www.landmarkmedical.org/", "rating": 3.4, "reviews": 26, "place_id": "ChIJFStjqjRq5IkRmLRc769-5K8", "latitude": 42.00604999999999, "longitude": -71.495284, "care_type": "OB-GYN"}, {"name": "John Morton", "address": "219 Cass Ave ste h, Woonsocket, RI 02895", "city": "Woonsocket", "phone": "+1 401-766-9575", "website": "", "rating": 5.0, "reviews": 4, "place_id": "ChIJq6rqXTNq5IkRiwXarE5AdQg", "latitude": 42.0050022, "longitude": -71.4947735, "care_type": "OB-GYN"}, {"name": "Full Circle Health", "address": "206 Cass Ave, Woonsocket, RI 02895", "city": "Woonsocket", "phone": "+1 401-767-1576", "website": "https://landmarkmedical.org/our-services/full-circle-health/", "rating": 3.9, "reviews": 47, "place_id": "ChIJ_5_ARTNq5IkRAXCEArcv9qw", "latitude": 42.00604999999999, "longitude": -71.495284, "care_type": "OB-GYN"}, {"name": "Broadway Ob/Gyn", "address": "2168 Diamond Hill Rd, Woonsocket, RI 02895", "city": "Woonsocket", "phone": "+1 401-272-1550", "website": "https://www.broadwayobgynri.com/", "rating": null, "reviews": 0, "place_id": "ChIJR4E49mVp5IkRpTgDzD3mMRA", "latitude": 42.0148632, "longitude": -71.4656956, "care_type": "OB-GYN"}, {"name": "Broadway Ob/Gyn: Brennan Constance M MD", "address": "2168 Diamond Hill Rd, Woonsocket, RI 02895", "city": "Woonsocket", "phone": "+1 401-272-1550", "website": "https://www.broadwayobgynri.com/", "rating": null, "reviews": 0, "place_id": "ChIJR4E49mVp5IkRwf3D8so1fqA", "latitude": 42.0148632, "longitude": -71.4656956, "care_type": "OB-GYN"}, {"name": "Spizzirri Michael E MD", "address": "385 Mendon Rd #2, Woonsocket, RI 02895", "city": "Woonsocket", "phone": "+1 401-762-0700", "website": "", "rating": 5.0, "reviews": 2, "place_id": "ChIJrQM_K9hr5IkRVIdVsYG-4XY", "latitude": 42.0134749, "longitude": -71.4803676, "care_type": "OB-GYN"}, {"name": "Partners In Obstetrics: Lievense Stacey P MD", "address": "2168 Diamond Hill Rd, Woonsocket, RI 02895", "city": "Woonsocket", "phone": "+1 401-724-0600", "website": "", "rating": null, "reviews": 0, "place_id": "ChIJR4E49mVp5IkR9bOoVR_DiAI", "latitude": 42.0148632, "longitude": -71.4656956, "care_type": "OB-GYN"}, {"name": "Partners In Obstetrics: Iannucci Karen MD", "address": "2168 Diamond Hill Rd, Woonsocket, RI 02895", "city": "Woonsocket", "phone": "+1 401-724-0600", "website": "", "rating": null, "reviews": 0, "place_id": "ChIJR4E49mVp5IkRYtXggEAoaoE", "latitude": 42.0148632, "longitude": -71.4656956, "care_type": "OB-GYN"}, {"name": "Nugent Patrick J MD", "address": "115 Cass Ave, Woonsocket, RI 02895", "city": "Woonsocket", "phone": "+1 401-769-4100", "website": "http://www.landmarkmedical.org/", "rating": null, "reviews": 0, "place_id": "ChIJ31AznzRq5IkRBpCuByEW4rc", "latitude": 42.0051475, "longitude": -71.4956502, "care_type": "OB-GYN"}, {"name": "Debra Brendel, MD", "address": "1377 S County Trl Unit 2A, East Greenwich, RI 02818", "city": "East Greenwich", "phone": "+1 401-606-3000", "website": "https://www.brownhealth.org/providers/debra-brendel-md-ncmp-facog", "rating": 3.0, "reviews": 8, "place_id": "ChIJY5iNJdG75YkRJLoS8A41F-c", "latitude": 41.6591613, "longitude": -71.4985896, "care_type": "OB-GYN"}, {"name": "Direct Doctors", "address": "2639 S County Trl, East Greenwich, RI 02818", "city": "East Greenwich", "phone": "+1 401-400-2699", "website": "http://www.directdoctors.org/", "rating": 4.8, "reviews": 52, "place_id": "ChIJvZ05B0Wx5YkRhf1RKjiz5GQ", "latitude": 41.624596, "longitude": -71.4929014, "care_type": "OB-GYN"}, {"name": "Care New England Women", "address": "1050 Main St # 32, East Greenwich, RI 02818", "city": "East Greenwich", "phone": "", "website": "", "rating": null, "reviews": 0, "place_id": "ChIJT0zh10uz5YkRsmzZrM-ZQPM", "latitude": 41.6492736, "longitude": -71.4573947, "care_type": "OB-GYN"}, {"name": "Jeffrey Joseph, MD - Gynecology - Northeast Medical Group", "address": "45 Wells St UNIT 204, Westerly, RI 02891", "city": "Westerly", "phone": "+1 401-348-0008", "website": "https://www.westerlyhospital.org/physicians/jeffrey-joseph.aspx", "rating": 4.6, "reviews": 9, "place_id": "ChIJnZDGYKPn5YkRrg_meiDdXiY", "latitude": 41.36252, "longitude": -71.823686, "care_type": "OB-GYN"}, {"name": "Insu Kong, MD", "address": "31 Crestview Dr, Westerly, RI 02891", "city": "Westerly", "phone": "+1 401-596-9939", "website": "https://www.brownhealth.org/providers/insu-kong-md", "rating": 4.8, "reviews": 25, "place_id": "ChIJL3nroObm5YkReWLqpa_4-WA", "latitude": 41.3609093, "longitude": -71.8275309, "care_type": "OB-GYN"}, {"name": "Megin Dalton, MD", "address": "268 Post Rd 1) Suite 202, Westerly, RI 02891", "city": "Westerly", "phone": "+1 401-789-0661", "website": "https://www.southcountyhealth.org/doctors/megin-dalton-md-chief-of-ob-gyn-medical-director-center-for-womens-health", "rating": 1.0, "reviews": 1, "place_id": "ChIJvWfY0TPn5YkRcw6MTT78x48", "latitude": 41.3526031, "longitude": -71.7635919, "care_type": "OB-GYN"}, {"name": "Elizabeth Sullivan, M.D.", "address": "BAYSIDE MEDICAL BUILDING, 235 Plain St, Providence, RI 02905", "city": "Providence", "phone": "+1 401-421-1710", "website": "http://www.baysideobgyn.com/elizabeth-sullivan.php", "rating": 5.0, "reviews": 2, "place_id": "ChIJ4wXgEGZF5IkR9EbslJwQXDE", "latitude": 41.8090573, "longitude": -71.41105809999999, "care_type": "OB-GYN"}, {"name": "Anne Murray, MD", "address": "239 Cranston St, Providence, RI 02907", "city": "Providence", "phone": "+1 401-444-0580", "website": "https://www.brownhealth.org/providers/anne-murray-md", "rating": 5.0, "reviews": 4, "place_id": "ChIJD_2nmHdF5IkRcQAnjueimac", "latitude": 41.8140866, "longitude": -71.4275749, "care_type": "OB-GYN"}, {"name": "Gentle Gynecolgy", "address": "31 Crestview Dr, Westerly, RI 02891", "city": "Westerly", "phone": "+1 401-596-8403", "website": "https://doctor.webmd.com/doctor/insu-kong-ba52b903-4b6a-4e76-b8eb-b73191b29cc7-overview", "rating": null, "reviews": 0, "place_id": "ChIJL3nroObm5YkRN0cNF2wa_bI", "latitude": 41.3609023, "longitude": -71.827528, "care_type": "OB-GYN"}, {"name": "Dr. Marylin M. Powers, DO", "address": "49 S County Commons Way, Wakefield, RI 02879", "city": "Wakefield", "phone": "+1 401-739-2000", "website": "http://www.rhodeislandhospital.org/", "rating": null, "reviews": 0, "place_id": "ChIJY5iNJdG75YkRBkaD_kJ0x7U", "latitude": 41.4561354, "longitude": -71.47073019999999, "care_type": "OB-GYN"}, {"name": "Dr. Renee Eger", "address": "90 Plain St, Providence, RI 02905", "city": "Providence", "phone": "+1 401-430-8380", "website": "http://www.baysideobgyn.com/", "rating": 5.0, "reviews": 1, "place_id": "ChIJ4wXgEGZF5IkRdA8uNXbMDCI", "latitude": 41.8140712, "longitude": -71.4122931, "care_type": "OB-GYN"}, {"name": "Andrew P Neuhauser Inc", "address": "45 East Ave, Westerly, RI 02891", "city": "Westerly", "phone": "+1 401-596-1905", "website": "", "rating": null, "reviews": 0, "place_id": "ChIJO9WAIv3m5YkREykPMNGmdkc", "latitude": 41.363536, "longitude": -71.820095, "care_type": "OB-GYN"}, {"name": "Dr. Robert M. Greenlee, MD", "address": "Morgan Medical Building, 45 Wells St STE 104, Westerly, RI 02891", "city": "Westerly", "phone": "+1 401-348-0008", "website": "", "rating": null, "reviews": 0, "place_id": "ChIJBWqiE-Pm5YkROn9ZjhLzDkU", "latitude": 41.3625815, "longitude": -71.82351659999999, "care_type": "OB-GYN"}, {"name": "Dr. John T. Auth, MD", "address": "80 Beach St, Westerly, RI 02891", "city": "Westerly", "phone": "", "website": "", "rating": null, "reviews": 0, "place_id": "ChIJ-4Xfs-bm5YkRPBqHmmR1C4Q", "latitude": 41.361712, "longitude": -71.828495, "care_type": "OB-GYN"}, {"name": "Charles R. Rardin, MD", "address": "101 Plain St 5th Floor, Providence, RI 02903", "city": "Providence", "phone": "+1 401-453-7560", "website": "https://www.brownhealth.org/providers/charles-r-rardin-md", "rating": 5.0, "reviews": 2, "place_id": "ChIJsXog4mdF5IkRtDOorLeFTwA", "latitude": 41.8134817, "longitude": -71.4128207, "care_type": "OB-GYN"}, {"name": "Simpson Mary C MD", "address": "100 Kenyon Ave, South Kingstown, RI 02879", "city": "South Kingstown", "phone": "+1 401-782-8000", "website": "http://schospital.com/", "rating": null, "reviews": 0, "place_id": "ChIJGyxRd0y55YkRkaQ-0_P-VTw", "latitude": 41.4314761, "longitude": -71.496478, "care_type": "OB-GYN"}, {"name": "Dr. Altug Koymen, MD", "address": "239 Cranston St, Providence, RI 02907", "city": "Providence", "phone": "+1 401-444-0580", "website": "http://www.hasbrochildrenshospital.org/", "rating": null, "reviews": 0, "place_id": "ChIJD_2nmHdF5IkRlepyOKzv4kw", "latitude": 41.8139155, "longitude": -71.4275242, "care_type": "OB-GYN"}, {"name": "Emily Hoffman, CNM, WHNP", "address": "70 Kenyon Avenue Suite G80, Ground Floor, Wakefield, RI 02879", "city": "Wakefield", "phone": "+1 401-789-0661", "website": "https://www.southcountyhealth.org/doctors/emily-f-hoffman-cnm-whnp/415", "rating": null, "reviews": 0, "place_id": "ChIJi71knku55YkRCL4PaqZ7418", "latitude": 41.43099, "longitude": -71.4963889, "care_type": "OB-GYN"}, {"name": "Kelly Russell, CNM", "address": "268 Post Rd 1) Suite 202, Westerly, RI 02891", "city": "Westerly", "phone": "+1 401-789-0661", "website": "https://www.southcountyhealth.org/doctors/kelly-russell-nurse-midwife", "rating": null, "reviews": 0, "place_id": "ChIJm1zFRT7n5YkRp8gago9mous", "latitude": 41.3526031, "longitude": -71.7635919, "care_type": "OB-GYN"}, {"name": "Women's Health of Westerly Llc", "address": "Morgan Medical Building, 45 Wells St STE 104, Westerly, RI 02891", "city": "Westerly", "phone": "+1 401-348-0008", "website": "https://westerlyhospital.org/services/womens-health-services/", "rating": 3.0, "reviews": 2, "place_id": "ChIJBWqiE-Pm5YkRUU_XvC2Hico", "latitude": 41.3625815, "longitude": -71.82351659999999, "care_type": "OB-GYN"}, {"name": "Cavanaugh Coleen P MD", "address": "900 Warren Ave, East Providence, RI 02914", "city": "East Providence", "phone": "+1 401-919-5200", "website": "", "rating": 5.0, "reviews": 2, "place_id": "ChIJ97hoqpJa5IkRNqc0zYJDrNw", "latitude": 41.8085876, "longitude": -71.34684, "care_type": "OB-GYN"}, {"name": "Dr. Kyle J. Wohlrab, MD", "address": "695 Eddy St, Providence, RI 02905", "city": "Providence", "phone": "+1 401-272-1550", "website": "", "rating": 5.0, "reviews": 9, "place_id": "ChIJsXog4mdF5IkRhW0uVKrAzoE", "latitude": 41.8091501, "longitude": -71.4075491, "care_type": "OB-GYN"}, {"name": "Gary Wharton, MD", "address": "235 Plain St # 401, Providence, RI 02905", "city": "Providence", "phone": "+1 401-421-1710", "website": "https://www.brownhealth.org/providers/gary-wharton-md/", "rating": 5.0, "reviews": 1, "place_id": "ChIJnxZNF2ZF5IkRdoJyM3938yw", "latitude": 41.8090914, "longitude": -71.4110843, "care_type": "OB-GYN"}, {"name": "William Walker", "address": "950 Warren Ave Suite 302, East Providence, RI 02914", "city": "East Providence", "phone": "+1 401-444-2701", "website": "", "rating": 1.0, "reviews": 0, "place_id": "ChIJ19whS41a5IkRh_UhwfbtMrk", "latitude": 41.808411, "longitude": -71.3455267, "care_type": "OB-GYN"}, {"name": "Domagalski Lisa MD", "address": "333 School St, Pawtucket, RI 02860", "city": "Pawtucket", "phone": "+1 401-724-0600", "website": "https://www.piobgyn.com/lisa-r-domagalski-m-d-facog/", "rating": 4.0, "reviews": 10, "place_id": "ChIJD7IyD1Rb5IkRXJOSisq8e38", "latitude": 41.8672032, "longitude": -71.3776098, "care_type": "OB-GYN"}, {"name": "Simoes Meera V MD", "address": "900 Warren Ave, East Providence, RI 02914", "city": "East Providence", "phone": "+1 401-919-5200", "website": "", "rating": null, "reviews": 0, "place_id": "ChIJ97hoqpJa5IkRp2OMpNeyqJ0", "latitude": 41.8085876, "longitude": -71.34684, "care_type": "OB-GYN"}, {"name": "Vigliani Marguerite MD", "address": "450 Veterans Memorial Pkwy #101, East Providence, RI 02914", "city": "East Providence", "phone": "+1 401-438-1748", "website": "", "rating": 3.0, "reviews": 4, "place_id": "ChIJeS55G01F5IkRjodiZJfRLGI", "latitude": 41.8074731, "longitude": -71.3845249, "care_type": "OB-GYN"}, {"name": "Santina Siena", "address": "450 Veterans Memorial Pkwy, East Providence, RI 02914", "city": "East Providence", "phone": "+1 401-434-7747", "website": "http://www.rhodeislandhospital.org/", "rating": 1.0, "reviews": 1, "place_id": "ChIJeS55G01F5IkRjw6kNfAwexQ", "latitude": 41.8079658, "longitude": -71.3829216, "care_type": "OB-GYN"}, {"name": "John E. Buster", "address": "101 Dudley St, Providence, RI 02905", "city": "Providence", "phone": "+1 401-453-7500", "website": "http://www.rhodeislandhospital.org/", "rating": 5.0, "reviews": 2, "place_id": "ChIJrYZXoSpF5IkR3Or4fC2i5OA", "latitude": 41.8109879, "longitude": -71.4119953, "care_type": "OB-GYN"}, {"name": "Michele Gange, MD", "address": "695 Eddy St #21, Providence, RI 02903", "city": "Providence", "phone": "+1 401-272-1550", "website": "https://www.brownhealth.org/providers/michele-gange-md", "rating": 3.7, "reviews": 6, "place_id": "ChIJsXog4mdF5IkRkD6mBArF2CA", "latitude": 41.8091745, "longitude": -71.40746, "care_type": "OB-GYN"}, {"name": "David Maddock", "address": "297 Promenade St, Providence, RI 02908", "city": "Providence", "phone": "+1 401-490-6464", "website": "https://www.center-obgyn.com/david-audoen-maddock-m-d/", "rating": 3.7, "reviews": 3, "place_id": "ChIJq6rqZg9F5IkR4OrkKV0YaD4", "latitude": 41.8305576, "longitude": -71.4222368, "care_type": "OB-GYN"}, {"name": "Broadway Ob-Gyn: Washington Blair B MD", "address": "695 Eddy St #21, Providence, RI 02903", "city": "Providence", "phone": "+1 401-272-1550", "website": "https://www.broadwayobgynri.com/", "rating": null, "reviews": 0, "place_id": "ChIJsXog4mdF5IkR3KmT_er9bA0", "latitude": 41.8091892, "longitude": -71.4075792, "care_type": "OB-GYN"}, {"name": "Christina Ann Bandera, MD", "address": "146 W River St 3rd floor, Providence, RI 02904", "city": "Providence", "phone": "+1 401-793-5700", "website": "https://www.brownhealth.org/providers/christina-ann-bandera-md", "rating": 5.0, "reviews": 3, "place_id": "ChIJsVy8CgT55IkRszqcF58zAvQ", "latitude": 41.8434216, "longitude": -71.4147602, "care_type": "OB-GYN"}, {"name": "Harris M. Galkin", "address": "450 Veterans Memorial Pkwy, East Providence, RI 02914", "city": "East Providence", "phone": "+1 401-434-7747", "website": "", "rating": 3.3, "reviews": 4, "place_id": "ChIJeS55G01F5IkR-VNGDq82EnA", "latitude": 41.80751799999999, "longitude": -71.3833829, "care_type": "OB-GYN"}, {"name": "Fred Brosco, MD", "address": "695 Eddy St #21, Providence, RI 02903", "city": "Providence", "phone": "+1 401-272-1550", "website": "https://www.brownhealth.org/providers/fred-brosco-md", "rating": 2.8, "reviews": 11, "place_id": "ChIJsXog4mdF5IkRfPTKHMee2Qk", "latitude": 41.8091745, "longitude": -71.40746, "care_type": "OB-GYN"}, {"name": "Stimson Debra M", "address": "375 Allens Ave, Providence, RI 02905", "city": "Providence", "phone": "+1 401-444-0400", "website": "http://www.hasbrochildrenshospital.org/", "rating": null, "reviews": 0, "place_id": "ChIJdTtJvV5F5IkRFdFk5qGcQTU", "latitude": 41.8028523, "longitude": -71.4016041, "care_type": "OB-GYN"}, {"name": "Dr. Mindy Sobota", "address": "245 Chapman St Suite 300, Providence, RI 02905", "city": "Providence", "phone": "+1 401-444-4741", "website": "https://www.brownhealth.org/providers/mindy-sobota-md", "rating": 5.0, "reviews": 2, "place_id": "ChIJv7rypvNP5IkRdCGSGC0TRgk", "latitude": 41.79245299999999, "longitude": -71.4029438, "care_type": "OB-GYN"}, {"name": "Dr. Andrea J. Mernan, MD", "address": "250 Wampanoag Trl, Riverside, RI 02915", "city": "Riverside", "phone": "+1 401-435-0044", "website": "", "rating": null, "reviews": 0, "place_id": "ChIJWWJoWJla5IkR-J4sJjlVJLA", "latitude": 41.7960212, "longitude": -71.3528204, "care_type": "OB-GYN"}, {"name": "Sztulman Luciano MD", "address": "1 Randall Square #401, Providence, RI 02904", "city": "Providence", "phone": "+1 401-521-1006", "website": "http://skinsationalri.com/", "rating": 4.6, "reviews": 52, "place_id": "ChIJXXJQQh5F5IkRsbuva83gN50", "latitude": 41.83694029999999, "longitude": -71.4105237, "care_type": "OB-GYN"}, {"name": "Charissa Dinobile", "address": "18 Imperial Pl #2-D, Providence, RI 02903", "city": "Providence", "phone": "+1 401-727-4800", "website": "", "rating": 5.0, "reviews": 3, "place_id": "ChIJUcjvnGtF5IkRP0KlrJte0QE", "latitude": 41.8168905, "longitude": -71.41124889999999, "care_type": "OB-GYN"}, {"name": "Mathews Cara A MD", "address": "101 Dudley St, Providence, RI 02905", "city": "Providence", "phone": "+1 401-274-1100", "website": "http://www.womenandinfants.org/", "rating": 5.0, "reviews": 2, "place_id": "ChIJdWawtGhF5IkRfWCJ-h_W-P8", "latitude": 41.8109879, "longitude": -71.4119953, "care_type": "OB-GYN"}, {"name": "Christine Foley, MD", "address": "90 Plain St, Providence, RI 02905", "city": "Providence", "phone": "+1 617-667-2952", "website": "https://findadoc.bidmc.org/details/6286/christine-foley-obstetrics_and_gynecology-boston-needham", "rating": 5.0, "reviews": 3, "place_id": "ChIJq6q6yG5F5IkRHFwseQwAHpg", "latitude": 41.8140712, "longitude": -71.4122931, "care_type": "OB-GYN"}, {"name": "Shah Barry MD", "address": "2 Dudley St # 510, Providence, RI 02905", "city": "Providence", "phone": "+1 401-453-3433", "website": "", "rating": 5.0, "reviews": 1, "place_id": "ChIJh6suamhF5IkR8mOjIkp3ImA", "latitude": 41.810409, "longitude": -71.408019, "care_type": "OB-GYN"}, {"name": "Dr. Rebecca J. Crichton, MD", "address": "695 Eddy St, Providence, RI 02905", "city": "Providence", "phone": "+1 401-331-0669", "website": "http://www.womenandinfants.org/Physicians/Rebecca-Crichton.cfm", "rating": 5.0, "reviews": 1, "place_id": "ChIJsXog4mdF5IkRrI_mPqniUlE", "latitude": 41.8091641, "longitude": -71.4075415, "care_type": "OB-GYN"}, {"name": "Jessica Torres, MD", "address": "148 W River St Suite 8, Providence, RI 02904", "city": "Providence", "phone": "+1 401-606-3000", "website": "https://www.brownhealth.org/providers/jessica-torres-md", "rating": 5.0, "reviews": 3, "place_id": "ChIJZVaEB6tF5IkRZ1l9XgHK4nw", "latitude": 41.8436971, "longitude": -71.4146298, "care_type": "OB-GYN"}, {"name": "Dr. Cassandra L. Carberry, MD", "address": "101 Plain St 5th floor, Providence, RI 02903", "city": "Providence", "phone": "+1 401-453-7560", "website": "http://www.womenandinfants.org/services/urogynecology/meet-the-team.cfm", "rating": 4.3, "reviews": 6, "place_id": "ChIJsXog4mdF5IkRhuhHHmgmKTk", "latitude": 41.8092005, "longitude": -71.4073186, "care_type": "OB-GYN"}, {"name": "Alicja Kreczko", "address": "297 Promenade St, Providence, RI 029085720", "city": "Providence", "phone": "+1 401-490-6464", "website": "https://www.center-obgyn.com/alicja-kreczko-m-d/", "rating": 5.0, "reviews": 2, "place_id": "ChIJq6rqZg9F5IkRmx3VF3_WwP8", "latitude": 41.8305576, "longitude": -71.4222368, "care_type": "OB-GYN"}, {"name": "Brittany Hampton", "address": "101 Plain St Ste 5, Providence, RI 02903", "city": "Providence", "phone": "+1 401-274-1122", "website": "", "rating": 5.0, "reviews": 2, "place_id": "ChIJq6q6yG5F5IkRdktzSwrPm5g", "latitude": 41.8134817, "longitude": -71.4128207, "care_type": "OB-GYN"}, {"name": "Tarra Evans, MD", "address": "146 W River St 3rd floor, Providence, RI 02904", "city": "Providence", "phone": "+1 401-793-7917", "website": "https://www.brownhealth.org/providers/tarra-evans-md", "rating": 5.0, "reviews": 2, "place_id": "ChIJG0IZXmFF5IkRV4uROXnZ1-Q", "latitude": 41.8434216, "longitude": -71.4147602, "care_type": "OB-GYN"}, {"name": "D. Audeon Maddock, MD", "address": "235 Plain St # 401, Providence, RI 02905", "city": "Providence", "phone": "+1 401-421-1710", "website": "https://www.brownhealth.org/providers/d-audeon-maddock-md", "rating": 5.0, "reviews": 4, "place_id": "ChIJnxZNF2ZF5IkRQ29H1Ez2KR0", "latitude": 41.8090914, "longitude": -71.4110843, "care_type": "OB-GYN"}, {"name": "Jane R. Sharp", "address": "297 Promenade St, Providence, RI 02908", "city": "Providence", "phone": "+1 401-490-6464", "website": "http://www.rhodeislandhospital.org/", "rating": 4.6, "reviews": 9, "place_id": "ChIJn5gxGA9F5IkRFIM0qMWilMs", "latitude": 41.8306099, "longitude": -71.4221921, "care_type": "OB-GYN"}, {"name": "Dr. Terrence F. Cahill, MD", "address": "235 Plain St Suite 201, Providence, RI 02905", "city": "Providence", "phone": "+1 401-421-1710", "website": "", "rating": 3.0, "reviews": 2, "place_id": "ChIJnxZNF2ZF5IkRZam1uupCkhU", "latitude": 41.8090914, "longitude": -71.4110843, "care_type": "OB-GYN"}, {"name": "Comprehensive Ob-Gyn Care", "address": "14 Cedar Swamp Rd, Smithfield, RI 02917", "city": "Smithfield", "phone": "+1 401-231-1450", "website": "https://www.drcoppaobgyn.com/", "rating": null, "reviews": 0, "place_id": "ChIJh4aubhlH5IkRA8G_yxMtl1c", "latitude": 41.8726252, "longitude": -71.5318683, "care_type": "OB-GYN"}, {"name": "Jeffrey E. Thode, MD", "address": "146 W River St, Providence, RI 02904", "city": "Providence", "phone": "+1 401-793-5700", "website": "https://www.brownhealth.org/providers/jeffrey-e-thode-md", "rating": 5.0, "reviews": 1, "place_id": "ChIJN8QNLqFF5IkRjV_BjXKgCr8", "latitude": 41.8434298, "longitude": -71.4148944, "care_type": "OB-GYN"}, {"name": "Dr. Amy L. Snyder, MD", "address": "101 Dudley St, Providence, RI 02905", "city": "Providence", "phone": "+1 401-274-1100", "website": "", "rating": null, "reviews": 0, "place_id": "ChIJdWawtGhF5IkRoereWSyA3qA", "latitude": 41.8109879, "longitude": -71.4119953, "care_type": "OB-GYN"}, {"name": "W. Scott Walker, MD", "address": "1 Randall St #205, Providence, RI 02904", "city": "Providence", "phone": "+1 401-606-3000", "website": "https://www.brownhealth.org/providers/w-scott-walker-md", "rating": 3.4, "reviews": 5, "place_id": "ChIJXXJQQh5F5IkRCtIZfYwt5vw", "latitude": 41.8369495, "longitude": -71.4104912, "care_type": "OB-GYN"}, {"name": "Dr. Beth Cronin, MD", "address": "90 Plain St 1st floor, Providence, RI 02905", "city": "Providence", "phone": "+1 401-430-8380", "website": "https://www.womenandinfants.org/services/lgbtqia-clinic%3Fhs_preview%3DdcAMZoPj-164878326531", "rating": 4.3, "reviews": 6, "place_id": "ChIJdWawtGhF5IkR9zHJ0B-2pBE", "latitude": 41.8140712, "longitude": -71.4122931, "care_type": "OB-GYN"}, {"name": "Klein Erika L MD", "address": "18 Imperial Pl, Providence, RI 02903", "city": "Providence", "phone": "+1 401-727-4800", "website": "http://www.womenandinfants.org/physicians/erika-klein.cfm", "rating": 3.0, "reviews": 2, "place_id": "ChIJ7eXknGtF5IkRSBbRhAeXZV8", "latitude": 41.8168905, "longitude": -71.41124889999999, "care_type": "OB-GYN"}, {"name": "Lisa D. Boyle", "address": "297 Promenade St, Providence, RI 02908", "city": "Providence", "phone": "+1 401-490-6464", "website": "http://www.rhodeislandhospital.org/", "rating": 3.0, "reviews": 8, "place_id": "ChIJn5gxGA9F5IkRo_WSglvz48Y", "latitude": 41.8306099, "longitude": -71.4221921, "care_type": "OB-GYN"}, {"name": "Dr. Brenda N. Roy, MD", "address": "101 Dudley St, Providence, RI 02905", "city": "Providence", "phone": "+1 401-274-1122", "website": "", "rating": 3.0, "reviews": 2, "place_id": "ChIJdWawtGhF5IkRrhq0Ja6vOQY", "latitude": 41.8109879, "longitude": -71.4119953, "care_type": "OB-GYN"}, {"name": "Stephen R. Carr, MD", "address": "101 Dudley St, Providence, RI 02905", "city": "Providence", "phone": "+1 401-274-1100", "website": "https://www.brownhealth.org/providers/stephen-r-carr-md", "rating": 5.0, "reviews": 2, "place_id": "ChIJh6suamhF5IkRJww-aVgn9Sk", "latitude": 41.8110921, "longitude": -71.4125943, "care_type": "OB-GYN"}, {"name": "Dr. Donna M. Lafontaine, MD", "address": "101 Dudley St, Providence, RI 02905", "city": "Providence", "phone": "+1 401-274-1100", "website": "", "rating": null, "reviews": 0, "place_id": "ChIJdWawtGhF5IkRC0jPtRKVTLU", "latitude": 41.8109879, "longitude": -71.4119953, "care_type": "OB-GYN"}, {"name": "Nwamaka Mary-Anne Onwugbenu, MD", "address": "146 W River St Suite 8, Providence, RI 02904", "city": "Providence", "phone": "+1 401-606-3000", "website": "https://www.brownhealth.org/providers/nwamaka-mary-anne-onwugbenu-md", "rating": 4.5, "reviews": 4, "place_id": "ChIJVx095bRF5IkRyDX3SPZNwqk", "latitude": 41.8434298, "longitude": -71.4148944, "care_type": "OB-GYN"}, {"name": "Women & Infants Hospital of RI: Silver Helayne MD", "address": "101 Dudley St, Providence, RI 02905", "city": "Providence", "phone": "+1 401-274-1100", "website": "http://www.womenandinfants.org/", "rating": null, "reviews": 0, "place_id": "ChIJdWawtGhF5IkRWu2l38MKrzw", "latitude": 41.8109879, "longitude": -71.4119953, "care_type": "OB-GYN"}, {"name": "Coppa A Michael MD", "address": "14 Cedar Swamp Rd Ste 2, Smithfield, RI 02917", "city": "Smithfield", "phone": "+1 401-231-1450", "website": "", "rating": 3.7, "reviews": 3, "place_id": "ChIJh4aubhlH5IkRK1tqivOTsjI", "latitude": 41.8726252, "longitude": -71.53186819999999, "care_type": "OB-GYN"}, {"name": "Rardin Charles R Dr", "address": "101 Dudley St, Providence, RI 02905", "city": "Providence", "phone": "+1 401-274-1100", "website": "http://www.womenandinfants.org/physicians/Charles-Rardin.cfm", "rating": 5.0, "reviews": 2, "place_id": "ChIJdWawtGhF5IkRZMlvLY24Ee4", "latitude": 41.8109631, "longitude": -71.412083, "care_type": "OB-GYN"}, {"name": "Serena A. Sposato", "address": "235 Plain St #307, Providence, RI 02905", "city": "Providence", "phone": "+1 401-521-1522", "website": "http://www.rhodeislandhospital.org/", "rating": null, "reviews": 0, "place_id": "ChIJnxZNF2ZF5IkRJeSxMAqBP4w", "latitude": 41.8090499, "longitude": -71.4110556, "care_type": "OB-GYN"}, {"name": "Victoria Snegovskikh MD", "address": "90 Plain St, Providence, RI 02903", "city": "Providence", "phone": "+1 630-954-0054", "website": "", "rating": 5.0, "reviews": 1, "place_id": "ChIJdWawtGhF5IkRuXSSd142jmQ", "latitude": 41.8140711, "longitude": -71.4122951, "care_type": "OB-GYN"}, {"name": "Dr. Jennifer J. Hosmer, MD", "address": "40 Candace St, Providence, RI 02908", "city": "Providence", "phone": "+1 401-444-0550", "website": "http://www.providencechc.org/", "rating": null, "reviews": 0, "place_id": "ChIJGw7lCgRF5IkR8SczL2Qa2qo", "latitude": 41.8357521, "longitude": -71.4227823, "care_type": "OB-GYN"}, {"name": "Paul A. DiSilvestro, MD", "address": "101 Dudley St, Providence, RI 02905", "city": "Providence", "phone": "+1 401-453-7520", "website": "https://www.brownhealth.org/providers/paul-disilvestro-md", "rating": 5.0, "reviews": 3, "place_id": "ChIJdWawtGhF5IkRfJjDE3fntVA", "latitude": 41.8108357, "longitude": -71.4122641, "care_type": "OB-GYN"}, {"name": "Cornelius O. Granai, MD", "address": "101 Dudley St, Providence, RI 02905", "city": "Providence", "phone": "+1 401-453-7520", "website": "https://www.brownhealth.org/providers/cornelius-o-granai-md", "rating": 5.0, "reviews": 1, "place_id": "ChIJ67nioypF5IkRj5p3JrrNe8c", "latitude": 41.8108357, "longitude": -71.4122641, "care_type": "OB-GYN"}, {"name": "Hayden Deborah M MD", "address": "21 Peace St, Providence, RI 02907", "city": "Providence", "phone": "+1 508-809-6379", "website": "https://www.sturdymemorial.org/find-a-doctor/profile/deborah-hayden/", "rating": null, "reviews": 0, "place_id": "ChIJN6x4eXtF5IkRsuYyN1wpwcg", "latitude": 41.807097, "longitude": -71.420684, "care_type": "OB-GYN"}, {"name": "CHRISTINE E FOLEY", "address": "101 Dudley St Fl 4, Providence, RI 02905", "city": "Providence", "phone": "+1 401-274-1100", "website": "https://www.lifespan.org/providers/christine-foley-md", "rating": null, "reviews": 0, "place_id": "ChIJVVXlTG9F5IkRgtSNF2X9_Xg", "latitude": 41.8108357, "longitude": -71.4122641, "care_type": "OB-GYN"}, {"name": "A. Michael Coppa", "address": "14 Cedar Swamp Rd Ste 2, Smithfield, RI 02917", "city": "Smithfield", "phone": "+1 401-231-1450", "website": "https://www.drcoppaobgyn.com/", "rating": null, "reviews": 0, "place_id": "ChIJVVWF5RtH5IkRHZKZSwfLs9Q", "latitude": 41.8726487, "longitude": -71.5318518, "care_type": "OB-GYN"}, {"name": "Eilean Attwood", "address": "101 Dudley St, Providence, RI 02905", "city": "Providence", "phone": "+1 401-274-1122", "website": "", "rating": null, "reviews": 0, "place_id": "ChIJVVXlTG9F5IkRUheUAyCYoho", "latitude": 41.8108357, "longitude": -71.4122641, "care_type": "OB-GYN"}, {"name": "TANYA BOOKER", "address": "Medical Office Center, 2 Dudley St, Providence, RI 02903", "city": "Providence", "phone": "+1 401-444-7770", "website": "", "rating": 1.0, "reviews": 1, "place_id": "ChIJs1E8aWhF5IkRtojzaSIbAGM", "latitude": 41.8103278, "longitude": -71.40816819999999, "care_type": "OB-GYN"}, {"name": "Dr. Jami Star", "address": "101 Dudley St, Providence, RI 02905", "city": "Providence", "phone": "+1 401-274-1122", "website": "", "rating": null, "reviews": 0, "place_id": "ChIJVVXlTG9F5IkROk7k-XylALo", "latitude": 41.8108357, "longitude": -71.4122641, "care_type": "OB-GYN"}, {"name": "Kathleen Fitzgerald", "address": "120 Dudley St # 301, Providence, RI 02905", "city": "Providence", "phone": "+1 401-453-7555", "website": "http://www.miriamhospital.org/", "rating": null, "reviews": 0, "place_id": "ChIJBY5c_mVF5IkRL5wMAn2wH8E", "latitude": 41.80991119999999, "longitude": -71.4123551, "care_type": "OB-GYN"}, {"name": "NINA KARLSEN AYALA", "address": "101 Dudley St Fl 4, Providence, RI 02905", "city": "Providence", "phone": "+1 401-274-1100", "website": "https://vivo.brown.edu/display/nayala", "rating": null, "reviews": 0, "place_id": "ChIJVVXlTG9F5IkR6p59dJO1FwY", "latitude": 41.8108357, "longitude": -71.4122641, "care_type": "OB-GYN"}, {"name": "Martha A. Pizzarello", "address": "297 Promenade St, Providence, RI 02908", "city": "Providence", "phone": "+1 401-490-6464", "website": "https://www.center-obgyn.com/martha-pizzarello-m-d/", "rating": null, "reviews": 0, "place_id": "ChIJdWawtGhF5IkRmXUCeNwpxMQ", "latitude": 41.8305576, "longitude": -71.4222368, "care_type": "OB-GYN"}, {"name": "Dr. Robyn A. Gray, DO", "address": "101 Dudley St, Providence, RI 02905", "city": "Providence", "phone": "+1 401-274-1100", "website": "http://www.womenandinfants.org/", "rating": null, "reviews": 0, "place_id": "ChIJdWawtGhF5IkRq60gptA0jdA", "latitude": 41.8109879, "longitude": -71.4119953, "care_type": "OB-GYN"}, {"name": "Kate Zaluski", "address": "2 Dudley St, Providence, RI 02905", "city": "Providence", "phone": "+1 401-274-1122", "website": "", "rating": null, "reviews": 0, "place_id": "ChIJs1E8aWhF5IkRg2TLAT3OJP4", "latitude": 41.8103278, "longitude": -71.40816819999999, "care_type": "OB-GYN"}, {"name": "Dwight J. Rouse, MD", "address": "101 Dudley St, Providence, RI 02905", "city": "Providence", "phone": "+1 401-274-1100", "website": "https://www.brownhealth.org/providers/dwight-j-rouse-md", "rating": null, "reviews": 0, "place_id": "ChIJdWawtGhF5IkRIrCyJUgLsME", "latitude": 41.8108357, "longitude": -71.4122641, "care_type": "OB-GYN"}, {"name": "Donovan Cheryl M MD", "address": "1637 Mineral Spring Ave, North Providence, RI 02904", "city": "North Providence", "phone": "+1 401-353-0757", "website": "", "rating": null, "reviews": 0, "place_id": "ChIJk1Q0j2pE5IkRwS3RajFmMFI", "latitude": 41.8652789, "longitude": -71.45098999999999, "care_type": "OB-GYN"}, {"name": "Dr. Christina Bandera", "address": "101 Dudley St, Providence, RI 02905", "city": "Providence", "phone": "+1 401-793-5700", "website": "https://www.lifespan.org/providers/christina-ann-bandera-md", "rating": null, "reviews": 0, "place_id": "ChIJVVXlTG9F5IkRP3Z_xJuGc78", "latitude": 41.8108357, "longitude": -71.4122641, "care_type": "OB-GYN"}, {"name": "Gass Jennifer S MD", "address": "101 Dudley St, Providence, RI 02905", "city": "Providence", "phone": "+1 401-274-1100", "website": "http://www.womenandinfants.org/physicians/index.cfm%3Faction%3Dsubmit", "rating": 4.2, "reviews": 5, "place_id": "ChIJdWawtGhF5IkRUqHTcrv07FM", "latitude": 41.8109879, "longitude": -71.4119953, "care_type": "OB-GYN"}, {"name": "Multidisciplinary Obstetric Medicine Services", "address": "148 W River St 1st Floor, Suite 8, Providence, RI 02904", "city": "Providence", "phone": "+1 401-793-7410", "website": "https://www.brownhealth.org/centers-services/multidisciplinary-obstetric-medicine-service-moms", "rating": null, "reviews": 0, "place_id": "ChIJe65QkONE5IkRZPmpW1EBOK8", "latitude": 41.8436971, "longitude": -71.4146298, "care_type": "OB-GYN"}, {"name": "Rimsha Ahmed", "address": "101 Dudley St, Providence, RI 02905", "city": "Providence", "phone": "+1 401-274-1100", "website": "", "rating": null, "reviews": 0, "place_id": "ChIJVVXlTG9F5IkRALkCOMM54Sc", "latitude": 41.8108357, "longitude": -71.4122641, "care_type": "OB-GYN"}, {"name": "May-Tal Sauerbrun-Cutler", "address": "90 Plain St # 4, Providence, RI 02903", "city": "Providence", "phone": "+1 401-274-1100", "website": "https://vivo.brown.edu/display/msauerbr", "rating": null, "reviews": 0, "place_id": "ChIJ0w4Gs25F5IkRSHGW6-cR3Lo", "latitude": 41.8140711, "longitude": -71.4122951, "care_type": "OB-GYN"}, {"name": "Janet Lefkowitz", "address": "2 Dudley St Ste 580, Providence, RI 02905", "city": "Providence", "phone": "+1 401-274-1122", "website": "", "rating": null, "reviews": 0, "place_id": "ChIJs1E8aWhF5IkRoz1mrDrmxS8", "latitude": 41.8103278, "longitude": -71.40816819999999, "care_type": "OB-GYN"}, {"name": "Dr. Leticia Dwomor", "address": "101 Dudley St, Providence, RI 02905", "city": "Providence", "phone": "+1 401-848-5556", "website": "https://www.brownhealth.org/providers/leticia-dwomor-md", "rating": null, "reviews": 0, "place_id": "ChIJVVXlTG9F5IkRlryh_vTQX90", "latitude": 41.8108357, "longitude": -71.4122641, "care_type": "OB-GYN"}, {"name": "Robyn Ann Gray", "address": "297 Promenade St, Providence, RI 02908", "city": "Providence", "phone": "+1 401-490-6464", "website": "http://www.rhodeislandhospital.org/", "rating": null, "reviews": 0, "place_id": "ChIJ46ExGA9F5IkRt2rVDllHH_I", "latitude": 41.8306099, "longitude": -71.4221921, "care_type": "OB-GYN"}, {"name": "Paula DeYoung, MD", "address": "146 W River St Suite 8, Providence, RI 02904", "city": "Providence", "phone": "+1 401-606-3000", "website": "https://www.brownhealth.org/providers/paula-deyoung-md-facog", "rating": null, "reviews": 0, "place_id": "ChIJXXJQQh5F5IkRDjGmclzaWYQ", "latitude": 41.8434298, "longitude": -71.4148944, "care_type": "OB-GYN"}, {"name": "Jennifer Eaton", "address": "90 Plain St # 4, Providence, RI 02903", "city": "Providence", "phone": "+1 401-274-1100", "website": "", "rating": 1.0, "reviews": 1, "place_id": "ChIJ0w4Gs25F5IkRUTObb2D0l8M", "latitude": 41.8140711, "longitude": -71.4122951, "care_type": "OB-GYN"}, {"name": "Dr. Brenda N. Roy, MD", "address": "255 Promenade St, Providence, RI 02908", "city": "Providence", "phone": "+1 401-533-6198", "website": "", "rating": null, "reviews": 0, "place_id": "ChIJg_bTuA9F5IkRJr1vcMKYfDU", "latitude": 41.8294003, "longitude": -71.4201028, "care_type": "OB-GYN"}, {"name": "E. Christine Brousseau, MD", "address": "101 Dudley St, Providence, RI 02903", "city": "Providence", "phone": "+1 401-274-1100", "website": "https://www.lifespan.org/providers/e-christine-brousseau-md", "rating": null, "reviews": 0, "place_id": "ChIJnxZNF2ZF5IkRvzxBNZcx4EY", "latitude": 41.8108357, "longitude": -71.4122641, "care_type": "OB-GYN"}, {"name": "Donald R. Coustan, M.D", "address": "2 Dudley St #174, Providence, RI 02905", "city": "Providence", "phone": "+1 401-444-8570", "website": "https://vivo.brown.edu/display/dcoustan", "rating": null, "reviews": 0, "place_id": "ChIJh6suamhF5IkRuFXZ02ZhXFA", "latitude": 41.8103279, "longitude": -71.4081681, "care_type": "OB-GYN"}, {"name": "Jennifer Unger", "address": "101 Dudley St, Providence, RI 029052401", "city": "Providence", "phone": "+1 401-453-7950", "website": "", "rating": null, "reviews": 0, "place_id": "ChIJVVXlTG9F5IkRzE6sH0NlpNk", "latitude": 41.8108357, "longitude": -71.4122641, "care_type": "OB-GYN"}, {"name": "Ania Kowalik, MD", "address": "758 Eddy St 2nd Floor, Providence, RI 02903", "city": "Providence", "phone": "+1 781-326-2451", "website": "http://www.fertilitysolutionsne.com/", "rating": null, "reviews": 0, "place_id": "ChIJk-PMkWdF5IkRTNAsK31cYgU", "latitude": 41.8075401, "longitude": -71.40688039999999, "care_type": "OB-GYN"}, {"name": "Dr. Carroll A. Medeiros, MD", "address": "333 School St, Pawtucket, RI 02860", "city": "Pawtucket", "phone": "+1 401-724-0600", "website": "https://www.piobgyn.com/carroll-a-medeiros-md-facog/", "rating": 5.0, "reviews": 11, "place_id": "ChIJ3c7fDqxE5IkRIFmxlRRGhdc", "latitude": 41.8674397, "longitude": -71.3778643, "care_type": "OB-GYN"}, {"name": "OBGYN Midwifery Services", "address": "148 W River St, Providence, RI 02904", "city": "Providence", "phone": "+1 401-606-3000", "website": "http://www.womensmedicine.org/", "rating": 4.3, "reviews": 6, "place_id": "ChIJXXJQQh5F5IkRbcKEpw-n8LU", "latitude": 41.8436869, "longitude": -71.4147303, "care_type": "OB-GYN"}, {"name": "Women's Care, Inc.", "address": "21 Division St, Pawtucket, RI 02860", "city": "Pawtucket", "phone": "+1 401-727-4800", "website": "http://www.womenandinfants.org/alliance/womens-care.cfm", "rating": 2.3, "reviews": 48, "place_id": "ChIJ3c7fDqxE5IkR0aRGq1Dk7SE", "latitude": 41.872408, "longitude": -71.38327579999999, "care_type": "OB-GYN"}, {"name": "Saint-Aubin Caitlin MD", "address": "297 Promenade St, Providence, RI 02908", "city": "Providence", "phone": "+1 401-490-6464", "website": "http://center-obgyn.com/", "rating": 3.9, "reviews": 9, "place_id": "ChIJn5gxGA9F5IkR30-mDlKrpwM", "latitude": 41.8306019, "longitude": -71.4222358, "care_type": "OB-GYN"}, {"name": "Jenny David", "address": "40 Candace St, Providence, RI 02908", "city": "Providence", "phone": "+1 401-444-0550", "website": "", "rating": 5.0, "reviews": 2, "place_id": "ChIJUS4VCgRF5IkR4c-zhHluHP8", "latitude": 41.83576, "longitude": -71.4227843, "care_type": "OB-GYN"}, {"name": "Michele J. Style, DO", "address": "148 W River St Suite 8, Providence, RI 02904", "city": "Providence", "phone": "+1 401-606-3000", "website": "https://www.brownhealth.org/providers/michele-j-style-do", "rating": 4.2, "reviews": 5, "place_id": "ChIJl3K7fWRF5IkRDigt6LeV0Cw", "latitude": 41.8436971, "longitude": -71.4146298, "care_type": "OB-GYN"}, {"name": "Sangeeta Ramani, MD, FACOG", "address": "148 W River St Suite 8, Providence, RI 02904", "city": "Providence", "phone": "+1 401-606-3000", "website": "https://www.brownhealth.org/providers/sangeeta-ramani-md-facog", "rating": null, "reviews": 0, "place_id": "ChIJxbu-vzpF5IkRc1r3sAmv-_U", "latitude": 41.8436971, "longitude": -71.4146298, "care_type": "OB-GYN"}, {"name": "Leah Battista, MD", "address": "146 W River St 2nd Floor, Providence, RI 02904", "city": "Providence", "phone": "+1 401-793-7022", "website": "https://www.brownhealth.org/providers/leah-battista-md", "rating": 5.0, "reviews": 1, "place_id": "ChIJd3z90XbGwoARPegrD5VDkhU", "latitude": 41.8435352, "longitude": -71.414793, "care_type": "OB-GYN"}, {"name": "Dr. Jami Star", "address": "148 W River St, Providence, RI 02904", "city": "Providence", "phone": "+1 401-606-3000", "website": "", "rating": null, "reviews": 0, "place_id": "ChIJq6pqhONE5IkRVHKcbr_B1u4", "latitude": 41.8436971, "longitude": -71.4146298, "care_type": "OB-GYN"}, {"name": "Elizabeth Gomes", "address": "1000 Broad St, Central Falls, RI 02863", "city": "Central Falls", "phone": "+1 401-722-0081", "website": "", "rating": null, "reviews": 0, "place_id": "ChIJAQDwCTZD5IkR2NL1RBbPEk0", "latitude": 41.8933557, "longitude": -71.38842149999999, "care_type": "OB-GYN"}, {"name": "Dr. Mary Catherine Derosa", "address": "146 W River St Fl 3, Providence, RI 02904", "city": "Providence", "phone": "+1 401-606-3000", "website": "https://www.brownhealth.org/people/mary-catherine-derosa-md-facog-ncmp-ccd", "rating": null, "reviews": 0, "place_id": "ChIJpQXhnONE5IkRCegAt5sfUQA", "latitude": 41.8434298, "longitude": -71.4148944, "care_type": "OB-GYN"}, {"name": "Debra Brendel", "address": "146 W River St suite 11c, Providence, RI 029042609", "city": "Providence", "phone": "+1 401-606-3000", "website": "https://www.brownhealth.org/providers/debra-brendel-md-ncmp-facog", "rating": null, "reviews": 0, "place_id": "ChIJpQXhnONE5IkRMtdxsrHk6-E", "latitude": 41.8434298, "longitude": -71.4148944, "care_type": "OB-GYN"}, {"name": "Dr. Wayne C. Clairborne, MD", "address": "407 East Ave, Pawtucket, RI 02860", "city": "Pawtucket", "phone": "+1 401-727-4800", "website": "http://www.rhodeislandhospital.org/", "rating": null, "reviews": 0, "place_id": "ChIJ3c7fDqxE5IkRWRrkMwjE9x4", "latitude": 41.867947, "longitude": -71.3878184, "care_type": "OB-GYN"}, {"name": "Dr. Matthew J. Rogalski, MD", "address": "63 Eddie Dowling Hwy # 1, North Smithfield, RI 02896", "city": "North Smithfield", "phone": "+1 401-597-5070", "website": "", "rating": 5.0, "reviews": 2, "place_id": "ChIJceCUO2Vq5IkRIHqGGCjAyIc", "latitude": 41.9816077, "longitude": -71.5150412, "care_type": "OB-GYN"}, {"name": "Debra Goldman", "address": "148 W River St Suite 8, Providence, RI 029042615", "city": "Providence", "phone": "+1 401-606-3000", "website": "https://www.lifespan.org/providers/debra-l-goldman-md-facog", "rating": null, "reviews": 0, "place_id": "ChIJq6pqhONE5IkR50CSFd2W57Q", "latitude": 41.8436971, "longitude": -71.4146298, "care_type": "OB-GYN"}, {"name": "Mary C. Simpson, MD", "address": "148 W River St Suite 8, Providence, RI 02904", "city": "Providence", "phone": "+1 401-606-3000", "website": "https://www.brownhealth.org/providers/mary-c-simpson-md", "rating": null, "reviews": 0, "place_id": "ChIJAR2u4llF5IkREkTkG2NZ-H4", "latitude": 41.8436971, "longitude": -71.4146298, "care_type": "OB-GYN"}, {"name": "Lifespan Pelvic Pain Program", "address": "148 W River St Suite 8, Providence, RI 02904", "city": "Providence", "phone": "+1 401-606-3000", "website": "https://www.brownhealth.org/centers-services/pelvic-floor-disorders-program/pelvic-pain-program", "rating": 5.0, "reviews": 1, "place_id": "ChIJe65QkONE5IkRzMRlEAa0nc4", "latitude": 41.8436971, "longitude": -71.4146298, "care_type": "OB-GYN"}, {"name": "Annmarie Jurczak", "address": "148 W River St Suite 8, Providence, RI 02904", "city": "Providence", "phone": "+1 401-444-3500", "website": "https://www.brownhealth.org/providers/annmarie-jurczak-md-facog", "rating": null, "reviews": 0, "place_id": "ChIJq6pqhONE5IkRtThHO7iFWG4", "latitude": 41.8436971, "longitude": -71.4146298, "care_type": "OB-GYN"}, {"name": "Dr. Robert R. Williams, MD", "address": "407 East Ave, Pawtucket, RI 02860", "city": "Pawtucket", "phone": "+1 401-727-4800", "website": "http://www.rhodeislandhospital.org/", "rating": null, "reviews": 0, "place_id": "ChIJ3c7fDqxE5IkRFdUVryCFW_o", "latitude": 41.8679457, "longitude": -71.3877373, "care_type": "OB-GYN"}, {"name": "Christine A. Larose, MD", "address": "148 W River St Suite 8, Providence, RI 02904", "city": "Providence", "phone": "+1 401-606-3000", "website": "https://www.brownhealth.org/providers/christine-larose-md", "rating": null, "reviews": 0, "place_id": "ChIJOb7X4F1F5IkRPkFRdzygutk", "latitude": 41.8436971, "longitude": -71.4146298, "care_type": "OB-GYN"}, {"name": "Broadway Ob-Gyn: Gange Michele MD", "address": "28 Cedar Swamp Rd, Smithfield, RI 02917", "city": "Smithfield", "phone": "+1 401-272-1550", "website": "https://www.broadwayobgynri.com/", "rating": null, "reviews": 0, "place_id": "ChIJg-56phlH5IkRhbjVbXTiqkk", "latitude": 41.8744184, "longitude": -71.5335492, "care_type": "OB-GYN"}, {"name": "Colavita Mauro MD", "address": "2 Wake Robin Rd, Lincoln, RI 02865", "city": "Lincoln", "phone": "+1 401-334-5300", "website": "", "rating": null, "reviews": 0, "place_id": "ChIJK1XuZyhC5IkRL1WrT-akz_M", "latitude": 41.9346269, "longitude": -71.4751103, "care_type": "OB-GYN"}, {"name": "Dr. Judi B. Rosenthal, MD", "address": "19 Friendship St # 220, Newport, RI 02840", "city": "Newport", "phone": "+1 401-848-5556", "website": "", "rating": 1.0, "reviews": 1, "place_id": "ChIJJa3qsz6v5YkRd1N-4-bgg2M", "latitude": 41.497413, "longitude": -71.305517, "care_type": "OB-GYN"}, {"name": "Railinn Doula Services", "address": "15 Lion St, East Greenwich, RI 02818", "city": "East Greenwich", "phone": "+1 401-885-0445", "website": "", "rating": null, "reviews": 0, "place_id": "ChIJlXAt1M5M5IkRf1-JuzbjzNE", "latitude": 41.6594129, "longitude": -71.4475573, "care_type": "OB-GYN"}, {"name": "Eastside Obstetrics & Gynecology", "address": "1 Randall St #401, Providence, RI 02904", "city": "Providence", "phone": "+1 401-521-1006", "website": "", "rating": null, "reviews": 0, "place_id": "ChIJXXJQQh5F5IkRzgNIDehQPSw", "latitude": 41.8369587, "longitude": -71.41045869999999, "care_type": "OB-GYN"}, {"name": "Carol A. Wheeler, MD", "address": "101 Dudley St, Providence, RI 02905", "city": "Providence", "phone": "+1 401-274-1100", "website": "https://fertility.womenandinfants.org/about/doctors/carol-wheeler", "rating": 5.0, "reviews": 1, "place_id": "ChIJdWawtGhF5IkRsrG3hDEwRdY", "latitude": 41.8108357, "longitude": -71.4122641, "care_type": "OB-GYN"}, {"name": "Brown Health Medical Group Primary Care, Women\u2019s Medicine", "address": "146 W River St 3rd floor, Providence, RI 02904", "city": "Providence", "phone": "+1 401-793-7010", "website": "https://www.brownhealth.org/centers-services/womens-primary-care", "rating": 2.8, "reviews": 24, "place_id": "ChIJe65QkONE5IkRzo3ai2PEnu4", "latitude": 41.8434216, "longitude": -71.4147602, "care_type": "OB-GYN"}, {"name": "Meena Theva", "address": "101 Dudley St Fl 4, Providence, RI 02905", "city": "Providence", "phone": "+1 401-274-1100", "website": "", "rating": 5.0, "reviews": 1, "place_id": "ChIJVVXlTG9F5IkR116B1Hdkhi4", "latitude": 41.8108357, "longitude": -71.4122641, "care_type": "OB-GYN"}, {"name": "Leticia Dwomor, MD", "address": "148 W River St Suite 8 1st Floor, Providence, RI 02904", "city": "Providence", "phone": "+1 401-606-3000", "website": "https://www.brownhealth.org/providers/leticia-dwomor-md", "rating": 5.0, "reviews": 2, "place_id": "ChIJ-354_B1F5IkRkYylf8408XU", "latitude": 41.8436971, "longitude": -71.4146298, "care_type": "OB-GYN"}, {"name": "St. Joseph Health Center - Women's Health", "address": "877 Chalkstone Ave, Providence, RI 02908", "city": "Providence", "phone": "+1 401-456-2402", "website": "http://www.stjosephhealthcenter.com/", "rating": 3.3, "reviews": 12, "place_id": "ChIJ___vgXtF5IkRTuZZWPrXtM8", "latitude": 41.833548, "longitude": -71.4365577, "care_type": "OB-GYN"}, {"name": "Women And Infants Hospital Urogyn", "address": "101 Plain St, Providence, RI 02903", "city": "Providence", "phone": "+1 401-453-7560", "website": "http://www.womenandinfants.org/", "rating": 3.8, "reviews": 12, "place_id": "ChIJsXog4mdF5IkRMu5rHoSyfHE", "latitude": 41.8134881, "longitude": -71.41274709999999, "care_type": "OB-GYN"}, {"name": "Carroll A. Medeiros", "address": "18 Imperial Pl, Providence, RI 02903", "city": "Providence", "phone": "+1 401-727-4800", "website": "http://www.rhodeislandhospital.org/", "rating": 3.4, "reviews": 16, "place_id": "ChIJ7eXknGtF5IkRoG-I4JtMRcM", "latitude": 41.8168905, "longitude": -71.41124889999999, "care_type": "OB-GYN"}, {"name": "Ob-Gyn Associates Inc: Hordes Andrew R MD", "address": "1 Randall St #205, Providence, RI 02904", "city": "Providence", "phone": "+1 401-331-6980", "website": "http://www.rhodeislandhospital.org/", "rating": null, "reviews": 0, "place_id": "ChIJXXJQQh5F5IkRXeRsqFQXBBw", "latitude": 41.8369587, "longitude": -71.41045869999999, "care_type": "OB-GYN"}, {"name": "Dr. Nicole Korbly, MD", "address": "101 Plain St, Providence, RI 02903", "city": "Providence", "phone": "+1 401-274-1100", "website": "http://www.womenandinfants.org/", "rating": 5.0, "reviews": 3, "place_id": "ChIJdWawtGhF5IkR8dqiyYBPiUI", "latitude": 41.8133627, "longitude": -71.41283299999999, "care_type": "OB-GYN"}, {"name": "John J. Bert", "address": "1 Randall Square #205, Providence, RI 02904", "city": "Providence", "phone": "+1 401-331-6980", "website": "http://www.rhodeislandhospital.org/", "rating": 5.0, "reviews": 2, "place_id": "ChIJXXJQQh5F5IkRtNwLSf15-l0", "latitude": 41.8369587, "longitude": -71.41045869999999, "care_type": "OB-GYN"}, {"name": "Andrew S. Blazar", "address": "101 Dudley St, Providence, RI 02905", "city": "Providence", "phone": "+1 401-453-7500", "website": "http://www.rhodeislandhospital.org/", "rating": 5.0, "reviews": 1, "place_id": "ChIJdWawtGhF5IkRRsRKF2NaVJw", "latitude": 41.8109879, "longitude": -71.4119953, "care_type": "OB-GYN"}, {"name": "Dr. Wayne C. Clairborne, MD", "address": "18 Imperial Pl #2-D, Providence, RI 02903", "city": "Providence", "phone": "+1 401-727-4800", "website": "http://www.rhodeislandhospital.org/", "rating": 5.0, "reviews": 6, "place_id": "ChIJaezknGtF5IkRUSJXVHfeeaY", "latitude": 41.8169626, "longitude": -71.4113802, "care_type": "OB-GYN"}, {"name": "Watson James B MD", "address": "593 Eddy St # 124, Providence, RI 02903", "city": "Providence", "phone": "+1 401-444-4000", "website": "http://www.rhodeislandhospital.org/", "rating": null, "reviews": 0, "place_id": "ChIJu8dIx2lF5IkRPCZRaIQK_lw", "latitude": 41.8125228, "longitude": -71.4075328, "care_type": "OB-GYN"}, {"name": "Anna Whelan", "address": "101 Dudley St, Providence, RI 02905", "city": "Providence", "phone": "+1 401-274-1122", "website": "", "rating": null, "reviews": 0, "place_id": "ChIJVVXlTG9F5IkRx4z6E7us_wU", "latitude": 41.8108357, "longitude": -71.4122641, "care_type": "OB-GYN"}, {"name": "Sebastian Ramos", "address": "101 Dudley St, Providence, RI 02905", "city": "Providence", "phone": "+1 401-274-1100", "website": "", "rating": null, "reviews": 0, "place_id": "ChIJVVXlTG9F5IkRJhBDtTlVQTE", "latitude": 41.8108357, "longitude": -71.4122641, "care_type": "OB-GYN"}, {"name": "Dr. Jeannine Miranne, MD", "address": "101 Dudley St, Providence, RI 02905", "city": "Providence", "phone": "+1 401-274-1100", "website": "http://www.womenandinfants.org/", "rating": 1.0, "reviews": 1, "place_id": "ChIJdWawtGhF5IkRTFB_U8Zk9dY", "latitude": 41.8109879, "longitude": -71.4119953, "care_type": "OB-GYN"}, {"name": "Chi-Fong Wang", "address": "101 Dudley St, Providence, RI 02905", "city": "Providence", "phone": "+1 401-274-1100", "website": "", "rating": null, "reviews": 0, "place_id": "ChIJVVXlTG9F5IkRWR_nhNk1LDo", "latitude": 41.8108357, "longitude": -71.4122641, "care_type": "OB-GYN"}, {"name": "Evelyne Caron", "address": "18 Imperial Pl #2-D, Providence, RI 02903", "city": "Providence", "phone": "+1 401-727-4800", "website": "http://www.rhodeislandhospital.org/", "rating": null, "reviews": 0, "place_id": "ChIJ7eXknGtF5IkRxPOtFxPlRsk", "latitude": 41.8168905, "longitude": -71.41124889999999, "care_type": "OB-GYN"}, {"name": "Libertad Flores", "address": "101 Dudley St, Providence, RI 02905", "city": "Providence", "phone": "+1 401-274-1100", "website": "https://vivo.brown.edu/display/ltflores", "rating": null, "reviews": 0, "place_id": "ChIJVVXlTG9F5IkRYlqRIRKfdi0", "latitude": 41.8108357, "longitude": -71.4122641, "care_type": "OB-GYN"}, {"name": "Trevor Tejada-Berges", "address": "668 Eddy St # 1, Providence, RI 02903", "city": "Providence", "phone": "+1 401-453-7520", "website": "http://www.womenandinfants.org/about/contact-us.cfm", "rating": null, "reviews": 0, "place_id": "ChIJdWawtGhF5IkR8Ar3mRZb0_I", "latitude": 41.8104025, "longitude": -71.4069762, "care_type": "OB-GYN"}, {"name": "Brenna Anderson", "address": "101 Dudley St, Providence, RI 02905", "city": "Providence", "phone": "+1 401-274-1122", "website": "http://www.rhodeislandhospital.org/", "rating": null, "reviews": 0, "place_id": "ChIJdWawtGhF5IkRcVYNdZWv1Yg", "latitude": 41.810963, "longitude": -71.412083, "care_type": "OB-GYN"}, {"name": "Donald R. Coustan", "address": "101 Dudley St, Providence, RI 02905", "city": "Providence", "phone": "+1 401-274-1100", "website": "http://www.rhodeislandhospital.org/", "rating": null, "reviews": 0, "place_id": "ChIJdWawtGhF5IkReDFxFECIB8Q", "latitude": 41.8109879, "longitude": -71.4119953, "care_type": "OB-GYN"}, {"name": "Dr. Erika Werner", "address": "101 Dudley St, Providence, RI 02905", "city": "Providence", "phone": "+1 401-273-0641", "website": "", "rating": null, "reviews": 0, "place_id": "ChIJVVXlTG9F5IkRoBLn7eRcrM0", "latitude": 41.8108357, "longitude": -71.4122641, "care_type": "OB-GYN"}, {"name": "ASRA JAWED", "address": "101 Dudley St Fl 4, Providence, RI 02905", "city": "Providence", "phone": "+1 401-274-1100", "website": "", "rating": null, "reviews": 0, "place_id": "ChIJVVXlTG9F5IkRYhuXb50HsfY", "latitude": 41.8108357, "longitude": -71.4122641, "care_type": "OB-GYN"}, {"name": "ALEXIS C. GIMOVSKY", "address": "Medical Office Center, 2 Dudley St, Providence, RI 02903", "city": "Providence", "phone": "+1 401-444-7770", "website": "", "rating": null, "reviews": 0, "place_id": "ChIJs1E8aWhF5IkRiVfElRBPTIc", "latitude": 41.8103278, "longitude": -71.40816819999999, "care_type": "OB-GYN"}, {"name": "Dr. Rosa Bermudez-Emmanuelli", "address": "101 Dudley St, Providence, RI 02905", "city": "Providence", "phone": "+1 401-274-1122", "website": "", "rating": null, "reviews": 0, "place_id": "ChIJVVXlTG9F5IkRg-0tGVgakYI", "latitude": 41.8108357, "longitude": -71.4122641, "care_type": "OB-GYN"}, {"name": "Charissa Dinobile", "address": "101 Dudley St, Providence, RI 02905", "city": "Providence", "phone": "+1 401-274-1122", "website": "", "rating": null, "reviews": 0, "place_id": "ChIJVVXlTG9F5IkRAwsmtHMGoIk", "latitude": 41.8108357, "longitude": -71.4122641, "care_type": "OB-GYN"}, {"name": "ZIAD FERSAN", "address": "101 Dudley St Fl 4, Providence, RI 02905", "city": "Providence", "phone": "+1 401-274-1100", "website": "", "rating": null, "reviews": 0, "place_id": "ChIJVVXlTG9F5IkRQZvcGLerjks", "latitude": 41.8108357, "longitude": -71.4122641, "care_type": "OB-GYN"}, {"name": "Dr. Tanya L. Dailey, MD", "address": "101 Dudley St, Providence, RI 02905", "city": "Providence", "phone": "+1 401-274-1100", "website": "http://www.womenandinfants.org/", "rating": null, "reviews": 0, "place_id": "ChIJdWawtGhF5IkRCiCdBeTWWG8", "latitude": 41.8109879, "longitude": -71.4119953, "care_type": "OB-GYN"}, {"name": "Demello Paula J", "address": "1 Randall Square #205, Providence, RI 02904", "city": "Providence", "phone": "+1 401-331-6980", "website": "http://www.rhodeislandhospital.org/", "rating": null, "reviews": 0, "place_id": "ChIJXXJQQh5F5IkR2NkdCtJokuI", "latitude": 41.8367644, "longitude": -71.4105792, "care_type": "OB-GYN"}, {"name": "Alicja Kreczko", "address": "101 Dudley St, Providence, RI 02905", "city": "Providence", "phone": "+1 401-274-1100", "website": "https://www.center-obgyn.com/alicja-kreczko-m-d/", "rating": null, "reviews": 0, "place_id": "ChIJVVXlTG9F5IkRuEKSZvlg3KA", "latitude": 41.8108357, "longitude": -71.4122641, "care_type": "OB-GYN"}, {"name": "Karine Matevossian", "address": "101 Dudley St, Providence, RI 02905", "city": "Providence", "phone": "+1 401-274-1100", "website": "", "rating": null, "reviews": 0, "place_id": "ChIJVVXlTG9F5IkRZ2lFON8W5kk", "latitude": 41.8108357, "longitude": -71.4122641, "care_type": "OB-GYN"}, {"name": "Barbara M O'Brien", "address": "101 Dudley St, Providence, RI 02905", "city": "Providence", "phone": "+1 401-274-1122", "website": "http://www.rhodeislandhospital.org/", "rating": null, "reviews": 0, "place_id": "ChIJdWawtGhF5IkR3_0kcnkfHek", "latitude": 41.8109879, "longitude": -71.4119953, "care_type": "OB-GYN"}, {"name": "Eilean L. Myer", "address": "101 Dudley St, Providence, RI 02905", "city": "Providence", "phone": "+1 401-453-7520", "website": "", "rating": null, "reviews": 0, "place_id": "ChIJVVXlTG9F5IkRuOl-vQBYJ4Y", "latitude": 41.8108357, "longitude": -71.4122641, "care_type": "OB-GYN"}, {"name": "Carpenter Marshall W MD", "address": "101 Dudley St, Providence, RI 02905", "city": "Providence", "phone": "+1 401-274-1100", "website": "", "rating": null, "reviews": 0, "place_id": "ChIJdWawtGhF5IkR1s9tKkZ9kCk", "latitude": 41.8109879, "longitude": -71.4119953, "care_type": "OB-GYN"}, {"name": "METHODIUS G TUULI", "address": "101 Dudley St Fl 4, Providence, RI 02905", "city": "Providence", "phone": "+1 401-274-1100", "website": "https://vivo.brown.edu/display/mtuul", "rating": null, "reviews": 0, "place_id": "ChIJVVXlTG9F5IkRuxyWGcz5eWQ", "latitude": 41.8108357, "longitude": -71.4122641, "care_type": "OB-GYN"}, {"name": "Silvia Herrera Pinilla", "address": "101 Dudley St, Providence, RI 02905", "city": "Providence", "phone": "+1 401-274-1100", "website": "", "rating": null, "reviews": 0, "place_id": "ChIJVVXlTG9F5IkR9Kr4U3ZX-Xw", "latitude": 41.8108357, "longitude": -71.4122641, "care_type": "OB-GYN"}, {"name": "Jennifer Narvaez", "address": "101 Dudley St, Providence, RI 02905", "city": "Providence", "phone": "+1 401-274-1100", "website": "", "rating": null, "reviews": 0, "place_id": "ChIJVVXlTG9F5IkRngZqbaEvNeg", "latitude": 41.8108357, "longitude": -71.4122641, "care_type": "OB-GYN"}, {"name": "Alexis Gadson", "address": "101 Dudley St, Providence, RI 029052401", "city": "Providence", "phone": "+1 401-274-1122", "website": "", "rating": null, "reviews": 0, "place_id": "ChIJVVXlTG9F5IkRaAbvTyd5b-Q", "latitude": 41.8108357, "longitude": -71.4122641, "care_type": "OB-GYN"},