[{"name": "William C McBee Jr., MD, FACOG", "address": "1200 J D Anderson Dr, Morgantown, WV 26505", "city": "Morgantown", "phone": "+1 304-285-3870", "website": "https://www.monhealth.com/main/cancer-care", "rating": 4.7, "reviews": 36, "place_id": "ChIJqXlHpB57NYgRl4rY9Hhib8k", "latitude": 39.6637796, "longitude": -79.9467069, "care_type": "OB-GYN"}, {"name": "Reynolds Memorial Obstetrics & Gynecology", "address": "800 Wheeling Ave 3rd Floor, Glen Dale, WV 26038", "city": "Glen Dale", "phone": "+1 304-843-1100", "website": "http://wvumedicine.org/reynolds-memorial/services/obstetrics-gynecology/", "rating": 2.5, "reviews": 13, "place_id": "ChIJtyUcvsLfNYgRuPt30e1iilQ", "latitude": 39.9460692, "longitude": -80.7525138, "care_type": "OB-GYN"}, {"name": "Irisari & Irisari", "address": "119 Jefferson Ave, Moundsville, WV 26041", "city": "Moundsville", "phone": "+1 304-845-8555", "website": "", "rating": 3.5, "reviews": 4, "place_id": "ChIJZSrW7b3gNYgRXjrEzrz7Rzc", "latitude": 39.9240706, "longitude": -80.7428776, "care_type": "OB-GYN"}, {"name": "Leigh-Anne Massey, MD,", "address": "2108 Lumber Ave Suite 2, Wheeling, WV 26003", "city": "Wheeling", "phone": "+1 304-234-8030", "website": "http://www.masseymd.com/", "rating": 4.9, "reviews": 254, "place_id": "ChIJM3_uoCraNYgRKFF9sn3B6XU", "latitude": 40.045113, "longitude": -80.6583125, "care_type": "OB-GYN"}, {"name": "William Hamilton", "address": "800 Wheeling Ave, Glen Dale, WV 26038", "city": "Glen Dale", "phone": "+1 304-285-7101", "website": "", "rating": 2.8, "reviews": 9, "place_id": "ChIJq6qqviXeNYgRczGx-cVyyXY", "latitude": 39.9460013, "longitude": -80.75262099999999, "care_type": "OB-GYN"}, {"name": "Dr. Leigh Anne A. Papadimitriou, MD", "address": "2000 Eoff St, Wheeling, WV 26003", "city": "Wheeling", "phone": "+1 304-234-8030", "website": "https://www.masseymd.com/", "rating": 5.0, "reviews": 1, "place_id": "ChIJJSQzpyraNYgR4nyR23TaeIY", "latitude": 40.0600002, "longitude": -80.72111249999999, "care_type": "OB-GYN"}, {"name": "Shalowitz Robert J MD", "address": "426 8th St, Glen Dale, WV 26038", "city": "Glen Dale", "phone": "+1 304-843-1100", "website": "", "rating": 5.0, "reviews": 1, "place_id": "ChIJUyoTcy_eNYgR92hU23YUv9Y", "latitude": 39.9469429, "longitude": -80.7518997, "care_type": "OB-GYN"}, {"name": "Swamy Chandra S MD", "address": "30 Medical Park Rd #233, Wheeling, WV 26003", "city": "Wheeling", "phone": "+1 304-242-9560", "website": "https://wheelinghospital.org/", "rating": 4.0, "reviews": 19, "place_id": "ChIJqTrollPaNYgR0woxN9OSzU0", "latitude": 40.058923, "longitude": -80.68479599999999, "care_type": "OB-GYN"}, {"name": "Dr. Peter Z. Bala, MD", "address": "30 Medical Park Rd # 219, Wheeling, WV 26003", "city": "Wheeling", "phone": "+1 304-243-7160", "website": "https://wheelinghospital.org/doctor/docdet.aspx%3Fp%3D18", "rating": 4.6, "reviews": 24, "place_id": "ChIJqTrollPaNYgRWsy_ZdEp9m4", "latitude": 40.0588802, "longitude": -80.6847852, "care_type": "OB-GYN"}, {"name": "Nicole Carlson", "address": "800 Wheeling Ave, Glen Dale, WV 26038", "city": "Glen Dale", "phone": "+1 304-221-4543", "website": "", "rating": 1.0, "reviews": 1, "place_id": "ChIJq6qqviXeNYgRtN3VlZaGaqY", "latitude": 39.9460013, "longitude": -80.75262099999999, "care_type": "OB-GYN"}, {"name": "United Hospital Center Obstetrics and Gynecology", "address": "527 Medical Park Dr Ste 108, Bridgeport, WV 26330", "city": "Bridgeport", "phone": "+1 800-607-8888", "website": "https://wvobgyncenter.com/", "rating": 1.6, "reviews": 19, "place_id": "ChIJ2yre-dZlSogRKKVcnB6R6w4", "latitude": 39.3271039, "longitude": -80.23986289999999, "care_type": "OB-GYN"}, {"name": "United Hospital Center", "address": "327 Medical Park Dr, Bridgeport, WV 26330", "city": "Bridgeport", "phone": "+1 681-342-1000", "website": "https://wvumedicine.org/united-hospital-center/", "rating": 3.4, "reviews": 0, "place_id": "ChIJZ601CMtlSogRASwvHPqUXkw", "latitude": 39.3281703, "longitude": -80.2396686, "care_type": "OB-GYN"}, {"name": "WVU Obstetrics & Gynecology: Sneath Dawn MD", "address": "527 Medical Park Dr Ste 108, Bridgeport, WV 26330", "city": "Bridgeport", "phone": "+1 304-848-2150", "website": "http://wvumedicine.org/", "rating": null, "reviews": 0, "place_id": "ChIJ2yre-dZlSogRUVry6pssK60", "latitude": 39.3271039, "longitude": -80.23986289999999, "care_type": "OB-GYN"}, {"name": "Hurst Stephanie", "address": "527 Medical Park Dr # 204, Bridgeport, WV 26330", "city": "Bridgeport", "phone": "+1 304-933-3800", "website": "http://asidrs.com/", "rating": 3.7, "reviews": 3, "place_id": "ChIJ2yre-dZlSogRG17SldcRgpQ", "latitude": 39.3271039, "longitude": -80.23986289999999, "care_type": "OB-GYN"}, {"name": "Early Ob/Gyn", "address": "102 E Philadelphia Ave, Bridgeport, WV 26330", "city": "Bridgeport", "phone": "", "website": "", "rating": null, "reviews": 0, "place_id": "ChIJh-jSo0tmSogReTaLXQxI5C0", "latitude": 39.2871431, "longitude": -80.2507329, "care_type": "OB-GYN"}, {"name": "Dr. Janell Mace", "address": "527 Medical Park Dr Ste 108, Bridgeport, WV 26330", "city": "Bridgeport", "phone": "+1 304-285-7101", "website": "https://directory.hsc.wvu.edu/Profile/43221", "rating": null, "reviews": 0, "place_id": "ChIJGZCG-dZlSogRM8pFeSQ5Uvo", "latitude": 39.3271377, "longitude": -80.2399433, "care_type": "OB-GYN"}, {"name": "WomanCare, Inc.", "address": "700 Genesis Blvd, Bridgeport, WV 26330", "city": "Bridgeport", "phone": "+1 304-366-6100", "website": "", "rating": null, "reviews": 0, "place_id": "ChIJL9ZMdoNmSogR_PnaKyrRmss", "latitude": 39.316476, "longitude": -80.2232136, "care_type": "OB-GYN"}, {"name": "WVU Obstetrics & Gynecology: Honaker Matthew J MD", "address": "527 Medical Park Dr Ste 108, Bridgeport, WV 26330", "city": "Bridgeport", "phone": "+1 304-848-2150", "website": "http://wvumedicine.org/", "rating": null, "reviews": 0, "place_id": "ChIJ2yre-dZlSogRDvD6nDQoplw", "latitude": 39.3271039, "longitude": -80.23986289999999, "care_type": "OB-GYN"}, {"name": "Wanda Hembree, MD", "address": "527 Medical Park Dr, Bridgeport, WV 26330", "city": "Bridgeport", "phone": "+1 304-848-2150", "website": "http://wvumedicine.org/", "rating": null, "reviews": 0, "place_id": "ChIJzyre-dZlSogRP5tytlCkhq0", "latitude": 39.3271039, "longitude": -80.2398628, "care_type": "OB-GYN"}, {"name": "Dr. Matthew J. Honaker, MD", "address": "902 Lodgeville Rd, Bridgeport, WV 26330", "city": "Bridgeport", "phone": "+1 304-842-0801", "website": "", "rating": 3.0, "reviews": 2, "place_id": "ChIJ15V0fZ1oSogRy7ReEw5al7g", "latitude": 39.2985433, "longitude": -80.2765149, "care_type": "OB-GYN"}, {"name": "Karen Fluet, DO", "address": "230 Hospital Plaza, Weston, WV 26452", "city": "Weston", "phone": "+1 304-269-8000", "website": "https://www.monhealth.com/sjmh", "rating": null, "reviews": 0, "place_id": "ChIJOQq9Hms3SogRBHW0-jjFfWQ", "latitude": 39.0476031, "longitude": -80.4921762, "care_type": "OB-GYN"}, {"name": "Elizabeth Hynes Smith, MD, F.A.C.O.G.", "address": "17978 WV-55, Baker, WV 26801", "city": "Baker", "phone": "+1 304-897-5915", "website": "http://hawsehealth.com/", "rating": 5.0, "reviews": 1, "place_id": "ChIJTSbF940LtYkRgRpnMZPYYgY", "latitude": 39.048003, "longitude": -78.73633199999999, "care_type": "OB-GYN"}, {"name": "WVU Medicine OBGYN Buckhannon", "address": "100 W Main St, Buckhannon, WV 26201", "city": "Buckhannon", "phone": "+1 304-473-2300", "website": "http://wvumedicine.org/", "rating": 4.1, "reviews": 9, "place_id": "ChIJNR3U0YFRSogRlDNTdml37H4", "latitude": 38.9929898, "longitude": -80.236043, "care_type": "OB-GYN"}, {"name": "Womancare Inc: Mc Kenzie Debra MD", "address": "1703 Locust Ave, Fairmont, WV 26554", "city": "Fairmont", "phone": "+1 304-366-6100", "website": "", "rating": 5.0, "reviews": 2, "place_id": "ChIJIfx8kw98SogRlOUiYFfQ1oE", "latitude": 39.472065, "longitude": -80.177882, "care_type": "OB-GYN"}, {"name": "Dr. Kimberly M. Farry, MD", "address": "100 W Main St #B, Buckhannon, WV 26201", "city": "Buckhannon", "phone": "+1 304-473-2300", "website": "https://directory.hsc.wvu.edu/Profile/52064", "rating": 5.0, "reviews": 2, "place_id": "ChIJAQAAACtSSogRCvCQMgZHE0M", "latitude": 38.9928924, "longitude": -80.2361609, "care_type": "OB-GYN"}, {"name": "Mon Health Obstetrics & Gynecology", "address": "1 Huntington Way, Fairmont, WV 26554", "city": "Fairmont", "phone": "+1 304-366-6100", "website": "https://www.monhealth.com/main/obstetrics-gynecology", "rating": 4.3, "reviews": 3, "place_id": "ChIJ07t4Y3t9SogRXDg_mzx5YtE", "latitude": 39.4298585, "longitude": -80.1956482, "care_type": "OB-GYN"}, {"name": "Karen Fluet, DO", "address": "1200 J D Anderson Dr, Morgantown, WV 26505", "city": "Morgantown", "phone": "+1 304-598-1200", "website": "https://www.monhealth.com/", "rating": null, "reviews": 0, "place_id": "ChIJfWPEUq17NYgRd_0FVmtYv2g", "latitude": 39.663593, "longitude": -79.9465508, "care_type": "OB-GYN"}, {"name": "Dr. Richard Enchill", "address": "812 Gorman Ave, Elkins, WV 26241", "city": "Elkins", "phone": "", "website": "", "rating": 5.0, "reviews": 3, "place_id": "ChIJAQBAqrfjSogRP345dgDfZYM", "latitude": 38.9280653, "longitude": -79.8547948, "care_type": "OB-GYN"}, {"name": "Dr. Allison B. Alexander, MD", "address": "1288 Suncrest Towne Centre Drive, Morgantown, WV 26505", "city": "Morgantown", "phone": "+1 304-285-5505", "website": "", "rating": 4.2, "reviews": 36, "place_id": "ChIJRcat9w97NYgRK9DOZakcfRI", "latitude": 39.6522836, "longitude": -79.9435579, "care_type": "OB-GYN"}, {"name": "WVU Medicine Obstetrics and Gynecology \u2013 Physician Office Center", "address": "1 Medical Center Dr, Morgantown, WV 26506", "city": "Morgantown", "phone": "+1 304-598-4880", "website": "http://wvumedicine.org/ruby-memorial-hospital/services/wvu-specialty-clinics/obstetrics-and-gynecology/", "rating": 3.4, "reviews": 10, "place_id": "ChIJdRc_oX17NYgR5CMnOst3Oig", "latitude": 39.6534472, "longitude": -79.9574781, "care_type": "OB-GYN"}, {"name": "Walsh Cynthia L MD", "address": "1322 Pineview Dr, Morgantown, WV 26505", "city": "Morgantown", "phone": "+1 304-599-8790", "website": "http://pineviewgyn.com/", "rating": 4.2, "reviews": 5, "place_id": "ChIJ68hWugR7NYgR4dO6hC2sDDY", "latitude": 39.6627802, "longitude": -79.9536993, "care_type": "OB-GYN"}, {"name": "Wvu Cheat Lake Physicians: Hashmi Mahreen MD", "address": "4210, 608 Cheat Rd, Morgantown, WV 26508", "city": "Morgantown", "phone": "+1 304-594-1313", "website": "https://weence.com/medical/doctors/morgantown/wvu-cheat-lake-physicians-hashmi-mahreen-md/", "rating": 5.0, "reviews": 2, "place_id": "ChIJJXsLYe5kNYgRAhkWm1GSukg", "latitude": 39.6486928, "longitude": -79.88831259999999, "care_type": "OB-GYN"}, {"name": "Dr. John M. Rollins, MD", "address": "1 Amalia Dr, Buckhannon, WV 26201", "city": "Buckhannon", "phone": "+1 304-473-2000", "website": "", "rating": 5.0, "reviews": 1, "place_id": "ChIJndwIzytSSogRPHoAZs9K54M", "latitude": 38.9911173, "longitude": -80.23649759999999, "care_type": "OB-GYN"}, {"name": "Mon Health Obstetrics & Gynecology", "address": "2000 Mon Health Medical Park Dr #2100, Morgantown, WV 26505", "city": "Morgantown", "phone": "+1 304-599-6811", "website": "https://www.monhealth.com/main/obstetrics-gynecology", "rating": 3.5, "reviews": 48, "place_id": "ChIJa_xeABx7NYgR69CIQbzNu4o", "latitude": 39.6578018, "longitude": -79.9501788, "care_type": "OB-GYN"}, {"name": "Dr. Shon Rowan", "address": "1322 Pineview Dr, Morgantown, WV 26505", "city": "Morgantown", "phone": "+1 304-285-7101", "website": "https://directory.hsc.wvu.edu/Profile/31656", "rating": 5.0, "reviews": 1, "place_id": "ChIJAQBQugR7NYgRxQJrLaoNGJE", "latitude": 39.6627334, "longitude": -79.9536852, "care_type": "OB-GYN"}, {"name": "Ossama Elsaccar", "address": "1 Medical Center Dr, Morgantown, WV 26506", "city": "Morgantown", "phone": "+1 304-285-7101", "website": "https://directory.hsc.wvu.edu/Profile/39697", "rating": 2.5, "reviews": 19, "place_id": "ChIJKy6dqA57NYgRukJDIZ3F49M", "latitude": 39.65391169999999, "longitude": -79.9577486, "care_type": "OB-GYN"}, {"name": "Dr. Roberta Renzelli-Cain", "address": "6040 University Town Centre Dr, Morgantown, WV 26501", "city": "Morgantown", "phone": "+1 304-285-7101", "website": "", "rating": 5.0, "reviews": 1, "place_id": "ChIJ-zRceeV7NYgRyPGbo3vOP44", "latitude": 39.644135, "longitude": -79.99801699999999, "care_type": "OB-GYN"}, {"name": "Marlee Greschner, DO", "address": "2000 Mon Health Medical Park Dr #2100, Morgantown, WV 26505", "city": "Morgantown", "phone": "+1 304-599-6811", "website": "https://www.monhealth.com/main/obstetrics-gynecology", "rating": 5.0, "reviews": 4, "place_id": "ChIJf46iVOd7NYgRF0onNxn06g4", "latitude": 39.6578316, "longitude": -79.9501011, "care_type": "OB-GYN"}, {"name": "Gail Rock, CNM", "address": "1325 Locust Ave, Fairmont, WV 26554", "city": "Fairmont", "phone": "+1 304-290-6906", "website": "http://www.frmcwv.com/", "rating": 5.0, "reviews": 9, "place_id": "ChIJuUECkwB7NYgRKz2Fpk9jPW8", "latitude": 39.4824518, "longitude": -80.165447, "care_type": "OB-GYN"}, {"name": "Women's Healthcare of Morgantown", "address": "2000 Mon Health Medical Park Dr #2300, Morgantown, WV 26505", "city": "Morgantown", "phone": "+1 304-599-6353", "website": "https://www.monhealth.com/main/newsroom/womens-healthcare-of-morgantown-merges-with-mon-he-281", "rating": 3.4, "reviews": 18, "place_id": "ChIJuUECkwB7NYgRUCH1MJVfrK4", "latitude": 39.6578018, "longitude": -79.9501788, "care_type": "OB-GYN"}, {"name": "Ossama Elsaccar", "address": "608 Cheat Rd, Morgantown, WV 26508", "city": "Morgantown", "phone": "+1 855-988-2273", "website": "https://directory.hsc.wvu.edu/Profile/39697", "rating": 3.0, "reviews": 2, "place_id": "ChIJPac4iu5kNYgRRqgshEUVLKg", "latitude": 39.6487099, "longitude": -79.888595, "care_type": "OB-GYN"}, {"name": "Shane T Prettyman, MD, FACOG", "address": "2000 Mon Health Medical Park Dr #2100, Morgantown, WV 26505", "city": "Morgantown", "phone": "+1 304-599-6811", "website": "https://www.monhealth.com/main/obstetrics-gynecology", "rating": 5.0, "reviews": 3, "place_id": "ChIJeZL1k-57NYgR9fC74iqS8xQ", "latitude": 39.6578018, "longitude": -79.9501788, "care_type": "OB-GYN"}, {"name": "Dr. Cheryl B. Wingate, MD", "address": "1703 Locust Ave, Fairmont, WV 26554", "city": "Fairmont", "phone": "+1 304-366-6100", "website": "", "rating": null, "reviews": 0, "place_id": "ChIJIfx8kw98SogRWRoBX-ZPlTg", "latitude": 39.472065, "longitude": -80.177882, "care_type": "OB-GYN"}, {"name": "Dr. Roberta Renzelli-Cain", "address": "1 Medical Center Dr, Morgantown, WV 26506", "city": "Morgantown", "phone": "+1 304-598-4865", "website": "", "rating": 3.0, "reviews": 4, "place_id": "ChIJKy6dqA57NYgR10HDah_UVjY", "latitude": 39.65391169999999, "longitude": -79.9577486, "care_type": "OB-GYN"}, {"name": "Marlee Greschner, DO", "address": "1 Huntington Way, Fairmont, WV 26554", "city": "Fairmont", "phone": "+1 304-366-6100", "website": "https://www.monhealth.com/main/obstetrics-gynecology", "rating": null, "reviews": 0, "place_id": "ChIJH-I6vHR9SogRxcSVHWQZ26k", "latitude": 39.4298585, "longitude": -80.1956482, "care_type": "OB-GYN"}, {"name": "Dr. Robin L. Meyer, MD", "address": "1703 Locust Ave, Fairmont, WV 26554", "city": "Fairmont", "phone": "+1 304-366-6100", "website": "", "rating": null, "reviews": 0, "place_id": "ChIJIfx8kw98SogR52ahsrB-zoE", "latitude": 39.472065, "longitude": -80.177882, "care_type": "OB-GYN"}, {"name": "Dr. Sean Tubens", "address": "6040 University Town Centre Dr, Morgantown, WV 26501", "city": "Morgantown", "phone": "+1 304-285-7222", "website": "", "rating": 3.0, "reviews": 2, "place_id": "ChIJ-zRceeV7NYgRagh5a2Z_MAs", "latitude": 39.644135, "longitude": -79.99801699999999, "care_type": "OB-GYN"}, {"name": "Scott Mary a MD", "address": "812 Gorman Ave, Elkins, WV 26241", "city": "Elkins", "phone": "+1 304-636-0172", "website": "http://www.davishealthsystem.org/", "rating": 1.0, "reviews": 1, "place_id": "ChIJPxDpI8jjSogRuQOqd6JvDqU", "latitude": 38.928675, "longitude": -79.8518411, "care_type": "OB-GYN"}, {"name": "Robert Shapiro", "address": "6040 University Town Centre Dr, Morgantown, WV 26501", "city": "Morgantown", "phone": "+1 304-285-7101", "website": "", "rating": 5.0, "reviews": 1, "place_id": "ChIJ-zRceeV7NYgRP10ZbZNOrVg", "latitude": 39.644135, "longitude": -79.99801699999999, "care_type": "OB-GYN"}, {"name": "Wingate Cheryl B MD", "address": "700 Genesis Blvd, Bridgeport, WV 26330", "city": "Bridgeport", "phone": "+1 304-366-6100", "website": "", "rating": null, "reviews": 0, "place_id": "ChIJL9ZMdoNmSogRLlwtrcyUp0Q", "latitude": 39.3164863, "longitude": -80.2232257, "care_type": "OB-GYN"}, {"name": "Barberio-Saas Marissa", "address": "1703 Locust Ave, Fairmont, WV 26554", "city": "Fairmont", "phone": "+1 304-366-6100", "website": "", "rating": 1.0, "reviews": 3, "place_id": "ChIJIfx8kw98SogRrDgjdinVL-s", "latitude": 39.472065, "longitude": -80.177882, "care_type": "OB-GYN"}, {"name": "Rowan Shon P MD", "address": "1 Medical Center Dr, Morgantown, WV 26506", "city": "Morgantown", "phone": "+1 304-293-2521", "website": "", "rating": 2.3, "reviews": 3, "place_id": "ChIJyfqpD4J8NYgR2R6TMb8pUbA", "latitude": 39.6534151, "longitude": -79.9573549, "care_type": "OB-GYN"}, {"name": "Erica Arthurs, MD", "address": "2000 Mon Health Medical Park Dr #2100, Morgantown, WV 26505", "city": "Morgantown", "phone": "+1 304-599-6811", "website": "https://www.monhealth.com/main/obstetrics-gynecology", "rating": 1.0, "reviews": 1, "place_id": "ChIJU_VsQTx7NYgRhDTVG5q2oqA", "latitude": 39.6578613, "longitude": -79.95002319999999, "care_type": "OB-GYN"}, {"name": "Amanda G Sherman, DO", "address": "2000 Mon Health Medical Park Dr #2100, Morgantown, WV 26505", "city": "Morgantown", "phone": "+1 304-599-6811", "website": "https://www.monhealth.com/main/obstetrics-gynecology", "rating": null, "reviews": 0, "place_id": "ChIJ19OaWBp7NYgRAN4ln6cqKOk", "latitude": 39.6578018, "longitude": -79.9501788, "care_type": "OB-GYN"}, {"name": "Harman John MD", "address": "Fairmont, WV 26554", "city": "Fairmont", "phone": "+1 304-367-6345", "website": "", "rating": null, "reviews": 0, "place_id": "ChIJT7heAX5-SogReD1wrKBagbo", "latitude": 39.4850848, "longitude": -80.1425781, "care_type": "OB-GYN"}, {"name": "WVU Medicine St Joseph's OB/GYN Elkins", "address": "105 Nathan St, Elkins, WV 26241", "city": "Elkins", "phone": "+1 304-473-2300", "website": "http://www.stj.net/", "rating": null, "reviews": 0, "place_id": "ChIJFYA6HADjSogRtn2p1RYyHys", "latitude": 38.9331485, "longitude": -79.8670688, "care_type": "OB-GYN"}, {"name": "Mon Health Mid Atlantic Gynecologic Oncology", "address": "1200 J D Anderson Dr, Morgantown, WV 26505", "city": "Morgantown", "phone": "+1 304-285-3870", "website": "https://www.monhealth.com/main/cancer-care%3Futm_source%3Dlocal-listing%26utm_medium%3Dorganic%26utm_campaign%3Dwebsite-link", "rating": 5.0, "reviews": 4, "place_id": "ChIJqXlHpB57NYgRbV2ND4o6AHI", "latitude": 39.6637283, "longitude": -79.9468459, "care_type": "OB-GYN"}, {"name": "Meyer Houpe Robin L MD", "address": "700 Genesis Blvd, Bridgeport, WV 26330", "city": "Bridgeport", "phone": "+1 304-366-6100", "website": "https://weence.com/medical/doctors/bridgeport-west-virginia/meyer-houpe-robin-l-md/", "rating": null, "reviews": 0, "place_id": "ChIJL9ZMdoNmSogR_fMktJcU9gk", "latitude": 39.3164863, "longitude": -80.2232042, "care_type": "OB-GYN"}, {"name": "Ossama Elsaccar", "address": "6040 University Town Centre Dr, Morgantown, WV 26501", "city": "Morgantown", "phone": "+1 855-988-2273", "website": "https://directory.hsc.wvu.edu/Profile/39697", "rating": 1.0, "reviews": 2, "place_id": "ChIJ-zRceeV7NYgR7XYpmekxU5Y", "latitude": 39.644135, "longitude": -79.99801699999999, "care_type": "OB-GYN"}, {"name": "Omar Duenas", "address": "1 Medical Center Dr, Morgantown, WV 26506", "city": "Morgantown", "phone": "+1 304-285-7101", "website": "https://directory.hsc.wvu.edu/Profile/51555", "rating": 3.0, "reviews": 2, "place_id": "ChIJKy6dqA57NYgRafIHKrL67pA", "latitude": 39.65391169999999, "longitude": -79.9577486, "care_type": "OB-GYN"}, {"name": "Cuppett Courtney D MD", "address": "1 Medical Center Dr, Morgantown, WV 26506", "city": "Morgantown", "phone": "+1 304-293-2521", "website": "", "rating": null, "reviews": 0, "place_id": "ChIJ4Q9QGQx7NYgRCvjAHZpiQAk", "latitude": 39.6534151, "longitude": -79.9573549, "care_type": "OB-GYN"}, {"name": "Kayla Pomp-Steurer", "address": "6040 University Town Centre Dr, Morgantown, WV 26501", "city": "Morgantown", "phone": "+1 304-598-4880", "website": "https://directory.hsc.wvu.edu/Profile/61065", "rating": 5.0, "reviews": 1, "place_id": "ChIJ-zRceeV7NYgRU5n9K8iJxbY", "latitude": 39.644135, "longitude": -79.99801699999999, "care_type": "OB-GYN"}, {"name": "Toffle Roger C MD", "address": "1322 Pineview Dr # 2, Morgantown, WV 26505", "city": "Morgantown", "phone": "+1 304-599-8790", "website": "https://hsc.wvu.edu/hub/announcements/story%3Fheadline%3Dcelebration-of-life-honoring-dr-roger-toffle", "rating": null, "reviews": 0, "place_id": "ChIJ68hWugR7NYgRUt8nfNilCk4", "latitude": 39.6627802, "longitude": -79.9536993, "care_type": "OB-GYN"}, {"name": "Kerri Hall, MD, FACOG", "address": "2000 Mon Health Medical Park Dr #2100, Morgantown, WV 26505", "city": "Morgantown", "phone": "+1 304-599-6811", "website": "https://www.monhealth.com/main/obstetrics-gynecology", "rating": null, "reviews": 0, "place_id": "ChIJ6c8CAhZ7NYgRs3Rr92YrreE", "latitude": 39.657802, "longitude": -79.95017899999999, "care_type": "OB-GYN"}, {"name": "Cormier Serge MD", "address": "525 Davis Ave, Elkins, WV 26241", "city": "Elkins", "phone": "+1 304-637-3771", "website": "", "rating": null, "reviews": 0, "place_id": "ChIJeampX8jjSogR6UAtbot-h7o", "latitude": 38.9284877, "longitude": -79.8495283, "care_type": "OB-GYN"}, {"name": "Krista Pfaendler", "address": "1 Medical Center Dr Rm 1206HSC, Morgantown, WV 26506", "city": "Morgantown", "phone": "+1 304-293-1964", "website": "https://medicine.hsc.wvu.edu/profiles/faculty-staff/krista-pfaendler/", "rating": null, "reviews": 0, "place_id": "ChIJKy6dqA57NYgRLcZ2576YWJ0", "latitude": 39.6537704, "longitude": -79.9576495, "care_type": "OB-GYN"}, {"name": "Hochberg Julio MD", "address": "2608 Cranberry Square, Morgantown, WV 26508", "city": "Morgantown", "phone": "+1 304-594-1096", "website": "", "rating": null, "reviews": 0, "place_id": "ChIJdRc_oX17NYgRJV5xmvnXmFU", "latitude": 39.6717127, "longitude": -79.8547632, "care_type": "OB-GYN"}, {"name": "Annelee Boyle", "address": "1 Medical Center Dr, Morgantown, WV 26506", "city": "Morgantown", "phone": "+1 304-293-1964", "website": "", "rating": null, "reviews": 0, "place_id": "ChIJKy6dqA57NYgRg04UvBJ7vA4", "latitude": 39.65391169999999, "longitude": -79.9577486, "care_type": "OB-GYN"}, {"name": "Cerbone Lena", "address": "608 Cheat Rd, Morgantown, WV 26508", "city": "Morgantown", "phone": "+1 304-594-1313", "website": "", "rating": null, "reviews": 0, "place_id": "ChIJdRc_oX17NYgRrOVMY-sjQs4", "latitude": 39.6487186, "longitude": -79.8885016, "care_type": "OB-GYN"}, {"name": "Patricia J. Harman, CNM", "address": "1000 J D Anderson Dr, Morgantown, WV 26505", "city": "Morgantown", "phone": "+1 304-599-6811", "website": "http://monhealth.com/", "rating": null, "reviews": 0, "place_id": "ChIJa_xeABx7NYgRjivwPwYNYhE", "latitude": 39.6635607, "longitude": -79.94684269999999, "care_type": "OB-GYN"}, {"name": "Dr. Richard S. Kerr, MD", "address": "200 Wedgewood Dr, Morgantown, WV 26505", "city": "Morgantown", "phone": "+1 304-599-6353", "website": "", "rating": null, "reviews": 0, "place_id": "ChIJuUECkwB7NYgRFwV6S686C_0", "latitude": 39.666062, "longitude": -79.9629135, "care_type": "OB-GYN"}, {"name": "Jan Thomas", "address": "1249 Suncrest Towne Centre Drive, Morgantown, WV 26505", "city": "Morgantown", "phone": "+1 304-599-6353", "website": "", "rating": null, "reviews": 0, "place_id": "ChIJac5WIhZ7NYgRc-I7Dc5kCX8", "latitude": 39.6523442, "longitude": -79.9432569, "care_type": "OB-GYN"}, {"name": "Dr. Christine Wilson", "address": "1200 J D Anderson Dr, Morgantown, WV 26505", "city": "Morgantown", "phone": "+1 304-598-1200", "website": "", "rating": null, "reviews": 0, "place_id": "ChIJbbZ4pB57NYgRhJz4KqKYnK0", "latitude": 39.663925, "longitude": -79.94674909999999, "care_type": "OB-GYN"}, {"name": "Dr. Eddie H. Sze, MD", "address": "608 Cheat Rd, Morgantown, WV 26508", "city": "Morgantown", "phone": "+1 304-594-1313", "website": "", "rating": null, "reviews": 0, "place_id": "ChIJJXsLYe5kNYgResvOmdXZeA0", "latitude": 39.6487033, "longitude": -79.8885427, "care_type": "OB-GYN"}, {"name": "Dr. Amanda Sherman", "address": "1200 J D Anderson Dr Ste 3100, Morgantown, WV 26505", "city": "Morgantown", "phone": "+1 304-599-6811", "website": "https://www.monhealth.com/main/find-a-physician/sherman-amanda-g-do-382", "rating": null, "reviews": 0, "place_id": "ChIJbbZ4pB57NYgRupuf2RaZsxw", "latitude": 39.663925, "longitude": -79.94674909999999, "care_type": "OB-GYN"}, {"name": "Omar Duenas", "address": "6040 University Town Centre Dr, Morgantown, WV 26501", "city": "Morgantown", "phone": "+1 304-293-1216", "website": "https://directory.hsc.wvu.edu/Profile/51555", "rating": 1.0, "reviews": 1, "place_id": "ChIJ-zRceeV7NYgRw8yy547Lf_Y", "latitude": 39.644135, "longitude": -79.99801699999999, "care_type": "OB-GYN"}, {"name": "Barclay Roger S MD", "address": "200 Wedgewood Dr # 102, Morgantown, WV 26505", "city": "Morgantown", "phone": "+1 304-599-0563", "website": "", "rating": null, "reviews": 0, "place_id": "ChIJuUECkwB7NYgRq0uwgvYJ1Ws", "latitude": 39.6661264, "longitude": -79.9627979, "care_type": "OB-GYN"}, {"name": "WVU Medicine OB/GYN \u2013 Martinsburg", "address": "880 N Tennessee Ave #105, Martinsburg, WV 25401", "city": "Martinsburg", "phone": "+1 304-596-2149", "website": "https://wvumedicine.org/physicians/primary-care/university-obgyn-associates/", "rating": 2.9, "reviews": 103, "place_id": "ChIJbxIHM68DyokRMV_OxZi1AIQ", "latitude": 39.4753329, "longitude": -77.9838852, "care_type": "OB-GYN"}, {"name": "All About Women Health Associates: Weirton Medical Center", "address": "651 Colliers Way #201, Weirton, WV 26062", "city": "Weirton", "phone": "+1 304-723-4700", "website": "https://aawha.com/", "rating": 2.4, "reviews": 71, "place_id": "ChIJh0SBHUQ3NIgR2bgAH8agB80", "latitude": 40.3925704, "longitude": -80.5283966, "care_type": "OB-GYN"}, {"name": "Kelly Cummings", "address": "1 Medical Center Dr, Morgantown, WV 26506", "city": "Morgantown", "phone": "+1 304-293-1964", "website": "https://doctors.wvumedicine.org/profile/%3Fid%3D26160", "rating": null, "reviews": 0, "place_id": "ChIJKy6dqA57NYgRf0_jErKIKdQ", "latitude": 39.65391169999999, "longitude": -79.9577486, "care_type": "OB-GYN"}, {"name": "WVU Medicine Center for Reproductive Medicine", "address": "1322 Pineview Dr, Morgantown, WV 26505", "city": "Morgantown", "phone": "+1 304-598-3100", "website": "https://wvumedicine.org/ruby-memorial-hospital/services/wvu-specialty-clinics/obstetrics-and-gynecology/reproductive-medicine-2/", "rating": 4.0, "reviews": 36, "place_id": "ChIJ68hWugR7NYgRv8xFE8rXBY8", "latitude": 39.6627802, "longitude": -79.9536993, "care_type": "OB-GYN"}, {"name": "Sarah Proffitt", "address": "1000 J D Anderson Dr Suite 401, Morgantown, WV 26505", "city": "Morgantown", "phone": "+1 304-599-3074", "website": "", "rating": null, "reviews": 0, "place_id": "ChIJT-8Rph57NYgRUMoIW5T85Do", "latitude": 39.6636838, "longitude": -79.9469471, "care_type": "OB-GYN"}, {"name": "Abigail Hoyle, DO", "address": "651 Colliers Way #201, Weirton, WV 26062", "city": "Weirton", "phone": "", "website": "https://aawha.com/about-us/abigail-hoyle-do.php", "rating": 5.0, "reviews": 3, "place_id": "ChIJO0Az9Eg3NIgRC6X9L51xOtI", "latitude": 40.3930616, "longitude": -80.52798949999999, "care_type": "OB-GYN"}, {"name": "Madison Crissey, NP", "address": "2000 Mon Health Medical Park Dr #2100, Morgantown, WV 26505", "city": "Morgantown", "phone": "+1 304-599-6811", "website": "https://www.monhealth.com/main/obstetrics-gynecology", "rating": null, "reviews": 0, "place_id": "ChIJURiPXPh7NYgR3apG1Q4n68o", "latitude": 39.6578316, "longitude": -79.9501011, "care_type": "OB-GYN"}, {"name": "Dr. Michaela Kessler", "address": "146 Pinnell St, Ripley, WV 25271", "city": "Ripley", "phone": "+1 304-373-1537", "website": "https://wvumedicine.org/jackson-general-hospital/ob-gyn/", "rating": null, "reviews": 0, "place_id": "ChIJVVXlXanvSIgRhMJSpZDxgdo", "latitude": 38.823763, "longitude": -81.7290854, "care_type": "OB-GYN"}, {"name": "Camden Clark OBGYN Clinic - Dr. Lisa Casalenuovo-Smeltzer, DO", "address": "801 Garfield Ave, Parkersburg, WV 26101", "city": "Parkersburg", "phone": "+1 304-600-7142", "website": "https://wvumedicine.org/find-a-doctor/doctor-details/%3Fid%3D695%26utm_source%3DGMBSocialClimb%26utm_medium%3DLisaCasalenuovo-Smeltzer%252CDO%26scct%3DPN06ae93b8b58cce945d1da51e8d8c8b44", "rating": 3.4, "reviews": 21, "place_id": "ChIJNXGr1KxLSIgRdfNoD33U_Qs", "latitude": 39.2705216, "longitude": -81.5605853, "care_type": "OB-GYN"}, {"name": "Camden Clark OBGYN - Garfield Clinic", "address": "705 Garfield Ave suite 420, Parkersburg, WV 26101", "city": "Parkersburg", "phone": "+1 304-713-2737", "website": "https://wvumedicine.org/camden-clark/obstetrics-and-gynecology/%3Futm_source%3DGMBSocialClimb%26utm_medium%3DCamdenClarkOBGYN-GarfieldClinic%26scct%3DPNe381b046815acc5e9bc12755a6c9e877", "rating": 5.0, "reviews": 80, "place_id": "ChIJTZfPIbRLSIgRTvoKxLm4T90", "latitude": 39.2702343, "longitude": -81.5608105, "care_type": "OB-GYN"}, {"name": "OB/GYN Clinic, Medical Office Building B", "address": "705 Garfield Ave suite 420, Parkersburg, WV 26101", "city": "Parkersburg", "phone": "+1 304-500-5155", "website": "https://wvumedicine.org/camden-clark/%3Futm_source%3DGMBSocialClimb%26utm_medium%3DOB%252FGYNClinic%252CMedicalOfficeBuildingB%26scct%3DPN9c9df0bbf659839a47d1003a1cf7cccd", "rating": 5.0, "reviews": 112, "place_id": "ChIJ4VpltV1LSIgR3YkynNfvab8", "latitude": 39.2698437, "longitude": -81.56023239999999, "care_type": "OB-GYN"}, {"name": "Mays Patricia J", "address": "522 Grand Central Ave, Vienna, WV 26105", "city": "Vienna", "phone": "+1 304-295-3331", "website": "", "rating": null, "reviews": 0, "place_id": "ChIJYVoBV_1KSIgRlX0OQScIZ7E", "latitude": 39.3038746, "longitude": -81.5491212, "care_type": "OB-GYN"}, {"name": "Edwards Robert MD FACOG", "address": "218 Undercliff Terrace, Princeton, WV 24740", "city": "Princeton", "phone": "+1 304-327-1890", "website": "http://www.babydocedwardswv.com/", "rating": 4.3, "reviews": 63, "place_id": "ChIJXRQP6sM-TogRMJdTkpra13Y", "latitude": 37.3655174, "longitude": -81.12050409999999, "care_type": "OB-GYN"}, {"name": "Summit Women's Health | Brandon Lingenfelter, DO, PhD", "address": "411 12th St Ext., Princeton, WV 24740", "city": "Princeton", "phone": "+1 681-282-5591", "website": "https://summitwomenshealth.com/", "rating": 4.9, "reviews": 1258, "place_id": "ChIJL63rzXxqTogRPz6vX01yHl4", "latitude": 37.35908879999999, "longitude": -81.1215209, "care_type": "OB-GYN"}, {"name": "Brodnick Randy M DO", "address": "504 Cherry St, Bluefield, WV 24701", "city": "Bluefield", "phone": "+1 304-327-0531", "website": "", "rating": 3.7, "reviews": 9, "place_id": "ChIJtz3E58M-TogRzOYasqcjGMo", "latitude": 37.2558145, "longitude": -81.23409749999999, "care_type": "OB-GYN"}, {"name": "Lasker Bruce L MD", "address": "510 Cherry St # 102, Bluefield, WV 24701", "city": "Bluefield", "phone": "+1 304-327-2568", "website": "", "rating": null, "reviews": 0, "place_id": "ChIJBSwE58M-TogRRMRe8ByPk3A", "latitude": 37.2555991, "longitude": -81.2350242, "care_type": "OB-GYN"}, {"name": "Randy Brodnik, DO, FACOG", "address": "150 Courthouse Rd #202, Princeton, WV 24740", "city": "Princeton", "phone": "+1 304-398-6851", "website": "", "rating": 4.2, "reviews": 53, "place_id": "ChIJtz3E58M-TogRGMuptrRWuC8", "latitude": 37.3594814, "longitude": -81.10801409999999, "care_type": "OB-GYN"}, {"name": "Premier Women's Health Specialists PLLC", "address": "1003 Oakhurst Dr, Charleston, WV 25314", "city": "Charleston", "phone": "+1 304-720-4455", "website": "https://premierwv.com/", "rating": 4.4, "reviews": 51, "place_id": "ChIJU6DonTgtT4gRhvpPZqyIYnM", "latitude": 38.3432285, "longitude": -81.6689614, "care_type": "OB-GYN"}, {"name": "Southern Steven C MD", "address": "12 Courtney Dr, Charleston, WV 25304", "city": "Charleston", "phone": "+1 304-925-7600", "website": "http://www.camc.org/body.cfm%3Fid%3D18%26action%3Ddetail%26ref%3D94", "rating": 3.9, "reviews": 14, "place_id": "ChIJt5-0zmUrT4gRk6prvWnxiGw", "latitude": 38.3245278, "longitude": -81.5944746, "care_type": "OB-GYN"}, {"name": "Lisa G. Burke, MD", "address": "300 Corporate Center Dr, Teays Valley, WV 25560", "city": "Teays Valley", "phone": "+1 304-691-1800", "website": "https://www.marshallhealth.org/find-a-provider/provider-details/%3FID%3D14", "rating": 4.7, "reviews": 25, "place_id": "ChIJ3a5UGyoIRogR72MSgRfrTsU", "latitude": 38.4544548, "longitude": -81.9273084, "care_type": "OB-GYN"}, {"name": "Yolanda Y. Campbell, MD", "address": "300 Corporate Center Dr, Teays Valley, WV 25560", "city": "Teays Valley", "phone": "+1 304-691-1800", "website": "https://www.marshallhealth.org/find-a-provider/provider-details/%3FID%3D16", "rating": 4.8, "reviews": 17, "place_id": "ChIJV4M6bwi0SIgRole4Jh90UHM", "latitude": 38.4544135, "longitude": -81.9272708, "care_type": "OB-GYN"}, {"name": "Stacey Hensel, MD", "address": "300 Corporate Center Dr 3rd Floor, Teays Valley, WV 25560", "city": "Teays Valley", "phone": "+1 304-691-1800", "website": "https://www.marshallhealth.org/find-a-provider/provider-details/%3FID%3D777", "rating": 5.0, "reviews": 17, "place_id": "ChIJIX8wVFoHRogRzPZrd5zpozY", "latitude": 38.4546181, "longitude": -81.9273084, "care_type": "OB-GYN"}, {"name": "Jessica L Matheny, MD", "address": "12 Courtney Dr, Charleston, WV 25304", "city": "Charleston", "phone": "+1 304-925-7600", "website": "http://www.camc.org/", "rating": 4.4, "reviews": 38, "place_id": "ChIJnVU7AmQrT4gRa6p5RSmGr4Y", "latitude": 38.3254439, "longitude": -81.59822059999999, "care_type": "OB-GYN"}, {"name": "Marshall OB/GYN - Teays Valley", "address": "300 Corporate Center Dr, Scott Depot, WV 25560", "city": "Scott Depot", "phone": "+1 304-691-1800", "website": "https://www.marshallhealth.org/locations/marshall-obgyn-teays-valley", "rating": 4.4, "reviews": 61, "place_id": "ChIJQ_-QcAi0SIgRpaw11k4F3-U", "latitude": 38.4544865, "longitude": -81.9273571, "care_type": "OB-GYN"}, {"name": "CAMC Obstetrics and Gynecology Center", "address": "800 Pennsylvania Ave, Charleston, WV 25302", "city": "Charleston", "phone": "+1 304-388-2427", "website": "http://camc.org/obgyncenter", "rating": 2.8, "reviews": 18, "place_id": "ChIJ2zvN3S3TSIgRSLrMLcwpRJw", "latitude": 38.3594884, "longitude": -81.6379243, "care_type": "OB-GYN"}, {"name": "David J. Patton, M.D.", "address": "108 W Washington St West, Charleston, WV 25302", "city": "Charleston", "phone": "+1 304-345-4525", "website": "http://www.drpatton.com/", "rating": 4.6, "reviews": 243, "place_id": "ChIJU6DonTgtT4gRD1YtPWAllnc", "latitude": 38.3600723, "longitude": -81.64023, "care_type": "OB-GYN"}, {"name": "Jessica Buerck, MD", "address": "300 Corporate Center Dr, Teays Valley, WV 25560", "city": "Teays Valley", "phone": "+1 304-691-1800", "website": "https://www.marshallhealth.org/find-a-provider/provider-details/%3FID%3D618", "rating": 5.0, "reviews": 8, "place_id": "ChIJhwVcGyoIRogRnFngTHleZug", "latitude": 38.4546181, "longitude": -81.9273084, "care_type": "OB-GYN"}, {"name": "FamilyCare OB/GYN & Birth Center", "address": "108 Washington St W Ste 201, Charleston, WV 25302", "city": "Charleston", "phone": "+1 304-345-2229", "website": "http://www.familycarewv.org/", "rating": 4.4, "reviews": 122, "place_id": "ChIJlffl5ZHTSIgRWgaIq3Q4Jsc", "latitude": 38.3599985, "longitude": -81.6405431, "care_type": "OB-GYN"}, {"name": "Sarah Witsberger,", "address": "830 Pennsylvania Ave Ste 304, Charleston, WV 25302", "city": "Charleston", "phone": "+1 304-388-1515", "website": "https://www.camc.org/", "rating": 5.0, "reviews": 10, "place_id": "ChIJW0R2CPjTSIgRDL2junrRj5g", "latitude": 38.3592952, "longitude": -81.6370878, "care_type": "OB-GYN"}, {"name": "Kiran Patel, MD", "address": "401 Division St Suite 306, South Charleston, WV 25309", "city": "South Charleston", "phone": "+1 304-766-4300", "website": "https://www.kiranpatelmd.com/", "rating": 4.8, "reviews": 273, "place_id": "ChIJe7QjKNIyT4gRz6t-xe6XQs4", "latitude": 38.3547147, "longitude": -81.7263921, "care_type": "OB-GYN"}, {"name": "Valley Health Pea Ridge", "address": "5636 US-60, Huntington, WV 25705", "city": "Huntington", "phone": "+1 304-781-5001", "website": "https://valleyhealth.org/locations/pea-ridge%3Futm_source%3Dgoogle%26utm_medium%3Dorganic%26utm_campaign%3Dgbp-main", "rating": 4.7, "reviews": 14, "place_id": "ChIJJ_1tSKkmRoIRQxA8cobdXKQ", "latitude": 38.40972989999999, "longitude": -82.32347419999999, "care_type": "OB-GYN"}, {"name": "FamilyCare HealthCenter: Hunter Paul B MD", "address": "830 Pennsylvania Ave Ste 402, Charleston, WV 25302", "city": "Charleston", "phone": "+1 304-343-4177", "website": "", "rating": 5.0, "reviews": 15, "place_id": "ChIJXzAr4C3TSIgRauEjBTDWwx4", "latitude": 38.3593863, "longitude": -81.6373551, "care_type": "OB-GYN"}, {"name": "Michael A. Schiano, MD", "address": "3415 MacCorkle Ave SE, Charleston, WV 25304", "city": "Charleston", "phone": "+1 304-388-2476", "website": "https://www.camc.org/", "rating": 3.6, "reviews": 11, "place_id": "ChIJJ2-EzGUrT4gRRMwSQ0Ri438", "latitude": 38.3273519, "longitude": -81.59974609999999, "care_type": "OB-GYN"}, {"name": "Michael R. Lao, MD", "address": "1003 Oakhurst Dr, Charleston, WV 25314", "city": "Charleston", "phone": "+1 304-720-4455", "website": "", "rating": 4.0, "reviews": 5, "place_id": "ChIJvzAPYDktT4gRQHnz-1UR8PQ", "latitude": 38.3432604, "longitude": -81.6689707, "care_type": "OB-GYN"}, {"name": "Cotes Osterman MD", "address": "500 Poplar St Ste 200, South Charleston, WV 25309", "city": "South Charleston", "phone": "+1 304-766-3400", "website": "", "rating": 5.0, "reviews": 7, "place_id": "ChIJF181rdEyT4gRfdJmrzCKAa0", "latitude": 38.353562, "longitude": -81.72618659999999, "care_type": "OB-GYN"}, {"name": "Emily Montgomery,", "address": "830 Pennsylvania Ave Ste 304, Charleston, WV 25302", "city": "Charleston", "phone": "+1 304-388-1515", "website": "https://www.camc.org/", "rating": 4.3, "reviews": 16, "place_id": "ChIJXzAr4C3TSIgRHn5aLSXLDbk", "latitude": 38.3591791, "longitude": -81.6367945, "care_type": "OB-GYN"}, {"name": "Andrea Kellar", "address": "3729 Teays Valley Road, Hurricane, WV 25526", "city": "Hurricane", "phone": "+1 304-760-6040", "website": "https://valleyhealth.org/providers/andrea-kellar-md/", "rating": 5.0, "reviews": 2, "place_id": "ChIJVVVF0-2zSIgR4Zm1pjbzVik", "latitude": 38.4453146, "longitude": -81.9670759, "care_type": "OB-GYN"}, {"name": "Yalcinkaya Tamer MD", "address": "830 Pennsylvania Ave Ste 304, Charleston, WV 25302", "city": "Charleston", "phone": "+1 304-388-1515", "website": "", "rating": 5.0, "reviews": 2, "place_id": "ChIJ6Wjf_zHTSIgRxwZdrJudxz0", "latitude": 38.3592999, "longitude": -81.6373855, "care_type": "OB-GYN"}, {"name": "Jared T. Brownfield, MD, FACOG", "address": "1600 Medical Center Dr # 4500, Huntington, WV 25701", "city": "Huntington", "phone": "+1 304-691-1400", "website": "https://www.marshallhealth.org/find-a-provider/provider-details/%3FID%3D357", "rating": 5.0, "reviews": 8, "place_id": "ChIJhwVcGyoIRogRckBGuf4IHM8", "latitude": 38.4090966, "longitude": -82.42688419999999, "care_type": "OB-GYN"}, {"name": "Dr. Aaron R. Parry", "address": "830 Pennsylvania Ave, Charleston, WV 25302", "city": "Charleston", "phone": "+1 304-346-4455", "website": "", "rating": 3.8, "reviews": 4, "place_id": "ChIJ2zvN3S3TSIgRUbMpEaovK3o", "latitude": 38.3591791, "longitude": -81.6367945, "care_type": "OB-GYN"}, {"name": "Akhil Patel, MD", "address": "401 Division St # 306, South Charleston, WV 25309", "city": "South Charleston", "phone": "+1 304-766-4300", "website": "https://www.kiranpatelmd.com/", "rating": 5.0, "reviews": 30, "place_id": "ChIJq_7PwC8zT4gRqrCegKC5ZRc", "latitude": 38.3556376, "longitude": -81.7259674, "care_type": "OB-GYN"}, {"name": "Thomas Hospitals Urogynecology", "address": "4607 MacCorkle Ave SW # 206, South Charleston, WV 25309", "city": "South Charleston", "phone": "+1 304-766-1133", "website": "http://thomashospitals.org/", "rating": 4.2, "reviews": 32, "place_id": "ChIJx7OJP9cyT4gRKJQUls5Yzl4", "latitude": 38.3547147, "longitude": -81.7263921, "care_type": "OB-GYN"}, {"name": "Amanda N. Pauley, MD,", "address": "1600 Medical Center Dr # 4500, Huntington, WV 25701", "city": "Huntington", "phone": "+1 304-691-1400", "website": "https://www.marshallhealth.org/find-a-provider/provider-details/%3FID%3D211", "rating": 4.8, "reviews": 16, "place_id": "ChIJ3a5UGyoIRogRQCz3iv4Ujd8", "latitude": 38.4090966, "longitude": -82.42688419999999, "care_type": "OB-GYN"}, {"name": "Brenda L. Mitchell, MD", "address": "1600 Medical Center Dr # 4500, Huntington, WV 25701", "city": "Huntington", "phone": "+1 304-691-1400", "website": "https://www.marshallhealth.org/find-a-provider/provider-details/%3FID%3D34", "rating": 4.2, "reviews": 5, "place_id": "ChIJVVVVGCoIRogRBblUaY9HXfc", "latitude": 38.4090966, "longitude": -82.42688419999999, "care_type": "OB-GYN"}, {"name": "Amy Wells, MD", "address": "WVU Medicine - Thomas Memorial Hospital, 4607 MacCorkle Ave SW #201, Charleston, WV 25309", "city": "Charleston", "phone": "+1 304-768-7770", "website": "https://wvumedicine.org/thomas-hospitals/services/obstetrics/", "rating": 5.0, "reviews": 6, "place_id": "ChIJDbxz40YzT4gRbBmOYXocMHQ", "latitude": 38.3548138, "longitude": -81.7266029, "care_type": "OB-GYN"}, {"name": "Basso Ana MD", "address": "301 Great Teays Blvd Suite 6, Scott Depot, WV 25560", "city": "Scott Depot", "phone": "+1 304-757-6999", "website": "http://www.familycarewv.org/", "rating": null, "reviews": 0, "place_id": "ChIJiS7YvRm0SIgRSLxZ5wecvxQ", "latitude": 38.4502819, "longitude": -81.9360481, "care_type": "OB-GYN"}, {"name": "WVU Medicine OB/GYN Thomas Hospitals", "address": "4607 MacCorkle Ave SW #201, South Charleston, WV 25309", "city": "South Charleston", "phone": "+1 304-768-7770", "website": "https://wvumedicine.org/thomas-hospitals/services/obstetrics/", "rating": 4.4, "reviews": 43, "place_id": "ChIJoQRVgNEyT4gReFp186z8j2k", "latitude": 38.3547147, "longitude": -81.7263921, "care_type": "OB-GYN"}, {"name": "Charleston Obstetrics/Gyn: Bush-Uy Kimberly MD", "address": "4607 MacCorkle Ave SW #201, South Charleston, WV 25309", "city": "South Charleston", "phone": "+1 304-768-7770", "website": "", "rating": 3.7, "reviews": 12, "place_id": "ChIJRxtVgNEyT4gRf3Z-Jm4Gjzk", "latitude": 38.3547147, "longitude": -81.7263921, "care_type": "OB-GYN"}, {"name": "Hill Andrea MD", "address": "4607 MacCorkle Ave SW #201, South Charleston, WV 25309", "city": "South Charleston", "phone": "+1 304-768-7770", "website": "", "rating": 4.5, "reviews": 8, "place_id": "ChIJReORmNEyT4gReZG2BZ_UWNI", "latitude": 38.3548138, "longitude": -81.7266029, "care_type": "OB-GYN"}, {"name": "Emily Sloane", "address": "5170 US-60 #3400, Huntington, WV 257052004", "city": "Huntington", "phone": "+1 304-399-2480", "website": "", "rating": 5.0, "reviews": 1, "place_id": "ChIJAQAA33cHRogRrgcxc-yUvLE", "latitude": 38.4149876, "longitude": -82.34501949999999, "care_type": "OB-GYN"}, {"name": "Kristin Sinning, MD", "address": "1600 Medical Center Dr # 4500, Huntington, WV 25701", "city": "Huntington", "phone": "+1 304-691-1400", "website": "https://www.marshallhealth.org/find-a-provider/provider-details/%3FID%3D615", "rating": 5.0, "reviews": 3, "place_id": "ChIJhwVcGyoIRogRMqgHeiBkCWk", "latitude": 38.4090966, "longitude": -82.42688419999999, "care_type": "OB-GYN"}, {"name": "Ciliberti Devin MD", "address": "116 Hills Plz, Charleston, WV 25387", "city": "Charleston", "phone": "+1 304-720-4466", "website": "http://www.familycarewv.org/", "rating": 3.2, "reviews": 5, "place_id": "ChIJM5jd4cfSSIgR321OYRA7eog", "latitude": 38.3688249, "longitude": -81.6711819, "care_type": "OB-GYN"}, {"name": "St. Mary's Women & Family Care Center", "address": "143 Peyton St, Barboursville, WV 25504", "city": "Barboursville", "phone": "+1 304-697-2035", "website": "https://www.st-marys.org/centers-services/ob-gyn", "rating": 3.6, "reviews": 25, "place_id": "ChIJqb4lVFoHRogRsFyop199-3Q", "latitude": 38.4087715, "longitude": -82.31491849999999, "care_type": "OB-GYN"}, {"name": "Marshall Obstetrics & Gynecology", "address": "1600 Medical Center Dr # 4500, Huntington, WV 25701", "city": "Huntington", "phone": "+1 304-691-1400", "website": "https://www.marshallhealth.org/locations/marshall-obgyn-huntington", "rating": 4.7, "reviews": 68, "place_id": "ChIJhwVcGyoIRogR16s9Tf42EcU", "latitude": 38.4090966, "longitude": -82.42688419999999, "care_type": "OB-GYN"}, {"name": "Marshall OB/GYN - HIMG", "address": "3075 US-60, Huntington, WV 25705", "city": "Huntington", "phone": "+1 304-399-2480", "website": "https://www.marshallhealth.org/locations/marshall-obgyn-himg", "rating": 4.8, "reviews": 21, "place_id": "ChIJbU7yZ50HRogRA0YaWuJh29E", "latitude": 38.4146524, "longitude": -82.3446252, "care_type": "OB-GYN"}, {"name": "Brian Bower, MD", "address": "104 Meadowcreek Dr, Barboursville, WV 25504", "city": "Barboursville", "phone": "+1 304-525-5405", "website": "", "rating": 4.6, "reviews": 27, "place_id": "ChIJZ74h0ysIRogRKOrllJSJpD4", "latitude": 38.4180145, "longitude": -82.2827835, "care_type": "OB-GYN"}, {"name": "Karinna Andrews,", "address": "830 Pennsylvania Ave Ste 304, Charleston, WV 25302", "city": "Charleston", "phone": "+1 304-388-1515", "website": "https://www.camc.org/", "rating": 3.2, "reviews": 6, "place_id": "ChIJ1ZIr5S3TSIgRFs3Ne7u5ZzY", "latitude": 38.3592952, "longitude": -81.6370878, "care_type": "OB-GYN"}, {"name": "Dr. Scott A. Naegele, MD", "address": "830 Pennsylvania Ave N, Charleston, WV 25302", "city": "Charleston", "phone": "+1 304-344-8368", "website": "", "rating": 3.7, "reviews": 9, "place_id": "ChIJXzAr4C3TSIgRggen5fFWgfM", "latitude": 38.3591516, "longitude": -81.63736, "care_type": "OB-GYN"}, {"name": "CAMC Women & Children's Hospital", "address": "800 Pennsylvania Ave N, Charleston, WV 25302", "city": "Charleston", "phone": "+1 304-388-5432", "website": "http://camc.org/wch", "rating": 3.3, "reviews": 216, "place_id": "ChIJvyBLOizTSIgRqCVm-MOTpWs", "latitude": 38.3594133, "longitude": -81.6382041, "care_type": "OB-GYN"}, {"name": "Amy \"Ally\" Roy, MD,", "address": "1600 Medical Center Dr # 4500, Huntington, WV 25701", "city": "Huntington", "phone": "+1 304-691-1400", "website": "https://www.marshallhealth.org/find-a-provider/provider-details/%3FID%3D413", "rating": 5.0, "reviews": 7, "place_id": "ChIJ6zZbqnQJRogRGAeE-0I43uE", "latitude": 38.4090966, "longitude": -82.42688419999999, "care_type": "OB-GYN"}, {"name": "Advantage Healthcare for Women", "address": "104 Meadow Point, Barboursville, WV 25504", "city": "Barboursville", "phone": "+1 304-525-5405", "website": "", "rating": 5.0, "reviews": 1, "place_id": "ChIJi5gzBr8ARogRmHsDGGC7PJY", "latitude": 38.4179288, "longitude": -82.2828249, "care_type": "OB-GYN"}, {"name": "Francis Hunter, MD", "address": "830 Pennsylvania Ave Ste 304, Charleston, WV 25302", "city": "Charleston", "phone": "+1 304-388-1515", "website": "https://www.camc.org/", "rating": 3.5, "reviews": 10, "place_id": "ChIJXzAr4C3TSIgRXa-6KFDnI9E", "latitude": 38.3592952, "longitude": -81.6370878, "care_type": "OB-GYN"}, {"name": "Susie King-Watts, CNM", "address": "143 Peyton St, Barboursville, WV 25504", "city": "Barboursville", "phone": "+1 304-697-2035", "website": "", "rating": 5.0, "reviews": 2, "place_id": "ChIJ3w4Ty20IRogRZFuPZ3uVKaM", "latitude": 38.4086816, "longitude": -82.31491919999999, "care_type": "OB-GYN"}, {"name": "Pickens Gantt, MD FACOG", "address": "830 Pennsylvania Ave Ste 205, Charleston, WV 25302", "city": "Charleston", "phone": "+1 304-388-2863", "website": "http://www.wvupc.org/", "rating": 5.0, "reviews": 1, "place_id": "ChIJ-eBl4i3TSIgRDu917_n268U", "latitude": 38.3591791, "longitude": -81.6367945, "care_type": "OB-GYN"}, {"name": "Todd Depond, MD", "address": "4607 MacCorkle Ave SW suite 301, South Charleston, WV 25309", "city": "South Charleston", "phone": "+1 304-767-7919", "website": "https://www.camc.org/", "rating": 5.0, "reviews": 4, "place_id": "ChIJ-eBl4i3TSIgRbL-eXqrw7m4", "latitude": 38.355308, "longitude": -81.7267687, "care_type": "OB-GYN"}, {"name": "Valley Health - A Woman's Place", "address": "1630 13th Ave Department A, Huntington, WV 25701", "city": "Huntington", "phone": "+1 304-697-2014", "website": "https://valleyhealth.org/locations/a-womans-place/%3Futm_source%3Dgoogle%26utm_medium%3Dorganic%26utm_campaign%3Dgbp-main", "rating": 3.6, "reviews": 40, "place_id": "ChIJf_LTKioIRogRuq3FjVjq4NU", "latitude": 38.4110433, "longitude": -82.4269874, "care_type": "OB-GYN"}, {"name": "Emily Sloane, MD", "address": "1600 Medical Center Dr # 4500, Huntington, WV 25701", "city": "Huntington", "phone": "+1 304-691-1400", "website": "https://www.marshallhealth.org/find-a-provider/provider-details/%3FID%3D691", "rating": 5.0, "reviews": 6, "place_id": "ChIJhwVcGyoIRogR0e-jdShaN-g", "latitude": 38.4090966, "longitude": -82.42688419999999, "care_type": "OB-GYN"}, {"name": "William N. Burns, MD, FACOG", "address": "1600 Medical Center Dr # 4500, Huntington, WV 25701", "city": "Huntington", "phone": "+1 304-691-1400", "website": "https://www.marshallhealth.org/find-a-provider/provider-details/%3FID%3D15", "rating": 4.0, "reviews": 8, "place_id": "ChIJ3a5UGyoIRogR9S1LxTLmLLA", "latitude": 38.4090966, "longitude": -82.42688419999999, "care_type": "OB-GYN"}, {"name": "Thomas David W MD", "address": "830 Pennsylvania Ave Ste 402, Charleston, WV 25302", "city": "Charleston", "phone": "+1 304-343-4177", "website": "", "rating": 4.4, "reviews": 5, "place_id": "ChIJXzAr4C3TSIgRKqiT_jIDXaY", "latitude": 38.3593779, "longitude": -81.6373524, "care_type": "OB-GYN"}, {"name": "David G. Chaffin, Jr., MD, FACOG", "address": "1600 Medical Center Dr # 4500, Huntington, WV 25701", "city": "Huntington", "phone": "+1 304-691-1400", "website": "https://www.marshallhealth.org/find-a-provider/provider-details/%3FID%3D20", "rating": 3.0, "reviews": 8, "place_id": "ChIJ3a5UGyoIRogR0wpvPFfu09Y", "latitude": 38.4090966, "longitude": -82.42688419999999, "care_type": "OB-GYN"}, {"name": "Dr. Paul S. Lee, MD", "address": "1660 12th Ave, Huntington, WV 25701", "city": "Huntington", "phone": "+1 304-522-3420", "website": "", "rating": 5.0, "reviews": 6, "place_id": "ChIJU1Ou2CsIRogRlND9jtXwSFs", "latitude": 38.4119223, "longitude": -82.4265605, "care_type": "OB-GYN"}, {"name": "Bryant Ashley L MD", "address": "4522 MacCorkle Ave SE # 3, Charleston, WV 25304", "city": "Charleston", "phone": "+1 304-720-7305", "website": "http://www.wvupc.org/", "rating": null, "reviews": 0, "place_id": "ChIJ5SA38WwrT4gRyojmH1Ns2Y0", "latitude": 38.3227843, "longitude": -81.58307839999999, "care_type": "OB-GYN"}, {"name": "FamilyCare Health Centers - Pennsylvania Avenue", "address": "830 Pennsylvania Ave Ste 402, Charleston, WV 25302", "city": "Charleston", "phone": "+1 304-760-6336", "website": "https://www.familycarewv.org/", "rating": 2.8, "reviews": 4, "place_id": "ChIJXzAr4C3TSIgRb0j1XZPL9GM", "latitude": 38.3591516, "longitude": -81.63736, "care_type": "OB-GYN"}, {"name": "Dr. Ujjal S. Sandhu, MD", "address": "301 Great Teays Blvd Suite 6, Scott Depot, WV 25560", "city": "Scott Depot", "phone": "+1 304-757-6999", "website": "http://www.familycarewv.org/", "rating": null, "reviews": 0, "place_id": "ChIJiS7YvRm0SIgRO4_Y7_vdcOw", "latitude": 38.4502819, "longitude": -81.9360481, "care_type": "OB-GYN"}, {"name": "FamilyCare HealthCenter: Basso Ana MD", "address": "515 Main St, Madison, WV 25130", "city": "Madison", "phone": "+1 304-369-0393", "website": "http://www.familycarewv.org/", "rating": null, "reviews": 0, "place_id": "ChIJEZQGKLM_T4gRqelop4z7css", "latitude": 38.06066089999999, "longitude": -81.8232706, "care_type": "OB-GYN"}, {"name": "Dr. Devin M. Ciliberti, MD", "address": "6108 Hills Lane, Charleston, WV 25312", "city": "Charleston", "phone": "+1 304-720-4466", "website": "http://www.familycarewv.org/", "rating": null, "reviews": 0, "place_id": "ChIJi3cNN8bRSIgR0BNSRLF_YMk", "latitude": 38.4708559, "longitude": -81.6725903, "care_type": "OB-GYN"}, {"name": "Dr. Joseph P. Assaley, MD", "address": "1660 12th Ave, Huntington, WV 25701", "city": "Huntington", "phone": "+1 304-522-3420", "website": "", "rating": 5.0, "reviews": 1, "place_id": "ChIJU1Ou2CsIRogR23xtvKStN_g", "latitude": 38.4119223, "longitude": -82.4265605, "care_type": "OB-GYN"}, {"name": "WOMENCARE INC", "address": "97 Great Teays Blvd #6, Scott Depot, WV 25560", "city": "Scott Depot", "phone": "+1 304-757-6999", "website": "https://dhhr.wv.gov/dpc/Services/Pages/facility.aspx%3FFacility%3DWomenCare,%2520Inc.%2520dba%2520FamilyCare", "rating": null, "reviews": 0, "place_id": "ChIJ1US7aRm0SIgRUEbmWlF5JDs", "latitude": 38.4525817, "longitude": -81.9362, "care_type": "OB-GYN"}, {"name": "Alex Poulsen, DO", "address": "1401 Hospital Dr Suite 302, Hurricane, WV 25526", "city": "Hurricane", "phone": "+1 304-351-1551", "website": "http://camc.org/", "rating": null, "reviews": 0, "place_id": "ChIJz_Z1Wa21SIgRU0Zi6ZZhZb0", "latitude": 38.451631, "longitude": -81.9508817, "care_type": "OB-GYN"}, {"name": "Dr. Paul D. Dietz, MD", "address": "301 Great Teays Blvd Suite 6, Scott Depot, WV 25560", "city": "Scott Depot", "phone": "+1 304-757-6999", "website": "http://www.familycarewv.org/", "rating": null, "reviews": 0, "place_id": "ChIJJy7YvRm0SIgRKc4S9cpXAwY", "latitude": 38.4502819, "longitude": -81.9360481, "care_type": "OB-GYN"}, {"name": "Dr. John M. Snyder, DO", "address": "213 Kenmore Dr, Danville, WV 25053", "city": "Danville", "phone": "+1 304-369-7967", "website": "", "rating": null, "reviews": 0, "place_id": "ChIJVUotEg0_T4gR-JXbCIlrIbc", "latitude": 38.0840456, "longitude": -81.8424873, "care_type": "OB-GYN"}, {"name": "Kessinger Linda MD", "address": "503 Roosevelt Blvd, Eleanor, WV 25070", "city": "Eleanor", "phone": "+1 304-586-0001", "website": "http://familycarewv.org/", "rating": 4.0, "reviews": 4, "place_id": "ChIJqxJPU2e3SIgRux2MjcTSRRQ", "latitude": 38.5349025, "longitude": -81.9259125, "care_type": "OB-GYN"}, {"name": "Dr. Alex Poulsen", "address": "800 Pennsylvania Ave, Charleston, WV 25302", "city": "Charleston", "phone": "+1 304-388-1515", "website": "https://www.camc.org/doctors/alex-matthew-poulsen-do", "rating": 5.0, "reviews": 2, "place_id": "ChIJVVXFyi3TSIgRUEz4wVwNMlg", "latitude": 38.3587606, "longitude": -81.6390835, "care_type": "OB-GYN"}, {"name": "Brumfield Steven MD", "address": "2866 1st Ave #501, Huntington, WV 25702", "city": "Huntington", "phone": "+1 304-697-2035", "website": "", "rating": 4.0, "reviews": 4, "place_id": "ChIJNdOVy20IRogRY2E3vE1xLco", "latitude": 38.4318654, "longitude": -82.4018973, "care_type": "OB-GYN"}, {"name": "CAMC Gynecologic Oncology", "address": "3415 MacCorkle Ave SE, Charleston, WV 25304", "city": "Charleston", "phone": "+1 304-388-2476", "website": "https://camc.org/", "rating": 5.0, "reviews": 1, "place_id": "ChIJZ4ecA0MrT4gRyG61K8kZKLw", "latitude": 38.3273519, "longitude": -81.59974609999999, "care_type": "OB-GYN"}, {"name": "Jones Ronald S MD", "address": "Charleston, WV 25302", "city": "Charleston", "phone": "+1 304-345-8107", "website": "", "rating": null, "reviews": 0, "place_id": "ChIJXzAr4C3TSIgRRUrVyAg9M0M", "latitude": 38.3582923, "longitude": -81.64396289999999, "care_type": "OB-GYN"}, {"name": "Michael Schiano", "address": "800 Pennsylvania Ave N, Charleston, WV 25302", "city": "Charleston", "phone": "+1 304-388-5432", "website": "", "rating": null, "reviews": 0, "place_id": "ChIJH7z5OyzTSIgRIo6pLdk9xuI", "latitude": 38.35907479999999, "longitude": -81.6401386, "care_type": "OB-GYN"}, {"name": "Woman Care Clinic", "address": "4501 MacCorkle Ave SW #200, South Charleston, WV 25309", "city": "South Charleston", "phone": "+1 304-766-9600", "website": "", "rating": null, "reviews": 0, "place_id": "ChIJuyU9G9IyT4gRVMMbIj9s5p0", "latitude": 38.3560297, "longitude": -81.7247649, "care_type": "OB-GYN"}, {"name": "Rodney L Stephens Md", "address": "331 Laidley St, Charleston, WV 25301", "city": "Charleston", "phone": "+1 304-344-0526", "website": "", "rating": null, "reviews": 0, "place_id": "ChIJX7ga3swsT4gR_daIMmz7Chk", "latitude": 38.3540548, "longitude": -81.6330263, "care_type": "OB-GYN"}, {"name": "Robert C. Nerhood, MD, FACOG", "address": "1600 Medical Center Dr # 4500, Huntington, WV 25701", "city": "Huntington", "phone": "+1 304-691-1100", "website": "https://www.marshallhealth.org/doctors/doctor-details/%3Fid%3D476", "rating": null, "reviews": 0, "place_id": "ChIJ3a5UGyoIRogRRibNi5ezptg", "latitude": 38.4090966, "longitude": -82.42688419999999, "care_type": "OB-GYN"}, {"name": "University Obstetrics & Gyn", "address": "1600 Medical Center Dr, Huntington, WV 25701", "city": "Huntington", "phone": "+1 304-691-1400", "website": "", "rating": null, "reviews": 0, "place_id": "ChIJ3a5UGyoIRogRv4_TVtC9tKw", "latitude": 38.4090966, "longitude": -82.42688419999999, "care_type": "OB-GYN"}, {"name": "Amber Kuhl", "address": "3377 US-60, Huntington, WV 257052837", "city": "Huntington", "phone": "+1 304-781-5001", "website": "https://valleyhealth.org/providers/amber-kuhl-md/", "rating": 3.0, "reviews": 2, "place_id": "ChIJZZofTvEHRogRwdVfGUu61LI", "latitude": 38.4105169, "longitude": -82.3729965, "care_type": "OB-GYN"}, {"name": "Bailey Thomas D MD", "address": "419 Brooks St, Charleston, WV 25301", "city": "Charleston", "phone": "+1 304-388-6004", "website": "http://camc.org/", "rating": null, "reviews": 0, "place_id": "ChIJ2cMciMksT4gR6bSLYbz4Oh0", "latitude": 38.3488059, "longitude": -81.6276358, "care_type": "OB-GYN"}, {"name": "Jared T. Brownfield, MD, FACOG", "address": "5170 US-60 #3400, Huntington, WV 25705", "city": "Huntington", "phone": "+1 304-399-2480", "website": "https://www.marshallhealth.org/find-a-provider/provider-details/%3FID%3D357", "rating": null, "reviews": 0, "place_id": "ChIJAQAA33cHRogRe6ZYUeuJFXg", "latitude": 38.4149876, "longitude": -82.34501949999999, "care_type": "OB-GYN"}, {"name": "Valley Health - Hurricane", "address": "3729 Teays Valley Road Suite 100 Department I, Hurricane, WV 25526", "city": "Hurricane", "phone": "+1 304-760-6040", "website": "https://valleyhealth.org/locations/hurricane/%3Futm_source%3Dgoogle%26utm_medium%3Dorganic%26utm_campaign%3Dgbp-main", "rating": 4.3, "reviews": 87, "place_id": "ChIJ1UVuzeuzSIgREW598EME4Zg", "latitude": 38.4453088, "longitude": -81.9669907, "care_type": "OB-GYN"}, {"name": "Pearcy Thompson E MD", "address": "830 Pennsylvania Ave Ste 110, Charleston, WV 25302", "city": "Charleston", "phone": "+1 304-344-2241", "website": "", "rating": null, "reviews": 0, "place_id": "ChIJXzAr4C3TSIgRBfD0prdpuGI", "latitude": 38.3591516, "longitude": -81.63736, "care_type": "OB-GYN"}, {"name": "Dr. Emily Montgomery", "address": "3100 MacCorkle Ave SE #700, Charleston, WV 25304", "city": "Charleston", "phone": "+1 304-347-1204", "website": "", "rating": null, "reviews": 0, "place_id": "ChIJI1BE2p8sT4gRZtnyfaNMc9M", "latitude": 38.3294219, "longitude": -81.60396399999999, "care_type": "OB-GYN"}, {"name": "Dr. Jennie Yoost", "address": "5170 US-60 #3400, Huntington, WV 25705", "city": "Huntington", "phone": "+1 304-399-2480", "website": "https://www.marshallhealth.org/find-a-provider/provider-details/%3FID%3D210", "rating": null, "reviews": 0, "place_id": "ChIJAQAA33cHRogRF_bpxV85ccw", "latitude": 38.4149876, "longitude": -82.34501949999999, "care_type": "OB-GYN"}, {"name": "Charleston Area Medical Center", "address": "800 Pennsylvania Ave, Charleston, WV 25302", "city": "Charleston", "phone": "+1 304-388-5432", "website": "http://www.camc.org/", "rating": 3.4, "reviews": 17, "place_id": "ChIJvyBLOizTSIgRWKjsT7CR89M", "latitude": 38.3594884, "longitude": -81.6379243, "care_type": "OB-GYN"}, {"name": "Herbert Myers, DO", "address": "1630 13th Ave Department A, Huntington, WV 25701", "city": "Huntington", "phone": "+1 304-697-2014", "website": "https://valleyhealth.org/providers/herbert-myers-do", "rating": null, "reviews": 0, "place_id": "ChIJf_LTKioIRogRJHPG9DvZh28", "latitude": 38.4110951, "longitude": -82.4270281, "care_type": "OB-GYN"}, {"name": "FamilyCare Health Center - St. Albans", "address": "12 Kanawha Terrace suite b, St Albans, WV 25177", "city": "St Albans", "phone": "+1 304-201-1130", "website": "http://www.familycarewv.org/", "rating": 4.4, "reviews": 251, "place_id": "ChIJ8Z_D-sPKSIgR6WLEqQ4eQtE", "latitude": 38.3858068, "longitude": -81.8387257, "care_type": "OB-GYN"}, {"name": "Amanda Pauley", "address": "5170 US-60 #3400, Huntington, WV 25705", "city": "Huntington", "phone": "+1 304-399-2480", "website": "https://www.marshallhealth.org/find-a-provider/provider-details/%3FID%3D211", "rating": null, "reviews": 0, "place_id": "ChIJAQAA33cHRogRjPnL4mTt-Es", "latitude": 38.4149876, "longitude": -82.34501949999999, "care_type": "OB-GYN"}, {"name": "Surgical Gyn Associates", "address": "9 Courtney Dr, Charleston, WV 25304", "city": "Charleston", "phone": "+1 304-925-3115", "website": "", "rating": null, "reviews": 0, "place_id": "ChIJe35EzGUrT4gR-xEZlIS42wg", "latitude": 38.3246513, "longitude": -81.5948554, "care_type": "OB-GYN"}, {"name": "Dr Carolyn E Clark Inc", "address": "1124 19th St, Huntington, WV 25701", "city": "Huntington", "phone": "+1 304-529-4117", "website": "https://rymap.org/business/dr-carolyn-e-clark-inc-4rux9c", "rating": 4.5, "reviews": 13, "place_id": "ChIJcZOxWi8IRogRcOsrwrh2dFg", "latitude": 38.4139509, "longitude": -82.4213584, "care_type": "OB-GYN"}, {"name": "Richard Booth, MD", "address": "2585 3rd Ave, Huntington, WV 25703", "city": "Huntington", "phone": "+1 304-781-5138", "website": "http://valleyhealth.org/", "rating": null, "reviews": 0, "place_id": "ChIJwxzGUBUIRogR-JcSfCKaYVM", "latitude": 38.4276628, "longitude": -82.4098908, "care_type": "OB-GYN"}, {"name": "Paul Dietz,", "address": "830 Pennsylvania Ave Ste 304, Charleston, WV 25302", "city": "Charleston", "phone": "+1 304-388-2427", "website": "https://www.camc.org/", "rating": 1.0, "reviews": 1, "place_id": "ChIJXzAr4C3TSIgRKABm1HnjSaA", "latitude": 38.3592952, "longitude": -81.6370878, "care_type": "OB-GYN"}, {"name": "FemCare Pllc", "address": "1200 Hospital Dr, Hurricane, WV 25526", "city": "Hurricane", "phone": "+1 304-757-4151", "website": "", "rating": null, "reviews": 0, "place_id": "ChIJVyq9dwi0SIgRXxc5QGhFNUU", "latitude": 38.4490417, "longitude": -81.9512227, "care_type": "OB-GYN"}, {"name": "Sandhu Ujjal S MD", "address": "4408 MacCorkle Ave SE, Charleston, WV 25304", "city": "Charleston", "phone": "+1 304-925-1218", "website": "http://www.familycarewv.org/", "rating": 1.0, "reviews": 3, "place_id": "ChIJn6EKbGwrT4gREHwexB42Z40", "latitude": 38.3238206, "longitude": -81.5849534, "care_type": "OB-GYN"}, {"name": "Dr. Mark W. Nolan, MD", "address": "2520 Valley Dr #214, Point Pleasant, WV 25550", "city": "Point Pleasant", "phone": "", "website": "http://www.pvalley.org/", "rating": 5.0, "reviews": 8, "place_id": "ChIJkcgfFF6bSIgROy-Cdl1JK0I", "latitude": 38.8662269, "longitude": -82.12490559999999, "care_type": "OB-GYN"}, {"name": "Jeri S. Kitchen, CNM", "address": "2605 Jackson Ave Bldg, Point Pleasant, WV 25550", "city": "Point Pleasant", "phone": "+1 304-675-4498", "website": "http://www.holzer.org/", "rating": 5.0, "reviews": 1, "place_id": "ChIJy3Vur1-bSIgRZp9AD4O72Nw", "latitude": 38.8702488, "longitude": -82.1259267, "care_type": "OB-GYN"}, {"name": "Dr. Fri Mofor-Eta", "address": "2416 Jefferson Ave, Point Pleasant, WV 25550", "city": "Point Pleasant", "phone": "+1 304-857-6503", "website": "http://www.pvalley.org/", "rating": 2.8, "reviews": 6, "place_id": "ChIJv8ywCWCbSIgRlffGrAvbWgg", "latitude": 38.8680324, "longitude": -82.1269145, "care_type": "OB-GYN"}, {"name": "Sam Badran, MD", "address": "2520 Valley Dr, Point Pleasant, WV 25550", "city": "Point Pleasant", "phone": "", "website": "", "rating": null, "reviews": 0, "place_id": "ChIJh07s4cebSIgRiMkZd8V59pM", "latitude": 38.8690037, "longitude": -82.123352, "care_type": "OB-GYN"}, {"name": "Michael Corbin, Md", "address": "2520 Valley Dr, Point Pleasant, WV 25550", "city": "Point Pleasant", "phone": "+1 304-675-2229", "website": "http://pvalley.org/", "rating": 5.0, "reviews": 2, "place_id": "ChIJkcgfFF6bSIgR0nXWRqHw2Yc", "latitude": 38.8691623, "longitude": -82.1229364, "care_type": "OB-GYN"}, {"name": "Olsson Jorgen P MD", "address": "801 Gorman Ave, Elkins, WV 26241", "city": "Elkins", "phone": "+1 304-636-0172", "website": "http://www.davishealthsystem.org/", "rating": null, "reviews": 0, "place_id": "ChIJVzATz7fjSogRsdgR8Q63bRk", "latitude": 38.9287945, "longitude": -79.8536117, "care_type": "OB-GYN"}, {"name": "Dr. Juddson D. Lindley, MD", "address": "497 Mall Rd, Oak Hill, WV 25901", "city": "Oak Hill", "phone": "+1 304-469-2905", "website": "http://newriverhealthwv.com/", "rating": 5.0, "reviews": 14, "place_id": "ChIJUVNvWfDyTogRH_YrSGIEFpc", "latitude": 38.01339919999999, "longitude": -81.1266246, "care_type": "OB-GYN"}, {"name": "AccessHealth Associates in Ob/Gyn Women's Health", "address": "1731 Harper Rd, Beckley, WV 25801", "city": "Beckley", "phone": "+1 304-255-1541", "website": "https://www.accesshealthwv.com/services/womens-health/", "rating": 3.5, "reviews": 33, "place_id": "ChIJUVNvWfDyTogRmv9fsG6i9l4", "latitude": 37.7885301, "longitude": -81.20437249999999, "care_type": "OB-GYN"}, {"name": "Dr. Jodie Posey-Bucks", "address": "497 Mall Rd, Oak Hill, WV 25901", "city": "Oak Hill", "phone": "+1 304-469-2905", "website": "", "rating": 1.0, "reviews": 1, "place_id": "ChIJAQCQ-uprTogR95ilcYMmGXs", "latitude": 38.01339919999999, "longitude": -81.1266246, "care_type": "OB-GYN"}, {"name": "Dr. Gina R. Busch, MD", "address": "9 Courtney Dr, Charleston, WV 25304", "city": "Charleston", "phone": "+1 304-925-3115", "website": "", "rating": 4.0, "reviews": 4, "place_id": "ChIJe35EzGUrT4gRKtXf8ZtcG9I", "latitude": 38.3246513, "longitude": -81.5948554, "care_type": "OB-GYN"}, {"name": "Byron Calhoun,", "address": "800 Pennsylvania Ave, Charleston, WV 25302", "city": "Charleston", "phone": "+1 304-388-1580", "website": "https://www.camc.org/", "rating": 3.8, "reviews": 16, "place_id": "ChIJXzAr4C3TSIgRp28VQuWeCAI", "latitude": 38.3587889, "longitude": -81.63907329999999, "care_type": "OB-GYN"}, {"name": "Lisa Skinner", "address": "1100 Grosscup Ave, Dunbar, WV 25064", "city": "Dunbar", "phone": "+1 304-768-8811", "website": "", "rating": 5.0, "reviews": 1, "place_id": "ChIJAQCwvCszT4gRnLh2NBWTBDs", "latitude": 38.3584996, "longitude": -81.73874719999999, "care_type": "OB-GYN"}, {"name": "WVU Medicine UHP OB/GYN \u2013 Ranson", "address": "201 E 5th Ave, Ranson, WV 25438", "city": "Ranson", "phone": "+1 304-596-2149", "website": "https://wvumedicine.org/physicians/specialty-care/ob-gyn-ranson/", "rating": 2.9, "reviews": 39, "place_id": "ChIJnXivGXMBtokRCk9doEYxd5M", "latitude": 39.2971966, "longitude": -77.8584128, "care_type": "OB-GYN"}, {"name": "Jessica Roelkey, PA-C", "address": "203 E 4th Ave, Ranson, WV 25438", "city": "Ranson", "phone": "+1 304-725-6343", "website": "", "rating": 4.3, "reviews": 4, "place_id": "ChIJDQFSGHMBtokReAgQOxYLyMU", "latitude": 39.296254, "longitude": -77.85801, "care_type": "OB-GYN"}, {"name": "Dr. Jessica Hott - Novella Women's Health", "address": "302 Rock Cliff Dr, Martinsburg, WV 25401", "city": "Martinsburg", "phone": "+1 304-596-2149", "website": "", "rating": 4.6, "reviews": 25, "place_id": "ChIJ40BHzqgDyokRfwAhZOxNGgI", "latitude": 39.4727518, "longitude": -77.96991109999999, "care_type": "OB-GYN"}, {"name": "Anderson Gynecology & Aesthetics: Stacey Anderson, MD.", "address": "94 Old Mill Rd, Martinsburg, WV 25401", "city": "Martinsburg", "phone": "+1 681-229-7963", "website": "http://obgynmartinsburg.com/", "rating": 4.5, "reviews": 251, "place_id": "ChIJkz-ZmlQCyokR02ISsPRR2lg", "latitude": 39.4652869, "longitude": -77.9882794, "care_type": "OB-GYN"}, {"name": "Dr. Consuela J. Cruden-Parham, MD", "address": "99 Tavern Rd Suite, Martinsburg, WV 25401", "city": "Martinsburg", "phone": "+1 304-263-4999", "website": "http://www.svms.net/", "rating": 3.5, "reviews": 11, "place_id": "ChIJNS2GxlYCyokR9vemSFsR3IQ", "latitude": 39.4739508, "longitude": -77.9663516, "care_type": "OB-GYN"}, {"name": "Dr. Krista L. Hopkins, MD", "address": "99 Tavern Rd, Martinsburg, WV 25401", "city": "Martinsburg", "phone": "+1 304-263-8964", "website": "http://www.shencommhealth.com/locations.php", "rating": 4.3, "reviews": 6, "place_id": "ChIJNS2GxlYCyokRclb08dx_hwQ", "latitude": 39.4739508, "longitude": -77.9663516, "care_type": "OB-GYN"}, {"name": "Woman and Child, PC", "address": "1178 Shepherdstown Rd, Martinsburg, WV 25404", "city": "Martinsburg", "phone": "+1 304-264-9332", "website": "http://www.womanandchild.net/", "rating": 3.2, "reviews": 29, "place_id": "ChIJd565Y1QCyokRAo_0Y5Fss0c", "latitude": 39.4643558, "longitude": -77.9391615, "care_type": "OB-GYN"}, {"name": "Valley Health Multispecialty Clinic | Charles Town", "address": "710 Somerset Blvd Ste 100, Charles Town, WV 25414", "city": "Charles Town", "phone": "+1 304-930-0031", "website": "https://www.valleyhealthlink.com/our-locations/valley-health-multispecialty-clinic-charles-town/", "rating": null, "reviews": 0, "place_id": "ChIJrWSLlx0DtokRZ9HvEhlVFFs", "latitude": 39.3005741, "longitude": -77.8209589, "care_type": "OB-GYN"}, {"name": "Dr Erin V Stoehr, DO", "address": "53 Washington Ave, Wheeling, WV 26003", "city": "Wheeling", "phone": "+1 304-242-3900", "website": "http://drerinstoehr.com/", "rating": 2.5, "reviews": 31, "place_id": "ChIJqTrollPaNYgRoCgkCW8QASI", "latitude": 40.07087509999999, "longitude": -80.68542029999999, "care_type": "OB-GYN"}, {"name": "Morris Laura E MD", "address": "1 Medical Park Rd Ste 704, Wheeling, WV 26003", "city": "Wheeling", "phone": "+1 304-243-8300", "website": "", "rating": 2.8, "reviews": 26, "place_id": "ChIJuSVlrFPaNYgRFpqJLNtffng", "latitude": 40.059072, "longitude": -80.685052, "care_type": "OB-GYN"}, {"name": "Dr. Catherine C. Coleman, MD", "address": "30 Medical Park Rd # 230, Wheeling, WV 26003", "city": "Wheeling", "phone": "+1 304-242-4660", "website": "", "rating": 3.0, "reviews": 4, "place_id": "ChIJqTrollPaNYgRQvBYyMR71rI", "latitude": 40.0592066, "longitude": -80.6837956, "care_type": "OB-GYN"}, {"name": "Dr. Cesar D. Pizarro, MD", "address": "2115 Chapline St # 201, Wheeling, WV 26003", "city": "Wheeling", "phone": "+1 304-234-1610", "website": "", "rating": 5.0, "reviews": 2, "place_id": "ChIJw6Qga4DZNYgRF15e8Iq-9ZU", "latitude": 40.0604748, "longitude": -80.72255229999999, "care_type": "OB-GYN"}, {"name": "WVU Medicine Wheeling Hospital", "address": "1 Medical Park Rd, Wheeling, WV 26003", "city": "Wheeling", "phone": "+1 304-243-3000", "website": "https://wheelinghospital.org/%3Futm_source%3DGMBSocialClimb%26utm_medium%3DWVUMedicineWheelingHospital", "rating": 4.2, "reviews": 1179, "place_id": "ChIJCxmWslPaNYgRsv71NeVLgoE", "latitude": 40.0591642, "longitude": -80.6848212, "care_type": "OB-GYN"}, {"name": "Thomas Ronald MD", "address": "30 Medical Park Rd, Wheeling, WV 26003", "city": "Wheeling", "phone": "+1 304-243-6314", "website": "", "rating": 5.0, "reviews": 2, "place_id": "ChIJM3k-nVPaNYgRJw8lwOawhPc", "latitude": 40.0588802, "longitude": -80.6847852, "care_type": "OB-GYN"}, {"name": "Annie Roslonski, DO", "address": "30 Medical Park Rd, Wheeling, WV 26003", "city": "Wheeling", "phone": "+1 304-242-9560", "website": "https://doctors.wvumedicine.org/profile/%3Fser%3D204748%26utm_source%3DGMBSocialClimb%26utm_medium%3DAnnieRoslonski%252CDO", "rating": 5.0, "reviews": 1, "place_id": "ChIJt8BZGTzbNYgRQ4eiiWodngg", "latitude": 40.0588802, "longitude": -80.6847852, "care_type": "OB-GYN"}, {"name": "Dr. Gary S. Deguzman, MD", "address": "40 Medical Park Rd #202, Wheeling, WV 26003", "city": "Wheeling", "phone": "+1 304-232-1817", "website": "https://rymap.org/business/dr-gary-s-deguzman-md-5ro2pp", "rating": 3.6, "reviews": 31, "place_id": "ChIJw6Qga4DZNYgR6ycmrMb7dMs", "latitude": 40.0590337, "longitude": -80.6848986, "care_type": "OB-GYN"}, {"name": "Obstetrician/Gynocologist:Ybanez-Morano Jessica MD", "address": "2115 Chapline St #206, Wheeling, WV 26003", "city": "Wheeling", "phone": "+1 304-234-1610", "website": "", "rating": 2.8, "reviews": 26, "place_id": "ChIJqTrollPaNYgRaU-3VpC4sas", "latitude": 40.060578, "longitude": -80.722652, "care_type": "OB-GYN"}, {"name": "Morano Jessica MD", "address": "1 Medical Park Rd, Wheeling, WV 26003", "city": "Wheeling", "phone": "+1 304-234-1634", "website": "", "rating": 1.0, "reviews": 2, "place_id": "ChIJuSVlrFPaNYgRyDYtfKmiYcA", "latitude": 40.059072, "longitude": -80.685052, "care_type": "OB-GYN"}, {"name": "Medical Group Associates", "address": "20 Medical Park Rd, Wheeling, WV 26003", "city": "Wheeling", "phone": "+1 304-243-7030", "website": "https://wheelinghospital.org/", "rating": null, "reviews": 0, "place_id": "ChIJqTrollPaNYgRx-Wa6RMJwAg", "latitude": 40.059072, "longitude": -80.685052, "care_type": "OB-GYN"}, {"name": "Dr. Wayne E. Groux, MD", "address": "40 Medical Park Rd #504, Wheeling, WV 26003", "city": "Wheeling", "phone": "+1 304-242-0588", "website": "", "rating": 1.0, "reviews": 1, "place_id": "ChIJqTrollPaNYgRuQmXVHHCfmU", "latitude": 40.0592066, "longitude": -80.6837956, "care_type": "OB-GYN"}, {"name": "Heceta Wilmer G", "address": "Wheeling, WV 26003", "city": "Wheeling", "phone": "+1 304-233-1000", "website": "", "rating": null, "reviews": 0, "place_id": "ChIJQVsKAyraNYgRqTPZChL2AjA", "latitude": 40.0639015, "longitude": -80.7209987, "care_type": "OB-GYN"}, {"name": "Kelly M. DeVoogd, DO", "address": "651 Colliers Way #201, Weirton, WV 26062", "city": "Weirton", "phone": "+1 304-723-4700", "website": "https://changeinc.org/", "rating": 3.7, "reviews": 6, "place_id": "ChIJh0SBHUQ3NIgR3GOj16pP1PE", "latitude": 40.3931377, "longitude": -80.5280616, "care_type": "OB-GYN"}, {"name": "Tina M Cutone, MD", "address": "651 Colliers Way #201, Weirton, WV 26062", "city": "Weirton", "phone": "+1 304-723-4700", "website": "", "rating": 1.9, "reviews": 9, "place_id": "ChIJh0SBHUQ3NIgRORWY9g0N7Bg", "latitude": 40.3931377, "longitude": -80.5280616, "care_type": "OB-GYN"}, {"name": "Dr. Frances G. Couch, MD", "address": "601 Colliers Way, Weirton, WV 26062", "city": "Weirton", "phone": "+1 304-797-6433", "website": "", "rating": 5.0, "reviews": 1, "place_id": "ChIJteUYr1w3NIgROiEHXfAZYsg", "latitude": 40.39556, "longitude": -80.527957, "care_type": "OB-GYN"}, {"name": "Adam Corcovilos, MD", "address": "651 Colliers Way #201, Weirton, WV 26062", "city": "Weirton", "phone": "+1 304-723-4700", "website": "", "rating": 1.0, "reviews": 4, "place_id": "ChIJlfIFalg3NIgRMEeW-ZNj8OQ", "latitude": 40.3931377, "longitude": -80.5280616, "care_type": "OB-GYN"}, {"name": "Weirton Medical Center - Main Hospital", "address": "601 Colliers Way, Weirton, WV 26062", "city": "Weirton", "phone": "+1 304-797-6000", "website": "https://www.weirtonmedical.com/", "rating": 2.0, "reviews": 202, "place_id": "ChIJteUYr1w3NIgRWTH4gSX_OWk", "latitude": 40.395435, "longitude": -80.52796359999999, "care_type": "OB-GYN"}, {"name": "Aggarwal Madhu MD", "address": "3710 Pennsylvania Ave, Weirton, WV 26062", "city": "Weirton", "phone": "+1 304-723-2430", "website": "", "rating": 1.0, "reviews": 2, "place_id": "ChIJ9yBp5183NIgRTlTScAnv9o4", "latitude": 40.4061954, "longitude": -80.5220281, "care_type": "OB-GYN"}, {"name": "Family Medical Care CHC", "address": "3136 West St, Weirton, WV 26062", "city": "Weirton", "phone": "+1 304-748-2828", "website": "http://www.changeinc.org/", "rating": 4.3, "reviews": 21, "place_id": "ChIJpeKEmH0wNIgRJvdiI4dHC1c", "latitude": 40.406196, "longitude": -80.5894106, "care_type": "OB-GYN"}, {"name": "Ballas Manuel W DO", "address": "651 Colliers Way # 412, Weirton, WV 26062", "city": "Weirton", "phone": "+1 304-723-2192", "website": "", "rating": 5.0, "reviews": 3, "place_id": "ChIJTfjfrlw3NIgRIeB2EiTr03k", "latitude": 40.3931377, "longitude": -80.5280616, "care_type": "OB-GYN"}, {"name": "Manuel Ballas", "address": "3136 West St, Weirton, WV 26062", "city": "Weirton", "phone": "+1 304-748-2828", "website": "", "rating": null, "reviews": 0, "place_id": "ChIJ__9vmX0wNIgRTt2gsMS2QS8", "latitude": 40.4061735, "longitude": -80.58937689999999, "care_type": "OB-GYN"}, {"name": "Jennifer Celebrezze", "address": "651 Colliers Way #201, Weirton, WV 26062", "city": "Weirton", "phone": "+1 304-723-4700", "website": "https://findcare.ahn.org/Jennifer-U-Celebrezze", "rating": null, "reviews": 0, "place_id": "ChIJJR6Rp0Y3NIgRqFQ2esMG4FQ", "latitude": 40.3930616, "longitude": -80.52798949999999, "care_type": "OB-GYN"}, {"name": "Candina Mccullough, MD", "address": "705 Garfield Ave suite 310, Parkersburg, WV 26101", "city": "Parkersburg", "phone": "+1 304-829-2579", "website": "https://doctors.wvumedicine.org/profile/%3Fid%3D99381%26utm_source%3DGMBSocialClimb%26utm_medium%3DCandinaMccullough%252CMD%26scct%3DPN53fba74c3de77a1f9439cd1f575a144b", "rating": 4.9, "reviews": 30, "place_id": "ChIJX8DBYolLSIgRyHC1LsYmQuw", "latitude": 39.270414, "longitude": -81.5607094, "care_type": "OB-GYN"}, {"name": "Gynecologic Associates Inc", "address": "705 Garfield Ave Suite 400, Parkersburg, WV 26101", "city": "Parkersburg", "phone": "+1 304-424-2035", "website": "", "rating": 3.3, "reviews": 7, "place_id": "ChIJbRS0D3hLSIgRuNh_-8lb0XM", "latitude": 39.2705121, "longitude": -81.5607398, "care_type": "OB-GYN"}, {"name": "Women\u2019s Health of Parkersburg", "address": "1512 36th St, Parkersburg, WV 26104", "city": "Parkersburg", "phone": "+1 304-832-3595", "website": "https://www.womenshealthofparkersburg.com/", "rating": 5.0, "reviews": 10, "place_id": "ChIJYybKDglLSIgRKgabb99tWlY", "latitude": 39.2871297, "longitude": -81.5300637, "care_type": "OB-GYN"}, {"name": "Heather Irvin, MD", "address": "705 Garfield Ave suite 420, Parkersburg, WV 26101", "city": "Parkersburg", "phone": "+1 304-424-2035", "website": "https://doctors.wvumedicine.org/profile/%3Fid%3D1026%26utm_source%3DGMBSocialClimb%26utm_medium%3DHeatherIrvin%252CMD", "rating": 4.4, "reviews": 69, "place_id": "ChIJr2FYAIJLSIgRHnVLjvlfVlU", "latitude": 39.2702343, "longitude": -81.5608105, "care_type": "OB-GYN"}, {"name": "OB/GYN Clinic, Medical Office Building C", "address": "604 Ann St, Parkersburg, WV 26101", "city": "Parkersburg", "phone": "+1 304-462-2516", "website": "https://wvumedicine.org/camden-clark/%3Futm_source%3DGMBSocialClimb%26utm_medium%3DOB%252FGYNClinic%252CMedicalOfficeBuildingC%26scct%3DPN65b2468544f063f40a5ab641d0fabf61", "rating": null, "reviews": 0, "place_id": "ChIJ9TsNgoZLSIgR_H90YE5-Xac", "latitude": 39.2684016, "longitude": -81.5596855, "care_type": "OB-GYN"}, {"name": "Eric Lowden, MD", "address": "705 Garfield Ave suite 420, Parkersburg, WV 26101", "city": "Parkersburg", "phone": "+1 304-969-7460", "website": "https://doctors.wvumedicine.org/profile/%3Fid%3D1162%26utm_source%3DGMBSocialClimb%26utm_medium%3DEricLowden%252CMD%26scct%3DPN22a89a7ebae2fe313463ee70df19bb47", "rating": 4.2, "reviews": 26, "place_id": "ChIJEfrCaoJLSIgRnZ3jGmzx9Ig", "latitude": 39.2702343, "longitude": -81.5608105, "care_type": "OB-GYN"}, {"name": "Curtis White", "address": "800 Garfield Ave, Parkersburg, WV 26101", "city": "Parkersburg", "phone": "+1 304-424-2111", "website": "", "rating": 5.0, "reviews": 1, "place_id": "ChIJ____DIJLSIgRYdw3agS58Fs", "latitude": 39.269443, "longitude": -81.5601568, "care_type": "OB-GYN"}, {"name": "Women's Care Center", "address": "3007 Dudley Ave, Parkersburg, WV 26104", "city": "Parkersburg", "phone": "+1 800-595-7113", "website": "https://yourpregnancychoices.com/", "rating": 4.3, "reviews": 19, "place_id": "ChIJW63cV2lLSIgRc19D9CQGYEM", "latitude": 39.28422339999999, "longitude": -81.5364273, "care_type": "OB-GYN"}, {"name": "Rachel Marteney MD", "address": "801 Garfield Ave Suite 200 (MOB-A, Parkersburg, WV 26101", "city": "Parkersburg", "phone": "+1 304-424-2165", "website": "http://www.camdenclark.org/", "rating": null, "reviews": 0, "place_id": "ChIJLY6CJSNLSIgRkTeXsILa-vs", "latitude": 39.2705216, "longitude": -81.5605853, "care_type": "OB-GYN"}, {"name": "Rachel Marteney MD", "address": "705 Garfield Ave Suite 420 (MOB-B, Parkersburg, WV 26101", "city": "Parkersburg", "phone": "+1 304-424-2085", "website": "http://www.camdenclark.org/", "rating": null, "reviews": 0, "place_id": "ChIJXUZWhpFLSIgRLJNeiTs9OYk", "latitude": 39.2702343, "longitude": -81.5608105, "care_type": "OB-GYN"}, {"name": "Dawna Rose, APRN, CNM, FNP-BC", "address": "705 Garfield Ave suite 310, Parkersburg, WV 26101", "city": "Parkersburg", "phone": "+1 304-443-9249", "website": "https://wvumedicine.org/camden-clark/%3Fscct%3DPNffc636299d2f461cb935a7ab8e1a9469%26utm_source%3DGMBSocialClimb%26utm_medium%3DDawnaRose%252CAPRN%252CCNM%252CFNP-BC", "rating": 5.0, "reviews": 2, "place_id": "ChIJq6p6AIJLSIgRuuUQhlE0mps", "latitude": 39.270414, "longitude": -81.5607094, "care_type": "OB-GYN"}, {"name": "Nikita Perry FNP-BC", "address": "705 Garfield Ave Suite 420 (MOB-B, Parkersburg, WV 26101", "city": "Parkersburg", "phone": "+1 304-424-2085", "website": "http://www.camdenclark.org/", "rating": null, "reviews": 0, "place_id": "ChIJa39t0QNLSIgRVlM5mv6YUAQ", "latitude": 39.2702343, "longitude": -81.5608105, "care_type": "OB-GYN"}, {"name": "Lisa Casalenuovo DO", "address": "705 Garfield Ave Suite 310(MOB-B, Parkersburg, WV 26101", "city": "Parkersburg", "phone": "+1 304-424-4700", "website": "http://www.camdenclark.org/", "rating": null, "reviews": 0, "place_id": "ChIJ18E4c_5LSIgR3wWNdplwXpg", "latitude": 39.270414, "longitude": -81.5607094, "care_type": "OB-GYN"}, {"name": "Filozof Peter MD", "address": "600 18th St, Parkersburg, WV 26101", "city": "Parkersburg", "phone": "+1 304-424-4816", "website": "", "rating": null, "reviews": 0, "place_id": "ChIJf15Dm3FLSIgRuSKyhRZdOZU", "latitude": 39.2774931, "longitude": -81.55026199999999, "care_type": "OB-GYN"}, {"name": "Robert Shapiro PRN", "address": "801 Garfield Ave Suite 200 (MOB-A, Parkersburg, WV 26101", "city": "Parkersburg", "phone": "+1 304-424-2165", "website": "http://www.camdenclark.org/", "rating": null, "reviews": 0, "place_id": "ChIJoYQTFH9LSIgRGcDjoyWTMfw", "latitude": 39.2705216, "longitude": -81.5605853, "care_type": "OB-GYN"}, {"name": "Lauren Davis CNP", "address": "801 Garfield Ave Suite 200 (MOB-A, Parkersburg, WV 26101", "city": "Parkersburg", "phone": "+1 304-424-2165", "website": "http://www.camdenclark.org/", "rating": null, "reviews": 0, "place_id": "ChIJeQkNiU9LSIgR1N2KatNw9PI", "latitude": 39.2705216, "longitude": -81.5605853, "care_type": "OB-GYN"}, {"name": "Camden Clark Physicians", "address": "604 Ann St, Parkersburg, WV 26101", "city": "Parkersburg", "phone": "+1 304-865-5155", "website": "http://www.camdenclark.org/Main/Home.aspx", "rating": 5.0, "reviews": 2, "place_id": "ChIJr2FYAIJLSIgRyBzJaBRS-kQ", "latitude": 39.268443, "longitude": -81.5597609, "care_type": "OB-GYN"}, {"name": "Diane Abshire FNP-BC", "address": "705 Garfield Ave Suite 310(MOB-B, Parkersburg, WV 26101", "city": "Parkersburg", "phone": "+1 304-424-4700", "website": "http://www.camdenclark.org/", "rating": null, "reviews": 0, "place_id": "ChIJNcLM7DJLSIgR_alnADGO4Qo", "latitude": 39.270414, "longitude": -81.5607094, "care_type": "OB-GYN"}, {"name": "Maria Galupo", "address": "801 Garfield Ave Suite 200 (MOB-A, Parkersburg, WV 26101", "city": "Parkersburg", "phone": "+1 304-424-2165", "website": "http://www.camdenclark.org/", "rating": null, "reviews": 0, "place_id": "ChIJ1WnMC2pLSIgRvCIYUrPm46A", "latitude": 39.2705216, "longitude": -81.5605853, "care_type": "OB-GYN"}, {"name": "Erin Carr, FNP-C CNM", "address": "705 Garfield Ave suite 310, Parkersburg, WV 26101", "city": "Parkersburg", "phone": "+1 304-424-2085", "website": "https://wvumedicine.org/camden-clark/obstetrics-and-gynecology/%3Futm_source%3DGMBSocialClimb%26utm_medium%3DErinCarr%252CFNP-CCNM", "rating": null, "reviews": 0, "place_id": "ChIJn_PFqMRLSIgR-AKIMWbqC0A", "latitude": 39.270414, "longitude": -81.5607094, "care_type": "OB-GYN"}, {"name": "Craig S Herring, MD, FACOG", "address": "2000 Mon Health Medical Park Dr #2100, Morgantown, WV 26505", "city": "Morgantown", "phone": "+1 304-599-6811", "website": "https://www.monhealth.com/main/obstetrics-gynecology", "rating": 3.0, "reviews": 2, "place_id": "ChIJRcat9w97NYgR8X4GZzH6o4U", "latitude": 39.65838189999999, "longitude": -79.95363189999999, "care_type": "OB-GYN"}, {"name": "Busy Moms Healthcare", "address": "10000 Coombs Farm Dr #106, Morgantown, WV 26508", "city": "Morgantown", "phone": "+1 304-212-5663", "website": "https://www.busymomshealthcare.com/", "rating": 5.0, "reviews": 94, "place_id": "ChIJqxBGvzLQR2YRgLNsoOkiXtk", "latitude": 39.6583953, "longitude": -79.89353249999999, "care_type": "OB-GYN"}, {"name": "Dr. Hobson G. Booth, MD", "address": "1 Medical Center Dr, Morgantown, WV 26506", "city": "Morgantown", "phone": "+1 304-598-4800", "website": "", "rating": null, "reviews": 0, "place_id": "ChIJ1dxw2gx7NYgR75GvvsDu2KU", "latitude": 39.6534151, "longitude": -79.9573549, "care_type": "OB-GYN"}, {"name": "Robert Shapiro", "address": "1 Medical Center Dr, Morgantown, WV 26506", "city": "Morgantown", "phone": "+1 304-285-7101", "website": "", "rating": 3.0, "reviews": 2, "place_id": "ChIJKy6dqA57NYgREd_e5csgdWU", "latitude": 39.65391169999999, "longitude": -79.9577486, "care_type": "OB-GYN"}, {"name": "Megan Varvoutis", "address": "1 Medical Center Dr, Morgantown, WV 26506", "city": "Morgantown", "phone": "+1 304-293-1964", "website": "", "rating": null, "reviews": 0, "place_id": "ChIJKy6dqA57NYgRJ_83mbsEzZE", "latitude": 39.65391169999999, "longitude": -79.9577486, "care_type": "OB-GYN"}, {"name": "Merzouk Maria DO", "address": "608 Cheat Rd, Morgantown, WV 26508", "city": "Morgantown", "phone": "+1 304-594-1313", "website": "", "rating": null, "reviews": 0, "place_id": "ChIJJXsLYe5kNYgRwyBLqdfg23M", "latitude": 39.6486579, "longitude": -79.88852659999999, "care_type": "OB-GYN"}, {"name": "Ommani Sophia MD", "address": "Morgantown, WV 26508", "city": "Morgantown", "phone": "+1 304-594-1313", "website": "", "rating": null, "reviews": 0, "place_id": "ChIJdRc_oX17NYgReVNWTp46rME", "latitude": 39.629526, "longitude": -79.95589679999999, "care_type": "OB-GYN"}, {"name": "Dr. Wanda M. Hembree, MD", "address": "1 Stadium Drive, Morgantown, WV 26506", "city": "Morgantown", "phone": "+1 304-598-4800", "website": "", "rating": null, "reviews": 0, "place_id": "ChIJyfqpD4J8NYgRGdqBubzcwA4", "latitude": 39.6557667, "longitude": -79.95704289999999, "care_type": "OB-GYN"}, {"name": "Jabin Janoo , MD", "address": "1 Medical Center Dr, Morgantown, WV 26505", "city": "Morgantown", "phone": "+1 304-264-8603", "website": "http://medicine.hsc.wvu.edu/", "rating": null, "reviews": 0, "place_id": "ChIJyfqpD4J8NYgR1Wjhi0Z8C5E", "latitude": 39.6534472, "longitude": -79.9574781, "care_type": "OB-GYN"}, {"name": "Dr. Catherine Herway", "address": "1 Medical Center Dr, Morgantown, WV 26506", "city": "Morgantown", "phone": "+1 304-293-1964", "website": "", "rating": null, "reviews": 0, "place_id": "ChIJKy6dqA57NYgRG5oCTLPDNIY", "latitude": 39.65391169999999, "longitude": -79.9577486, "care_type": "OB-GYN"}, {"name": "Craig Herring", "address": "1200 J D Anderson Dr, Morgantown, WV 26505", "city": "Morgantown", "phone": "+1 304-598-1200", "website": "https://www.monhealth.com/main/find-a-physician/herring-craig-s-md-facog-131", "rating": null, "reviews": 0, "place_id": "ChIJbbZ4pB57NYgR86YARNWeulA", "latitude": 39.663925, "longitude": -79.94674909999999, "care_type": "OB-GYN"}, {"name": "Mon Health Gynecology", "address": "150 Memorial Dr, Kingwood, WV 26537", "city": "Kingwood", "phone": "+1 304-329-4701", "website": "https://www.monhealth.com/main/obstetrics-gynecology", "rating": null, "reviews": 0, "place_id": "ChIJmRZbhgihSogREtZygvCWMiw", "latitude": 39.4651358, "longitude": -79.6777494, "care_type": "OB-GYN"}, {"name": "Tyre Loraine MD", "address": "1 Medical Center Dr, Morgantown, WV 26506", "city": "Morgantown", "phone": "+1 304-594-1313", "website": "http://wvuhealthcare.com/", "rating": null, "reviews": 0, "place_id": "ChIJJXsLYe5kNYgRtsg7zg8uNSw", "latitude": 39.6534151, "longitude": -79.9573549, "care_type": "OB-GYN"}, {"name": "Leo Brancazio", "address": "1 Medical Center Dr Rm 1206HSC, Morgantown, WV 26506", "city": "Morgantown", "phone": "+1 304-285-7101", "website": "https://childrens.wvumedicine.org/about-us/leadership/leo-brocazio", "rating": null, "reviews": 0, "place_id": "ChIJKy6dqA57NYgRtNTP4RD03gc", "latitude": 39.6537704, "longitude": -79.9576495, "care_type": "OB-GYN"}, {"name": "Ashraf Mohammed MD", "address": "200 Wedgewood Dr # 204, Morgantown, WV 26505", "city": "Morgantown", "phone": "+1 304-598-0141", "website": "", "rating": 1.0, "reviews": 1, "place_id": "ChIJuUECkwB7NYgRDy3Cl3LqDSk", "latitude": 39.6661264, "longitude": -79.9627979, "care_type": "OB-GYN"}, {"name": "Women's Health Center", "address": "428 Morgantown St #2, Kingwood, WV 26537", "city": "Kingwood", "phone": "+1 304-441-2010", "website": "", "rating": null, "reviews": 0, "place_id": "ChIJw-qpIayhSogRjdaPyeM9w8s", "latitude": 39.477962, "longitude": -79.70227469999999, "care_type": "OB-GYN"}, {"name": "Mt View Obstetrics & Gynecology", "address": "112 Undercliff Terrace, Princeton, WV 24740", "city": "Princeton", "phone": "+1 304-425-3800", "website": "", "rating": 3.0, "reviews": 2, "place_id": "ChIJbYaxbUdqTogRo1_DwSrAPvk", "latitude": 37.3685059, "longitude": -81.1343174, "care_type": "OB-GYN"}, {"name": "Connie Perkins,", "address": "1322 Maplewood Ave Suite A, Ronceverte, WV 24970", "city": "Ronceverte", "phone": "+1 304-647-5114", "website": "http://greenbrierphysicians.com/", "rating": 2.3, "reviews": 9, "place_id": "ChIJqbsLYxA4TIgRcwcMKKAUbqM", "latitude": 37.7724903, "longitude": -80.4705439, "care_type": "OB-GYN"}, {"name": "CAMC GVMC Obstetrics & Gynecology", "address": "1322 Maplewood Ave Suite A, Ronceverte, WV 24970", "city": "Ronceverte", "phone": "+1 304-647-5114", "website": "https://camc.org/gvmc", "rating": 4.0, "reviews": 1, "place_id": "ChIJS8rnF7c5TIgRA_L-37ARadE", "latitude": 37.7724903, "longitude": -80.4705439, "care_type": "OB-GYN"}, {"name": "Greenbrier Physicians Inc", "address": "1322 Maplewood Ave, Ronceverte, WV 24970", "city": "Ronceverte", "phone": "+1 304-647-5114", "website": "http://www.greenbrierphysicians.com/", "rating": 4.0, "reviews": 41, "place_id": "ChIJpxSjmxA4TIgRY82_plOW1-I", "latitude": 37.7725201, "longitude": -80.46971169999999, "care_type": "OB-GYN"}, {"name": "Dr. Robert L. Wheeler, MD", "address": "200 Maplewood Ave, Ronceverte, WV 24970", "city": "Ronceverte", "phone": "+1 304-647-1161", "website": "http://greenbrierphysicians.com/", "rating": 2.3, "reviews": 3, "place_id": "ChIJqbsLYxA4TIgR5YsLbPcUgn8", "latitude": 37.7725294, "longitude": -80.4697951, "care_type": "OB-GYN"}, {"name": "Patel & Patel, M.D", "address": "401 Division St Suite 306, South Charleston, WV 25309", "city": "South Charleston", "phone": "+1 304-766-4300", "website": "https://www.kiranpatelmd.com/%3Futm_source%3Dgmb_auth", "rating": 4.8, "reviews": 77, "place_id": "ChIJiyo6SsgzT4gReZIi3SmSbO4", "latitude": 38.3547147, "longitude": -81.7263921, "care_type": "OB-GYN"}, {"name": "Bassam Shamma, MD", "address": "4607 MacCorkle Ave SW suite 301, South Charleston, WV 25309", "city": "South Charleston", "phone": "+1 304-767-7919", "website": "https://doctors.wvumedicine.org/profile/%3Fid%3D96865", "rating": 4.5, "reviews": 17, "place_id": "ChIJu2oJU9gzT4gRu1Vp1stBR44", "latitude": 38.355308, "longitude": -81.7267687, "care_type": "OB-GYN"}, {"name": "Stephen Harold Bush II, MD", "address": "3415 MacCorkle Ave SE, Charleston, WV 25304", "city": "Charleston", "phone": "+1 304-388-8380", "website": "https://www.camc.org/", "rating": 5.0, "reviews": 29, "place_id": "ChIJvabZAmQrT4gRRgGCOv_yNjo", "latitude": 38.3273519, "longitude": -81.59974609999999, "care_type": "OB-GYN"}, {"name": "Women's Health Center of West Virginia", "address": "510 W Washington St, Charleston, WV 25302", "city": "Charleston", "phone": "+1 304-344-9834", "website": "https://womenshealthwv.org/", "rating": 3.7, "reviews": 65, "place_id": "ChIJtRyJxijTSIgRZkfX5zDLdNA", "latitude": 38.3639911, "longitude": -81.6426154, "care_type": "OB-GYN"}, {"name": "Stephen Bush,", "address": "830 Pennsylvania Ave Ste 304, Charleston, WV 25302", "city": "Charleston", "phone": "+1 304-388-1515", "website": "https://www.camc.org/", "rating": 4.0, "reviews": 4, "place_id": "ChIJXzAr4C3TSIgRx1dIeuObS3I", "latitude": 38.3591791, "longitude": -81.6367945, "care_type": "OB-GYN"}, {"name": "Dr. Ammar Shammaa", "address": "4803 Kentucky St, South Charleston, WV 25309", "city": "South Charleston", "phone": "+1 304-766-9600", "website": "http://www.ammarshammaaobgyn.com/", "rating": 2.8, "reviews": 11, "place_id": "ChIJvyvZMdEyT4gR1_hwVq4nEUA", "latitude": 38.3540535, "longitude": -81.7289893, "care_type": "OB-GYN"}, {"name": "Bernard Luby", "address": "4605 MacCorkle Ave SW, South Charleston, WV 253091311", "city": "South Charleston", "phone": "+1 304-414-4800", "website": "", "rating": 5.0, "reviews": 1, "place_id": "ChIJAQAAsNEyT4gR7sGkn-vEvdo", "latitude": 38.3537584, "longitude": -81.7260234, "care_type": "OB-GYN"}, {"name": "Valley Health-A Woman's Place: Vallejos Andrea M MD", "address": "1630 13th Ave Department A, Huntington, WV 25701", "city": "Huntington", "phone": "+1 304-697-2014", "website": "https://valleyhealth.org/locations/a-womans-place/", "rating": 5.0, "reviews": 1, "place_id": "ChIJf_LTKioIRogRwX_kjZcp8bs", "latitude": 38.4110798, "longitude": -82.4270143, "care_type": "OB-GYN"}, {"name": "Kevin J. Conaway, MD", "address": "1600 Medical Center Dr # 4500, Huntington, WV 25701", "city": "Huntington", "phone": "+1 304-691-1400", "website": "https://www.marshallhealth.org/find-a-provider/provider-details/%3FID%3D29", "rating": 4.6, "reviews": 9, "place_id": "ChIJV4M6bwi0SIgRRYUHyzUZFdI", "latitude": 38.4090966, "longitude": -82.42688419999999, "care_type": "OB-GYN"}, {"name": "Allan Chamberlain, MD", "address": "143 Peyton St, Barboursville, WV 25504", "city": "Barboursville", "phone": "+1 304-697-2035", "website": "https://www.marshallhealth.org/find-a-provider/provider-details/%3FID%3D2051", "rating": null, "reviews": 0, "place_id": "ChIJX0_zBL8HRogRQyb34XImHXA", "latitude": 38.4087335, "longitude": -82.3150051, "care_type": "OB-GYN"}, {"name": "Jesse Cottrell, MD", "address": "1600 Medical Center Dr # 4500, Huntington, WV 25701", "city": "Huntington", "phone": "+1 304-691-1400", "website": "https://www.marshallhealth.org/find-a-provider/provider-details/%3FID%3D544", "rating": 5.0, "reviews": 3, "place_id": "ChIJhwVcGyoIRogR8rxVvUp5OGo", "latitude": 38.4090966, "longitude": -82.42688419999999, "care_type": "OB-GYN"}, {"name": "Katherine S. Billups, MD", "address": "1660 12th Ave, Huntington, WV 25701", "city": "Huntington", "phone": "+1 304-522-3420", "website": "https://www.marshallhealth.org/find-a-provider/provider-details/%3FID%3D2049", "rating": null, "reviews": 0, "place_id": "ChIJgWcqXmoJRogRk53att8Ve_s", "latitude": 38.4119202, "longitude": -82.4265748, "care_type": "OB-GYN"}, {"name": "Assaley & Lee", "address": "1660 12th Ave, Huntington, WV 25701", "city": "Huntington", "phone": "+1 304-522-3420", "website": "", "rating": 5.0, "reviews": 3, "place_id": "ChIJU1Ou2CsIRogRYmoSLt0GSRo", "latitude": 38.4119223, "longitude": -82.4265605, "care_type": "OB-GYN"}, {"name": "Dr. Rafael E. Molina, MD", "address": "1630 13th Ave Department A, Huntington, WV 25701", "city": "Huntington", "phone": "+1 304-697-2014", "website": "https://valleyhealth.org/providers/rafael-molina-md/", "rating": 5.0, "reviews": 5, "place_id": "ChIJf_LTKioIRogRaeoOxG8XO-Q", "latitude": 38.4110433, "longitude": -82.4269874, "care_type": "OB-GYN"}, {"name": "Hisham A. Keblawi, MD, FACOG", "address": "1600 Medical Center Dr, Huntington, WV 25701", "city": "Huntington", "phone": "+1 304-691-1400", "website": "https://www.marshallhealth.org/find-a-provider/provider-details/%3FID%3D85", "rating": 5.0, "reviews": 5, "place_id": "ChIJ3a5UGyoIRogRvaqni4ef6A4", "latitude": 38.4090966, "longitude": -82.42688419999999, "care_type": "OB-GYN"}, {"name": "Thomas And Hunter Mds", "address": "830 Pennsylvania Ave, Charleston, WV 25302", "city": "Charleston", "phone": "+1 304-343-4177", "website": "", "rating": 3.6, "reviews": 7, "place_id": "ChIJGTAr4C3TSIgRWdhWHTC2w88", "latitude": 38.3591516, "longitude": -81.63736, "care_type": "OB-GYN"}, {"name": "Nadim Bou Zgheib, MD", "address": "1400 Hal Greer Boulevard, Huntington, WV 25701", "city": "Huntington", "phone": "+1 304-399-6500", "website": "", "rating": 4.6, "reviews": 8, "place_id": "ChIJw6LgESoIRogRHIeIJc8wm2Q", "latitude": 38.4090862, "longitude": -82.4274555, "care_type": "OB-GYN"}, {"name": "Dr. Stephen H. Bush, MD", "address": "301 Great Teays Blvd Suite 6, Scott Depot, WV 25560", "city": "Scott Depot", "phone": "+1 304-757-6999", "website": "http://www.familycarewv.org/", "rating": null, "reviews": 0, "place_id": "ChIJJy7YvRm0SIgRtSGpFrZDZfk", "latitude": 38.4502819, "longitude": -81.9360481, "care_type": "OB-GYN"}, {"name": "Jennie L. Yoost, MD", "address": "1600 Medical Center Dr # 4500, Huntington, WV 25701", "city": "Huntington", "phone": "+1 304-691-1400", "website": "https://www.marshallhealth.org/find-a-provider/provider-details/%3FID%3D210", "rating": 5.0, "reviews": 4, "place_id": "ChIJaRdEAyoIRogRJEBINkyQdyE", "latitude": 38.4090966, "longitude": -82.42688419999999, "care_type": "OB-GYN"}, {"name": "Dr. Richard O. Booth Jr, MD", "address": "1630 13th Ave Department A, Huntington, WV 25701", "city": "Huntington", "phone": "+1 304-697-2014", "website": "", "rating": 3.5, "reviews": 2, "place_id": "ChIJf_LTKioIRogRIqJIiYsmHuM", "latitude": 38.4110798, "longitude": -82.4270143, "care_type": "OB-GYN"}, {"name": "Rachel Cullifer, MD", "address": "830 Pennsylvania Ave Ste 304, Charleston, WV 25302", "city": "Charleston", "phone": "+1 304-388-1515", "website": "https://www.camc.org/", "rating": null, "reviews": 0, "place_id": "ChIJC57fxknTSIgRMCbL-eVblrQ", "latitude": 38.3592952, "longitude": -81.6370878, "care_type": "OB-GYN"}, {"name": "Valley Health - Milton", "address": "220 Johns Creek Rd, Milton, WV 25541", "city": "Milton", "phone": "+1 304-743-1407", "website": "https://valleyhealth.org/locations/milton/%3Futm_source%3Dgoogle%26utm_medium%3Dorganic%26utm_campaign%3Dgbp-main", "rating": 4.3, "reviews": 123, "place_id": "ChIJ21KkRH-sSIgRRl1xlZaVzHo", "latitude": 38.4369641, "longitude": -82.1215194, "care_type": "OB-GYN"}, {"name": "Valley Health - Harts", "address": "22 Fleming Dr Department D, Harts, WV 25524", "city": "Harts", "phone": "+1 304-855-4595", "website": "https://valleyhealth.org/locations/harts", "rating": 4.1, "reviews": 15, "place_id": "ChIJKXKY0cpgT4gRlS3000RG0Zg", "latitude": 38.0298976, "longitude": -82.1282651, "care_type": "OB-GYN"},