[{"name": "Obstetrics & Women's Health of Sweetwater Memorial", "address": "1180 College Dr 1st Floor, Rock Springs, WY 82901", "city": "Rock Springs", "phone": "+1 307-352-8383", "website": "https://www.sweetwatermemorial.com/locations/obstetrics-womens-health-of-sweetwater-memorial/", "rating": 4.8, "reviews": 155, "place_id": "ChIJS4wIr71hWocR8YVdrp7e8ZE", "latitude": 41.5842488, "longitude": -109.2362237, "care_type": "OB-GYN"}, {"name": "Wheeler Jeffery Dean MD", "address": "1180 College Dr, Rock Springs, WY 82901", "city": "Rock Springs", "phone": "+1 307-352-8383", "website": "", "rating": 4.4, "reviews": 14, "place_id": "ChIJW_0DHwFhWocRrUa0vY5dfDg", "latitude": 41.591339, "longitude": -109.234439, "care_type": "OB-GYN"}, {"name": "Cody Regional Health OB/GYN Clinic", "address": "424 Yellowstone Ave Suite 330, Cody, WY 82414", "city": "Cody", "phone": "+1 307-578-2770", "website": "https://www.codyregionalhealth.org/~/our-services/ob-gyn/", "rating": 5.0, "reviews": 15, "place_id": "ChIJi8TFtcIfTFMR2xW4TLPWvQk", "latitude": 44.5159975, "longitude": -109.0852232, "care_type": "OB-GYN"}, {"name": "Oroma Nwanodi, MD: OB/GYN", "address": "1405 Howell Ave, Worland, WY 82401", "city": "Worland", "phone": "+1 307-347-2555", "website": "http://www.bannerhealth.com/", "rating": null, "reviews": 0, "place_id": "ChIJ-8NG-WdtS1MRJMu0D-4Tv4U", "latitude": 44.0118133, "longitude": -107.9499396, "care_type": "OB-GYN"}, {"name": "Dr. Melissa Hieb", "address": "150 N Melrose St, Casper, WY 82601", "city": "Casper", "phone": "+1 307-234-6988", "website": "https://www.cogawyoming.com/", "rating": 3.3, "reviews": 7, "place_id": "ChIJq6q6jIS8YIcRbNJwoEU6CHA", "latitude": 42.851136, "longitude": -106.3085332, "care_type": "OB-GYN"}, {"name": "Casper Obstetrical & Gyn Associates", "address": "150 N Melrose St, Casper, WY 82601", "city": "Casper", "phone": "+1 307-234-6988", "website": "https://www.cogawyoming.com/", "rating": 2.8, "reviews": 24, "place_id": "ChIJe1W-jIS8YIcRTZmShX-syiI", "latitude": 42.8511357, "longitude": -106.3085688, "care_type": "OB-GYN"}, {"name": "Sheridan Susan MD", "address": "150 N Melrose St, Casper, WY 82601", "city": "Casper", "phone": "+1 307-234-6988", "website": "https://www.cogawyoming.com/", "rating": 4.1, "reviews": 34, "place_id": "ChIJ4etK84S8YIcRbj7mMh6dBcI", "latitude": 42.8511062, "longitude": -106.3085559, "care_type": "OB-GYN"}, {"name": "Vigneri Samuel J MD", "address": "1125 E 2nd St, Casper, WY 82601", "city": "Casper", "phone": "+1 307-577-4225", "website": "", "rating": 5.0, "reviews": 11, "place_id": "ChIJNWtsSYO8YIcRZKoCOLuRz80", "latitude": 42.8484219, "longitude": -106.3101965, "care_type": "OB-GYN"}, {"name": "Dr. Laura C. Smothers, MD", "address": "1540 Centennial Ct, Casper, WY 82609", "city": "Casper", "phone": "+1 307-337-4981", "website": "https://www.caspergeneralsurgery.com/", "rating": 4.6, "reviews": 10, "place_id": "ChIJNWtsSYO8YIcRJeTQ2GIuHsU", "latitude": 42.83299, "longitude": -106.271794, "care_type": "OB-GYN"}, {"name": "Women's Wellness of Wyoming", "address": "210 S Jackson St, Casper, WY 82601", "city": "Casper", "phone": "+1 307-267-9650", "website": "https://womenswellnesswy.com/", "rating": 4.6, "reviews": 10, "place_id": "ChIJt4IdFOC9YIcRM8DQgChIzbU", "latitude": 42.8484714, "longitude": -106.3112641, "care_type": "OB-GYN"}, {"name": "Dr. Brian Retherford, OB/GYN", "address": "700 Center St, Douglas, WY 82633", "city": "Douglas", "phone": "+1 307-358-7300", "website": "https://www.conversehospital.com/", "rating": 4.0, "reviews": 4, "place_id": "ChIJDVirQsZKYYcR38m6ZBaaeCw", "latitude": 42.7597815, "longitude": -105.3786817, "care_type": "OB-GYN"}, {"name": "Stefani Bissonette", "address": "700 Center St, Douglas, WY 82633", "city": "Douglas", "phone": "+1 307-358-7300", "website": "", "rating": 5.0, "reviews": 1, "place_id": "ChIJ5eZkb8ZKYYcR0MeDfYTit9A", "latitude": 42.7597815, "longitude": -105.3786817, "care_type": "OB-GYN"}, {"name": "Dr. Kevin Fulford", "address": "1233 E 2nd St, Casper, WY 82601", "city": "Casper", "phone": "+1 307-265-8300", "website": "", "rating": null, "reviews": 0, "place_id": "ChIJL0eaCYO8YIcRV17VeubviJU", "latitude": 42.8484899, "longitude": -106.3082646, "care_type": "OB-GYN"}, {"name": "Wellspring Health Access", "address": "918 E 2nd St, Casper, WY 82601", "city": "Casper", "phone": "+1 307-224-7851", "website": "https://wellspringaccess.org/", "rating": 4.8, "reviews": 51, "place_id": "ChIJi4lmQZW9YIcRm5t3CHdcWLI", "latitude": 42.8489455, "longitude": -106.3132463, "care_type": "OB-GYN"}, {"name": "Divine Women's Care (Casper, Wyoming Midwife, Ultrasound Services & Women's Health Clinic)", "address": "1945 Westwood Hill Suite 113, Casper, WY 82604", "city": "Casper", "phone": "+1 307-262-5134", "website": "http://www.divinewomenscare.com/", "rating": 4.6, "reviews": 10, "place_id": "ChIJQ2zettW6YIcREhd8_t4Yd6E", "latitude": 42.8309115, "longitude": -106.3493338, "care_type": "OB-GYN"}, {"name": "A Woman's Place", "address": "1443 Beck Ave, Cody, WY 82414", "city": "Cody", "phone": "+1 307-527-7811", "website": "http://www.lisawilliamsmd.com/", "rating": 4.1, "reviews": 10, "place_id": "ChIJ_z5erM8eTFMRiRiQ7aACR5Q", "latitude": 44.5252729, "longitude": -109.0585331, "care_type": "OB-GYN"}, {"name": "Dr. Mark Campbell, OB/GYN", "address": "700 Center St, Douglas, WY 82633", "city": "Douglas", "phone": "+1 307-358-7300", "website": "https://www.conversehospital.com/", "rating": null, "reviews": 0, "place_id": "ChIJs45VXcZKYYcRCy_8N6JfgS8", "latitude": 42.7597815, "longitude": -105.3786817, "care_type": "OB-GYN"}, {"name": "Dr. Benjamin W. Sheppard, MD", "address": "167 S Conwell St, Casper, WY 82601", "city": "Casper", "phone": "+1 307-234-6988", "website": "http://www.caspersurgicalcenter.com/", "rating": null, "reviews": 0, "place_id": "ChIJm8npmYO8YIcRPlEOR1f_NRw", "latitude": 42.8489196, "longitude": -106.3071019, "care_type": "OB-GYN"}, {"name": "Summit OB/GYN", "address": "1414 W 4th St, Gillette, WY 82716", "city": "Gillette", "phone": "+1 307-682-6263", "website": "https://summitwyo.com/", "rating": 4.8, "reviews": 170, "place_id": "ChIJK6EW3kGUNFMRh65o_XbgdqQ", "latitude": 44.291222, "longitude": -105.5243877, "care_type": "OB-GYN"}, {"name": "Carrie Merrill", "address": "770 E 2nd St, Casper, WY 82601", "city": "Casper", "phone": "+1 307-237-5510", "website": "https://www.casperwomenscare.com/meet-the-staff", "rating": null, "reviews": 0, "place_id": "ChIJAQC0Cpy8YIcRBQCNYWBQqpo", "latitude": 42.8488982, "longitude": -106.3155038, "care_type": "OB-GYN"}, {"name": "Jodi Kaigh MD", "address": "2510 E 15th St, Casper, WY 82601", "city": "Casper", "phone": "+1 307-234-7400", "website": "", "rating": 5.0, "reviews": 2, "place_id": "ChIJwTjcaoO8YIcRNe8mVLa5xYM", "latitude": 42.8356333, "longitude": -106.2935669, "care_type": "OB-GYN"}, {"name": "Dr. Christian Morgan, MD", "address": "110 Hospital Ln, Afton, WY 83110", "city": "Afton", "phone": "+1 307-885-5852", "website": "https://starvalleyhealth.org/bios/christian-morgan/", "rating": 5.0, "reviews": 3, "place_id": "ChIJYYRx8o5zVocRrquuyzwxYTc", "latitude": 42.7166463, "longitude": -110.930887, "care_type": "OB-GYN"}, {"name": "Rodni Cruz, MD: OB/GYN", "address": "1405 Howell Ave, Worland, WY 82401", "city": "Worland", "phone": "+1 307-347-2555", "website": "", "rating": 5.0, "reviews": 1, "place_id": "ChIJ38NG-WdtS1MRkOApPZWFvX8", "latitude": 44.0118133, "longitude": -107.9499396, "care_type": "OB-GYN"}, {"name": "James MacDonald, MD: OB/GYN", "address": "1405 Howell Ave, Worland, WY 82401", "city": "Worland", "phone": "+1 307-347-2555", "website": "http://www.bannerhealth.com/", "rating": null, "reviews": 0, "place_id": "ChIJ-8NG-WdtS1MRVaAAEuMNcX8", "latitude": 44.0118133, "longitude": -107.9499396, "care_type": "OB-GYN"}, {"name": "Whitney Elizabeth Hine, MD", "address": "1405 Howell Ave, Worland, WY 82401", "city": "Worland", "phone": "+1 307-347-2555", "website": "https://doctors.bannerhealth.com/provider/Whitney%2BHine/1680649%3Futm_source%3Dgmb%26utm_medium%3Dlisting%26utm_campaign%3Ddoc_onlinescheduling%26y_source%3D1_MjI1MTQ1MTctNzE1LWxvY2F0aW9uLndlYnNpdGU%253D", "rating": 5.0, "reviews": 1, "place_id": "ChIJ2ZDkVGhtS1MRKOXLBuEryHM", "latitude": 44.0118005, "longitude": -107.9499566, "care_type": "OB-GYN"}, {"name": "Family Medical Center", "address": "497 W Lott St, Buffalo, WY 82834", "city": "Buffalo", "phone": "+1 307-684-2228", "website": "https://www.jchealthcare.com/services/clinic/", "rating": 3.5, "reviews": 2, "place_id": "ChIJhfdr6GZ4NVMRBtdxy7QpQXM", "latitude": 44.3503498, "longitude": -106.7063996, "care_type": "OB-GYN"}, {"name": "Dr. Rebecca Franklund", "address": "1401 W 5th St, Sheridan, WY 82801", "city": "Sheridan", "phone": "+1 307-672-1000", "website": "https://www.sheridanhospital.org/doctor/franklund-rebecca-r-m-d-facog/", "rating": 5.0, "reviews": 1, "place_id": "ChIJUQGAhu_6NVMRYFxj5SqCUFc", "latitude": 44.808659, "longitude": -106.975756, "care_type": "OB-GYN"}, {"name": "Dr. Gregg L. Mcadoo, MD", "address": "1333 W 5th St #203, Sheridan, WY 82801", "city": "Sheridan", "phone": "+1 307-672-2522", "website": "", "rating": 5.0, "reviews": 2, "place_id": "ChIJeb79u-_6NVMRz55wJtlJ38o", "latitude": 44.807896, "longitude": -106.9756196, "care_type": "OB-GYN"}, {"name": "Hallie Bischoff", "address": "150 E Arapahoe St, Thermopolis, WY 82443", "city": "Thermopolis", "phone": "+1 307-864-3121", "website": "https://hotspringshealth.com/providers/", "rating": null, "reviews": 0, "place_id": "ChIJlcELFNqoTFMR4RRzgm14yCQ", "latitude": 43.6479359, "longitude": -108.1995798, "care_type": "OB-GYN"}, {"name": "Philip Schiller, MD", "address": "201 14th St, Wheatland, WY 82201", "city": "Wheatland", "phone": "+1 307-322-3636", "website": "", "rating": null, "reviews": 0, "place_id": "ChIJAcXOs-3XZYcRTs6WdpxFwuE", "latitude": 42.04990799999999, "longitude": -104.9606981, "care_type": "OB-GYN"}, {"name": "Rebecca Lynn Slingwine, DO", "address": "201 14th St Annex Bldg, Wheatland, WY 82201", "city": "Wheatland", "phone": "+1 307-322-3861", "website": "https://doctors.bannerhealth.com/provider/Rebecca%2BSlingwine/1617960%3Futm_source%3Dgmb%26utm_medium%3Dlisting%26utm_campaign%3Ddoc_onlinescheduling%26y_source%3D1_MTk3NTY3MjctNzE1LWxvY2F0aW9uLndlYnNpdGU%253D", "rating": 5.0, "reviews": 0, "place_id": "ChIJh0AlJBk1ZIcRNDsFVkLktx0", "latitude": 42.04990799999999, "longitude": -104.9606981, "care_type": "OB-GYN"}, {"name": "Kathleen Sheridan, MD", "address": "201 14th St, Wheatland, WY 82201", "city": "Wheatland", "phone": "+1 307-322-3636", "website": "", "rating": null, "reviews": 0, "place_id": "ChIJTxPTIYzXZYcRLOffjo9rj7Y", "latitude": 42.04990799999999, "longitude": -104.9606981, "care_type": "OB-GYN"}, {"name": "Mr. Willard Woods", "address": "1551 Brice St, Wheatland, WY 82201", "city": "Wheatland", "phone": "+1 307-322-3636", "website": "", "rating": null, "reviews": 0, "place_id": "ChIJq6o6eELXZYcR-ynJbEC6e3U", "latitude": 42.0477905, "longitude": -104.9621129, "care_type": "OB-GYN"}, {"name": "Andrea Chisholm, MD", "address": "424 Yellowstone Ave Suite 330, Cody, WY 82414", "city": "Cody", "phone": "+1 307-578-2770", "website": "https://www.codyregionalhealth.org/find-a-provider/c/andrea-chisholm-md/", "rating": 5.0, "reviews": 4, "place_id": "ChIJ4dpiI90fTFMRYLC_l31YCfc", "latitude": 44.5159975, "longitude": -109.0852232, "care_type": "OB-GYN"}, {"name": "Cody Regional Health Women's Health & Nursery", "address": "707 Sheridan Ave Second Floor, Cody, WY 82414", "city": "Cody", "phone": "+1 307-578-2210", "website": "https://www.codyregionalhealth.org/our-services/ob-gyn/womens-health-nursery/", "rating": null, "reviews": 0, "place_id": "ChIJYxo6ptgfTFMRry3mnZm0mdQ", "latitude": 44.5265937, "longitude": -109.073211, "care_type": "OB-GYN"}, {"name": "Lisa Williams, MD", "address": "1443 Beck Ave, Cody, WY 82414", "city": "Cody", "phone": "+1 307-527-7811", "website": "http://www.lisawilliamsmd.com/", "rating": 3.0, "reviews": 8, "place_id": "ChIJ_z5erM8eTFMRCiTv6-9uwCk", "latitude": 44.525305, "longitude": -109.058672, "care_type": "OB-GYN"}, {"name": "Jennifer Motley", "address": "2221 W Elm St, Rawlins, WY 82301", "city": "Rawlins", "phone": "+1 307-324-2221", "website": "", "rating": 5.0, "reviews": 1, "place_id": "ChIJ__-_9osBXYcRcrYe96_Kpnc", "latitude": 41.7868657, "longitude": -107.2617448, "care_type": "OB-GYN"}, {"name": "Eric C. Hansen, MD", "address": "150 Arrowhead Dr Suite 2, Evanston, WY 82930", "city": "Evanston", "phone": "+1 307-789-8881", "website": "", "rating": 4.1, "reviews": 13, "place_id": "ChIJ_YI3I894UYcRTh-PHIk5iMU", "latitude": 41.242869, "longitude": -110.9888976, "care_type": "OB-GYN"}, {"name": "Born With Hope Midwifery", "address": "545 Cheyenne Dr suite d, Evanston, WY 82930", "city": "Evanston", "phone": "+1 385-501-4041", "website": "http://bornwithhopemidwifery.com/", "rating": 5.0, "reviews": 71, "place_id": "ChIJHcj7wfyRTYcR5OJTiaARteA", "latitude": 41.2578497, "longitude": -110.9590635, "care_type": "OB-GYN"}, {"name": "Starla Leete", "address": "1180 College Dr, Rock Springs, WY 82901", "city": "Rock Springs", "phone": "+1 307-352-8383", "website": "https://www.sweetwatermemorial.com/physicians-providers/starla-leete-certified-nurse-midwife/", "rating": 5.0, "reviews": 1, "place_id": "ChIJf94nyeFgWocR7SDIzVsJwds", "latitude": 41.5844242, "longitude": -109.2360873, "care_type": "OB-GYN"}, {"name": "Samer Kattan, MD / Obstetrics & Women's Health of Sweetwater Memorial", "address": "1180 College Dr, Rock Springs, WY 82901", "city": "Rock Springs", "phone": "+1 307-352-8383", "website": "http://www.sweetwatermemorial.com/", "rating": 4.0, "reviews": 6, "place_id": "ChIJR_OWqeJgWocRKP1EzhIxIUs", "latitude": 41.584567, "longitude": -109.235942, "care_type": "OB-GYN"}, {"name": "Intermountain Health \u2013 Maternal Health Connection", "address": "196 Arrowhead Dr Suite 7, Evanston, WY 82930", "city": "Evanston", "phone": "+1 307-426-0694", "website": "https://intermountainhealthcare.org/services/womens-health/pregnancy%3Futm_campaign%3Dgmb%26utm_medium%3Dorganic%26utm_source%3Dlocal", "rating": null, "reviews": 0, "place_id": "ChIJU-Z0BNx5UYcRjrjzPVMXw2I", "latitude": 41.2430556, "longitude": -110.991523, "care_type": "OB-GYN"}, {"name": "Dr. Gabrielle Grundy", "address": "1180 College Dr, Rock Springs, WY 82901", "city": "Rock Springs", "phone": "+1 307-212-7525", "website": "", "rating": null, "reviews": 0, "place_id": "ChIJf94nyeFgWocR45wT5PRD_Jg", "latitude": 41.5913494, "longitude": -109.2344136, "care_type": "OB-GYN"}, {"name": "Arrowhead Family Medicine", "address": "195 Feather Way, Evanston, WY 82930", "city": "Evanston", "phone": "+1 307-200-9200", "website": "https://www.southlincolnmedical.com/getpage.php%3Fname%3DEvanston_Location", "rating": 4.5, "reviews": 55, "place_id": "ChIJ6_6qXs94UYcRdL_LyP7mD7k", "latitude": 41.243699, "longitude": -110.988843, "care_type": "OB-GYN"}, {"name": "Women's Health Clinic at Ivinson", "address": "3116 E Willett Dr, Laramie, WY 82072", "city": "Laramie", "phone": "+1 307-755-4540", "website": "https://www.ivinsonhospital.org/womens-health", "rating": 5.0, "reviews": 3, "place_id": "ChIJ8_HNBRmRaIcRYeWqRtyOQbU", "latitude": 41.3130344, "longitude": -105.5557552, "care_type": "OB-GYN"}, {"name": "Kim Westbrook, MD", "address": "3116 E Willett Dr, Laramie, WY 82072", "city": "Laramie", "phone": "+1 307-755-4540", "website": "https://www.ivinsonhospital.org/womens-health", "rating": 3.9, "reviews": 8, "place_id": "ChIJ9TqLHm2RaIcRSGIRjr2G0Uc", "latitude": 41.3130344, "longitude": -105.5557552, "care_type": "OB-GYN"}, {"name": "Elevation Women's Healthcare", "address": "2420 Watt Ct, Riverton, WY 82501", "city": "Riverton", "phone": "+1 307-856-0999", "website": "http://www.elevationwh.org/", "rating": 4.8, "reviews": 21, "place_id": "ChIJRT42Ix3dWIcRW2kfmjfDdCc", "latitude": 43.0303721, "longitude": -108.421621, "care_type": "OB-GYN"}, {"name": "Janet D. Frost, MD", "address": "2002 W Sunset Dr, Riverton, WY 82501", "city": "Riverton", "phone": "+1 307-856-0382", "website": "", "rating": 2.3, "reviews": 3, "place_id": "ChIJtawXo1DdWIcRCGV_GpxawKs", "latitude": 43.0350376, "longitude": -108.4199678, "care_type": "OB-GYN"}, {"name": "Dr. Maryanne Hannaney, MD", "address": "2300 Gasser Rd, Riverton, WY 82501", "city": "Riverton", "phone": "+1 307-856-4232", "website": "http://www.vitals.com/doctors/Dr_Maryanne_Hannaney/profile", "rating": 3.6, "reviews": 10, "place_id": "ChIJPeDEVk_dWIcReQK5oC9ABcE", "latitude": 43.03779129999999, "longitude": -108.4207894, "care_type": "OB-GYN"}, {"name": "Rotholz Stephen S MD", "address": "1005 College View Dr, Riverton, WY 82501", "city": "Riverton", "phone": "+1 307-856-0382", "website": "", "rating": null, "reviews": 0, "place_id": "ChIJ4Q81clrdWIcRzohOzLL26to", "latitude": 43.0352444, "longitude": -108.4197693, "care_type": "OB-GYN"}, {"name": "Rendezvous Medical Center", "address": "1035 Rose Marie Drive, Riverton, WY 82501", "city": "Riverton", "phone": "+1 307-856-0382", "website": "", "rating": 3.0, "reviews": 1, "place_id": "ChIJS8MVtuDcWIcRqePcK9yPx_U", "latitude": 43.03520169999999, "longitude": -108.4197994, "care_type": "OB-GYN"}, {"name": "Jeffrey Anderson", "address": "219 S 2nd St W, Riverton, WY 82501", "city": "Riverton", "phone": "+1 307-332-2941", "website": "", "rating": null, "reviews": 0, "place_id": "ChIJzW61mBrdWIcRYjSjVyoi3VE", "latitude": 43.0227677, "longitude": -108.3916209, "care_type": "OB-GYN"}, {"name": "Gros Ventre Ob Gyn", "address": "555 E Broadway Ave, Jackson, WY 83001", "city": "Jackson", "phone": "+1 307-734-1005", "website": "https://gvog.net/", "rating": 3.4, "reviews": 25, "place_id": "ChIJlQnQg0UaU1MR_KLQS6KN8Bc", "latitude": 43.480434, "longitude": -110.7512414, "care_type": "OB-GYN"}, {"name": "St. John's Health OB/GYN", "address": "555 E Broadway Ave, Jackson, WY 83001", "city": "Jackson", "phone": "+1 307-739-4880", "website": "https://www.stjohns.health/locations/ob-gyn/%3Futm_source%3Dgbp%26utm_medium%3Dorganic%26utm_campaign%3Dgbp-listing%26utm_content%3DSJHOBGYN%26y_source%3D1_MjAzNTY3MDA1My03MTUtbG9jYXRpb24ud2Vic2l0ZQ%253D%253D", "rating": null, "reviews": 0, "place_id": "ChIJV8eZ8-YbU1MR8VKJX5Bn1qY", "latitude": 43.4806037, "longitude": -110.7512022, "care_type": "OB-GYN"}, {"name": "Shannon Roberts, M.D. F.A.C.O.G.", "address": "555 E Broadway Ave #108, Jackson, WY 83001", "city": "Jackson", "phone": "+1 307-734-1005", "website": "http://gvog.net/", "rating": 5.0, "reviews": 2, "place_id": "ChIJlQnQg0UaU1MRiymJD-TEhPM", "latitude": 43.4804391, "longitude": -110.7512407, "care_type": "OB-GYN"}, {"name": "Dr. Maura J. Lofaro, MD", "address": "555 E Broadway Ave, Jackson, WY 83001", "city": "Jackson", "phone": "+1 307-734-1005", "website": "http://gvog.net/", "rating": 5.0, "reviews": 1, "place_id": "ChIJlQnQg0UaU1MRfkCHInv5U3Y", "latitude": 43.4795598, "longitude": -110.7502218, "care_type": "OB-GYN"}, {"name": "Natalie Meadows Eggleston, MD", "address": "555 E Broadway Ave #108, Jackson, WY 83001", "city": "Jackson", "phone": "", "website": "https://www.stjohns.health/find-a-provider/natalie-b-meadows-eggleston-md/", "rating": null, "reviews": 0, "place_id": "ChIJh2dteZ4bU1MR07N3Z-7bGEU", "latitude": 43.4795598, "longitude": -110.7502218, "care_type": "OB-GYN"}, {"name": "Cros Ventre Ob/Gyn", "address": "555 E Broadway Ave #108, Jackson, WY 83001", "city": "Jackson", "phone": "+1 307-732-2387", "website": "", "rating": null, "reviews": 0, "place_id": "ChIJlQnQg0UaU1MRLXw3bvlj_3Q", "latitude": 43.4795598, "longitude": -110.7502218, "care_type": "OB-GYN"}, {"name": "Women's Health Center and Family Care Clinic LLC", "address": "555 E Broadway Ave #108, Jackson, WY 83002", "city": "Jackson", "phone": "+1 307-734-1313", "website": "https://whfcjackson.com/", "rating": 3.9, "reviews": 15, "place_id": "ChIJlQnQg0UaU1MRAJbGPdOkPEg", "latitude": 43.480582, "longitude": -110.7512573, "care_type": "OB-GYN"}, {"name": "Theresa Lerch Family Practice", "address": "320 E Broadway Ave #1c, Jackson, WY 83001", "city": "Jackson", "phone": "+1 307-733-4585", "website": "http://www.theresalerch.com/", "rating": 5.0, "reviews": 6, "place_id": "ChIJzejDm0QaU1MR-fy-MSct1xY", "latitude": 43.4792982, "longitude": -110.7562507, "care_type": "OB-GYN"}, {"name": "Giovannina Anthony, MD", "address": "5237 HHR Ranch Rd, Wilson, WY 83014", "city": "Wilson", "phone": "+1 307-206-0317", "website": "https://www.tetonhospital.org/find-a-provider/a/giovannina-m-anthony-md/", "rating": 5.0, "reviews": 4, "place_id": "ChIJlQnQg0UaU1MReqhKWBFiVAo", "latitude": 43.4983049, "longitude": -110.8673921, "care_type": "OB-GYN"}, {"name": "Dr. Shirl D. George, MD", "address": "555 E Broadway Ave, Jackson, WY 83001", "city": "Jackson", "phone": "+1 307-734-1313", "website": "", "rating": null, "reviews": 0, "place_id": "ChIJb03E9kUaU1MRYFhwcCyuARM", "latitude": 43.4800932, "longitude": -110.7510368, "care_type": "OB-GYN"}, {"name": "Timothy Bussert, MD", "address": "555 E Broadway Ave #108, Jackson, WY 83001", "city": "Jackson", "phone": "+1 307-734-1005", "website": "https://www.stjohns.health/find-a-provider/timothy-g-bussert-md/", "rating": null, "reviews": 0, "place_id": "ChIJjcRLnykbU1MR8YqSz9xesyA", "latitude": 43.4795598, "longitude": -110.7502218, "care_type": "OB-GYN"}, {"name": "Associates In Women's Health - OBGYN in Gillette, WY", "address": "1307 W 3rd St ste a, Gillette, WY 82716", "city": "Gillette", "phone": "+1 307-682-4664", "website": "https://gilletteobgyn.com/", "rating": 3.8, "reviews": 13, "place_id": "ChIJ8zy2hWqUNFMRgXenrgELtJQ", "latitude": 44.2916456, "longitude": -105.5218096, "care_type": "OB-GYN"}, {"name": "Summit OB/GYN: Biggs Angela MD", "address": "1414 W 4th St, Gillette, WY 82716", "city": "Gillette", "phone": "+1 307-682-6263", "website": "http://www.summitwyo.com/", "rating": 4.0, "reviews": 8, "place_id": "ChIJK6EW3kGUNFMRuyL3LPrHzoI", "latitude": 44.2912861, "longitude": -105.5243986, "care_type": "OB-GYN"}, {"name": "David Beck, MD", "address": "1402 W 4th St, Gillette, WY 82716", "city": "Gillette", "phone": "+1 307-682-2233", "website": "https://www.cchwyo.org/find-a-provider/david-a-beck-md-facog/", "rating": 4.8, "reviews": 25, "place_id": "ChIJIx5s3kGUNFMRhwbePVBbHZg", "latitude": 44.2912805, "longitude": -105.5224849, "care_type": "OB-GYN"}, {"name": "Women's Healthcare", "address": "1402 W 4th St, Gillette, WY 82716", "city": "Gillette", "phone": "+1 307-682-2233", "website": "", "rating": 4.2, "reviews": 15, "place_id": "ChIJIx5s3kGUNFMRksXA7vy4joA", "latitude": 44.2912332, "longitude": -105.5224683, "care_type": "OB-GYN"}, {"name": "Summit OB/GYN: Dr Amber Cohn", "address": "1414 W 4th St, Gillette, WY 82716", "city": "Gillette", "phone": "+1 307-682-6263", "website": "http://summitwyo.com/", "rating": 3.0, "reviews": 2, "place_id": "ChIJK6EW3kGUNFMRG-xpUpsAI24", "latitude": 44.291287, "longitude": -105.5244427, "care_type": "OB-GYN"}, {"name": "Dr. Michael L. Jones, MD", "address": "1307 W 3rd St ste a, Gillette, WY 82716", "city": "Gillette", "phone": "+1 307-682-4664", "website": "https://www.cchwyo.org/find-a-provider/michael-l-jones-md/", "rating": 3.8, "reviews": 10, "place_id": "ChIJ8zy2hWqUNFMRYFxmxBpsq8w", "latitude": 44.2916845, "longitude": -105.5218026, "care_type": "OB-GYN"}, {"name": "Anderson Jeffrey DO", "address": "1414 W 4th St, Gillette, WY 82716", "city": "Gillette", "phone": "+1 307-682-6263", "website": "http://summitwyo.com/", "rating": 5.0, "reviews": 1, "place_id": "ChIJK6EW3kGUNFMRQ8wvzRjWmlo", "latitude": 44.291222, "longitude": -105.5243877, "care_type": "OB-GYN"}, {"name": "Shelley M Shepard PC", "address": "1206 W 4th St #1, Gillette, WY 82716", "city": "Gillette", "phone": "+1 307-685-0130", "website": "", "rating": 3.7, "reviews": 3, "place_id": "ChIJ4xepLUCUNFMR2nB_lXNPee4", "latitude": 44.291342, "longitude": -105.5206606, "care_type": "OB-GYN"}, {"name": "Lander Women's Care, LLC", "address": "535 E Main Suite A, Lander, WY 82520", "city": "Lander", "phone": "+1 307-335-7720", "website": "", "rating": 3.3, "reviews": 10, "place_id": "ChIJMwnSWO8BWYcR8capKivgyPk", "latitude": 42.8272857, "longitude": -108.720932, "care_type": "OB-GYN"}, {"name": "Eric Hansen, MD", "address": "1320 Bishop Randall Dr, Lander, WY 82520", "city": "Lander", "phone": "+1 307-332-4420", "website": "https://doctors.sagewesthealthcare.com/provider/eric-c-hansen/4985659", "rating": 4.8, "reviews": 5, "place_id": "ChIJd47VRZIBWYcRRulCQ29FYG0", "latitude": 42.8204581, "longitude": -108.7263139, "care_type": "OB-GYN"}, {"name": "Jan Siebersma, MD", "address": "745 Buena Vista Dr, Lander, WY 82520", "city": "Lander", "phone": "+1 307-332-2941", "website": "https://landermedicalclinic.com/jan-siebersma-2/", "rating": 3.7, "reviews": 3, "place_id": "ChIJA9gbPusBWYcRqZkmXrcAuQo", "latitude": 42.8248549, "longitude": -108.7312326, "care_type": "OB-GYN"}, {"name": "Dr Ken V Holt, DO", "address": "535 Main St Suite A, Lander, WY 82520", "city": "Lander", "phone": "", "website": "", "rating": null, "reviews": 0, "place_id": "ChIJp1AMzJ0BWYcRcH0Rliaa3J0", "latitude": 42.8338994, "longitude": -108.736231, "care_type": "OB-GYN"}, {"name": "Jeffrey Anderson", "address": "745 Buena Vista Dr, Lander, WY 82520", "city": "Lander", "phone": "+1 307-332-2941", "website": "", "rating": null, "reviews": 0, "place_id": "ChIJVVWVaOsBWYcRX15_o3nVdrM", "latitude": 42.8248549, "longitude": -108.7312326, "care_type": "OB-GYN"}, {"name": "Dr. James C. Brubaker, MD", "address": "745 Buena Vista Dr, Lander, WY 82520", "city": "Lander", "phone": "+1 307-332-2941", "website": "", "rating": null, "reviews": 0, "place_id": "ChIJA9gbPusBWYcRsc2l93LY9cI", "latitude": 42.8248549, "longitude": -108.7312326, "care_type": "OB-GYN"}, {"name": "Aspenglow Obstetrics and Gynecology", "address": "125 Wyoming St, Lander, WY 82520", "city": "Lander", "phone": "+1 307-206-1330", "website": "", "rating": 5.0, "reviews": 5, "place_id": "ChIJ8UBZ-mIBWYcRUV3ZyfraJe4", "latitude": 42.8231667, "longitude": -108.7306397, "care_type": "OB-GYN"}, {"name": "Lawrence Cook, DO: OB/GYN", "address": "625 Albany Ave, Torrington, WY 82240", "city": "Torrington", "phone": "+1 307-532-2107", "website": "http://www.bannerhealth.com/", "rating": null, "reviews": 0, "place_id": "ChIJ0fxh3jIJZYcRd1WrJHK7fmE", "latitude": 42.0839813, "longitude": -104.1932635, "care_type": "OB-GYN"}, {"name": "Sharon Kay Eskam, MD", "address": "625 Albany Ave, Torrington, WY 82240", "city": "Torrington", "phone": "+1 307-532-2107", "website": "https://doctors.bannerhealth.com/provider/Sharon%2BEskam/1150840%3Futm_source%3Dgmb%26utm_medium%3Dlisting%26utm_campaign%3Ddoc_onlinescheduling%26y_source%3D1_NDYzMTQ0MzgtNzE1LWxvY2F0aW9uLndlYnNpdGU%253D", "rating": null, "reviews": 0, "place_id": "ChIJsx_V4qwJZYcRhMKpn8ZRBiI", "latitude": 42.0839832, "longitude": -104.1935004, "care_type": "OB-GYN"}, {"name": "Sharon Eskam", "address": "2000 Campbell Dr, Torrington, WY 822401528", "city": "Torrington", "phone": "+1 307-532-8758", "website": "https://doctors.bannerhealth.com/provider/sharon-eskam/1150840", "rating": 5.0, "reviews": 1, "place_id": "ChIJ__-_y8wOZYcR3fKphzAhWak", "latitude": 42.0827426, "longitude": -104.1928194, "care_type": "OB-GYN"}, {"name": "Laramie Physicians Women & Wellness Clinic", "address": "1277 N 15th St, Laramie, WY 82072", "city": "Laramie", "phone": "+1 307-745-8991", "website": "http://www.laramiephysicians.com/", "rating": 4.5, "reviews": 161, "place_id": "ChIJNQ7w1HGQaIcR1krWYuAJ3js", "latitude": 41.3231191, "longitude": -105.5748736, "care_type": "OB-GYN"}, {"name": "Travis Klingler, MD, FACOG", "address": "1277 N 15th St, Laramie, WY 82072", "city": "Laramie", "phone": "+1 307-745-8991", "website": "http://laramiephysicians.com/", "rating": 5.0, "reviews": 5, "place_id": "ChIJNQ7w1HGQaIcRG8g49RDkb8o", "latitude": 41.3231191, "longitude": -105.5748736, "care_type": "OB-GYN"}, {"name": "Derek Ewell, DO", "address": "3116 E Willett Dr, Laramie, WY 82072", "city": "Laramie", "phone": "+1 307-755-4540", "website": "https://www.ivinsonhospital.org/womens-health", "rating": 4.4, "reviews": 5, "place_id": "ChIJa5XINSORaIcRWHUmKsrD61g", "latitude": 41.3130344, "longitude": -105.5557552, "care_type": "OB-GYN"}, {"name": "Kim Westbrook", "address": "2710 E Harney St #100, Laramie, WY 82072", "city": "Laramie", "phone": "+1 307-745-8991", "website": "https://www.ivinsonhospital.org/providers/kim-westbook", "rating": 5.0, "reviews": 1, "place_id": "ChIJSytn02-QaIcR10lPgpSKqJU", "latitude": 41.3202471, "longitude": -105.5619908, "care_type": "OB-GYN"}, {"name": "Samantha Herriott, DO", "address": "3116 E Willett Dr, Laramie, WY 82072", "city": "Laramie", "phone": "+1 307-755-4540", "website": "https://www.ivinsonhospital.org/womens-health", "rating": null, "reviews": 0, "place_id": "ChIJ_Sf7XTuRaIcRxkOwS8J4-TA", "latitude": 41.3130344, "longitude": -105.5557552, "care_type": "OB-GYN"}, {"name": "Johnson Amanda E MD", "address": "2710 E Harney St #100, Laramie, WY 82072", "city": "Laramie", "phone": "+1 307-745-8991", "website": "http://laramiephysicians.com/", "rating": null, "reviews": 0, "place_id": "ChIJrRHw1HGQaIcRVM2bUAx26gc", "latitude": 41.3202471, "longitude": -105.5619908, "care_type": "OB-GYN"}, {"name": "Laramie Reproductive Health", "address": "605 Skyline Rd STE 201, Laramie, WY 82070", "city": "Laramie", "phone": "+1 307-745-5364", "website": "http://laramiereproductivehealth.org/", "rating": 4.4, "reviews": 18, "place_id": "ChIJGV8lt0GQaIcRKdGQ56G2YO8", "latitude": 41.2926346, "longitude": -105.5907658, "care_type": "OB-GYN"}, {"name": "JayCee Kline, MD", "address": "3116 E Willett Dr, Laramie, WY 82072", "city": "Laramie", "phone": "+1 307-755-4540", "website": "https://www.ivinsonhospital.org/womens-health", "rating": null, "reviews": 0, "place_id": "ChIJFcbGndCRaIcRbYWYQ8WdRR8", "latitude": 41.3130344, "longitude": -105.5557552, "care_type": "OB-GYN"}, {"name": "Dr. Sarah Sowerwine", "address": "128 N Bent St, Powell, WY 82435", "city": "Powell", "phone": "+1 307-764-4107", "website": "", "rating": null, "reviews": 0, "place_id": "ChIJVVXhKM9TSVMRBxuFlXddkKs", "latitude": 44.7536444, "longitude": -108.7579597, "care_type": "OB-GYN"}, {"name": "Jenkins Clarkson, MD, PhD", "address": "777 Ave H, Powell, WY 82435", "city": "Powell", "phone": "+1 307-754-7257", "website": "https://www.pvhc.org/provider/jenkins-l-clarkson-md-phd/", "rating": 3.7, "reviews": 3, "place_id": "ChIJCToksJ1TSVMRYuBf6UgQDaM", "latitude": 44.7569621, "longitude": -108.7681174, "care_type": "OB-GYN"}, {"name": "Quang Nguyen, MD", "address": "777 Ave H, Powell, WY 82435", "city": "Powell", "phone": "+1 307-754-7770", "website": "https://www.pvhc.org/provider/quang-nguyen-md/", "rating": null, "reviews": 0, "place_id": "ChIJq5lqTABTSVMRdHv7ANNxm9Q", "latitude": 44.75705989999999, "longitude": -108.7681177, "care_type": "OB-GYN"}, {"name": "Dr. Robert F. Ellis, MD", "address": "450 Mountain View St, Powell, WY 82435", "city": "Powell", "phone": "+1 307-754-7257", "website": "http://www.pvhc.org/", "rating": null, "reviews": 0, "place_id": "ChIJG6tmrrVTSVMR9Hfh89cjoNc", "latitude": 44.7570225, "longitude": -108.7700502, "care_type": "OB-GYN"}, {"name": "Dr. Jenkins Clarkson", "address": "450 Mountain View St, Powell, WY 82435", "city": "Powell", "phone": "+1 307-754-7257", "website": "https://www.pvhc.org/provider/jenkins-l-clarkson-md-phd/", "rating": null, "reviews": 0, "place_id": "ChIJnXCZr7VTSVMRcAIRDf-RfkY", "latitude": 44.7570225, "longitude": -108.7700502, "care_type": "OB-GYN"}, {"name": "James Lloyd", "address": "450 Mountain View St, Powell, WY 82435", "city": "Powell", "phone": "+1 307-754-2267", "website": "", "rating": null, "reviews": 0, "place_id": "ChIJnXCZr7VTSVMRZAI4KTdKFW8", "latitude": 44.7570225, "longitude": -108.7700502, "care_type": "OB-GYN"}, {"name": "James Lloyd", "address": "777 Ave H, Powell, WY 82435", "city": "Powell", "phone": "+1 307-754-2267", "website": "", "rating": null, "reviews": 0, "place_id": "ChIJY3wl47RTSVMRBz_SvX_eSeg", "latitude": 44.7569964, "longitude": -108.7714524, "care_type": "OB-GYN"}, {"name": "Peter Allyn, MD: Memorial Hospital Obstetrics & Women's Health", "address": "1200 College Dr, Rock Springs, WY 82901", "city": "Rock Springs", "phone": "+1 307-352-8383", "website": "http://www.sweetwatermemorial.com/", "rating": null, "reviews": 0, "place_id": "ChIJR_OWqeJgWocRhhf8ErWXos0", "latitude": 41.5847604, "longitude": -109.2354543, "care_type": "OB-GYN"}, {"name": "Western Wyoming Family Planning", "address": "333 Broadway St #120, Rock Springs, WY 82901", "city": "Rock Springs", "phone": "+1 307-362-6813", "website": "http://westernwyomingfamilyplanning.com/", "rating": 4.3, "reviews": 12, "place_id": "ChIJHxEOhl9gWocRnQfI3o4K1sY", "latitude": 41.5856858, "longitude": -109.2211469, "care_type": "OB-GYN"}, {"name": "Sheridan Women\u2019s Clinic", "address": "1401 W 5th St Ste 210, Sheridan, WY 82801", "city": "Sheridan", "phone": "+1 307-672-2522", "website": "https://www.sheridanhospital.org/medical-services/clinics/womens-clinic/", "rating": 4.6, "reviews": 9, "place_id": "ChIJeb79u-_6NVMRw9_lRflqYE0", "latitude": 44.808659, "longitude": -106.975756, "care_type": "OB-GYN"}, {"name": "Byrke Beller, MD", "address": "150 Arrowhead Dr Suite 2, Evanston, WY 82930", "city": "Evanston", "phone": "+1 307-789-8881", "website": "https://uintamedicalgroup.com/providers/womens-health-providers/byrke-beller-md", "rating": 5.0, "reviews": 3, "place_id": "ChIJ___P-854UYcRRCV91SMYErw", "latitude": 41.242835, "longitude": -110.9888033, "care_type": "OB-GYN"}, {"name": "Catherine A. Rogers, MD, FACOG", "address": "150 Arrowhead Dr Suite 2, Evanston, WY 82930", "city": "Evanston", "phone": "+1 307-789-8881", "website": "https://uintamedicalgroup.com/providers/womens-health-providers/catherine-rogers-md/", "rating": null, "reviews": 0, "place_id": "ChIJWRI8pxF5UYcRxzHrfsR4YdM", "latitude": 41.242835, "longitude": -110.9888033, "care_type": "OB-GYN"}, {"name": "Cheyenne OBGYN", "address": "2301 House Ave #400, Cheyenne, WY 82001", "city": "Cheyenne", "phone": "+1 307-634-5216", "website": "http://www.cheyenneobgyn.com/", "rating": 4.7, "reviews": 537, "place_id": "ChIJPVYvWuk6b4cRaPx1r9ljSNI", "latitude": 41.140398, "longitude": -104.815697, "care_type": "OB-GYN"}, {"name": "Samantha L. Michelena, MD", "address": "2301 House Ave #400, Cheyenne, WY 82001", "city": "Cheyenne", "phone": "+1 307-634-5216", "website": "https://cheyenneobgyn.com/samantha-l-michelena-md/", "rating": 4.9, "reviews": 55, "place_id": "ChIJc39lJCg7b4cRDEyCwM3tC34", "latitude": 41.1403971, "longitude": -104.8159367, "care_type": "OB-GYN"}, {"name": "Cheyenne Women's Clinic PC", "address": "3952 Parkview Dr #8102, Cheyenne, WY 82001", "city": "Cheyenne", "phone": "+1 307-637-7700", "website": "https://cwcob.com/", "rating": 4.5, "reviews": 262, "place_id": "ChIJ8dpeTOY6b4cROHlS-4mp7aY", "latitude": 41.1574972, "longitude": -104.7618618, "care_type": "OB-GYN"}, {"name": "Michael R. Nelson, DO", "address": "2301 House Ave #400, Cheyenne, WY 82001", "city": "Cheyenne", "phone": "+1 307-634-5216", "website": "https://cheyenneobgyn.com/michael-r-nelson-do/", "rating": 4.6, "reviews": 75, "place_id": "ChIJPVYvWuk6b4cRlkHg7wWmGmI", "latitude": 41.1403971, "longitude": -104.8159367, "care_type": "OB-GYN"}, {"name": "Natalie Howard, MD", "address": "2301 House Ave #400, Cheyenne, WY 82001", "city": "Cheyenne", "phone": "+1 307-634-5216", "website": "http://cheyenneobgyn.com/", "rating": 5.0, "reviews": 63, "place_id": "ChIJA0kivXs7b4cRENhcUGwJVaI", "latitude": 41.1403971, "longitude": -104.8159367, "care_type": "OB-GYN"}, {"name": "Austin L. Barnes, MD", "address": "2301 House Ave #400, Cheyenne, WY 82001", "city": "Cheyenne", "phone": "+1 307-634-5216", "website": "http://cheyenneobgyn.com/", "rating": 4.9, "reviews": 71, "place_id": "ChIJO8om0vc7b4cRDVWQy_zi97k", "latitude": 41.1403971, "longitude": -104.8159367, "care_type": "OB-GYN"}, {"name": "Colleen C. Foos, MD", "address": "2301 House Ave #400, Cheyenne, WY 82001", "city": "Cheyenne", "phone": "+1 307-634-5216", "website": "https://cheyenneobgyn.com/", "rating": 4.8, "reviews": 16, "place_id": "ChIJqVeH7OM7b4cRNeKLpW7XJXg", "latitude": 41.1403971, "longitude": -104.8159367, "care_type": "OB-GYN"}, {"name": "Phyllis Tarr, CNM - Cheyenne Obstetrics and Gynecology", "address": "2301 House Ave #400, Cheyenne, WY 82001", "city": "Cheyenne", "phone": "+1 307-634-5216", "website": "", "rating": 3.7, "reviews": 3, "place_id": "ChIJd6_n7Ek7b4cRhu3CCk4axeA", "latitude": 41.140318, "longitude": -104.815729, "care_type": "OB-GYN"}, {"name": "Looby Megan E DO", "address": "3952 Parkview Dr #8102, Cheyenne, WY 82001", "city": "Cheyenne", "phone": "+1 307-637-7700", "website": "https://cwcob.com/", "rating": 5.0, "reviews": 2, "place_id": "ChIJVVWVJXo7b4cRCvixY920cYM", "latitude": 41.1575807, "longitude": -104.7616621, "care_type": "OB-GYN"}, {"name": "P. L. Bert Wagner, MD", "address": "2301 House Ave #400, Cheyenne, WY 82001", "city": "Cheyenne", "phone": "+1 307-634-5216", "website": "http://cheyenneobgyn.com/", "rating": 5.0, "reviews": 4, "place_id": "ChIJPVYvWuk6b4cR0j9bd4JxzNk", "latitude": 41.1404647, "longitude": -104.8158957, "care_type": "OB-GYN"}, {"name": "Rene R Hinkle MD", "address": "3952 Parkview Dr #8102, Cheyenne, WY 82001", "city": "Cheyenne", "phone": "+1 307-637-7700", "website": "http://cwcob.com/", "rating": 4.5, "reviews": 2, "place_id": "ChIJyyePT-Y6b4cR_H2J8oUxnxk", "latitude": 41.15757, "longitude": -104.7617445, "care_type": "OB-GYN"}, {"name": "Dr. Janet L. Anderson MD", "address": "3952 Parkview Dr #8102, Cheyenne, WY 82001", "city": "Cheyenne", "phone": "+1 307-637-7700", "website": "http://www.cwcob.com/", "rating": 3.0, "reviews": 2, "place_id": "ChIJyyePT-Y6b4cRF0FvFBWxTBk", "latitude": 41.15757, "longitude": -104.7617445, "care_type": "OB-GYN"}, {"name": "Jeffrey D. Storey, MD", "address": "3952 Parkview Dr, Cheyenne, WY 82001", "city": "Cheyenne", "phone": "+1 307-637-7700", "website": "", "rating": null, "reviews": 0, "place_id": "ChIJyyePT-Y6b4cRNqW2b8heT8Q", "latitude": 41.1575811, "longitude": -104.7616623, "care_type": "OB-GYN"}, {"name": "Dillon LeAyn Dr", "address": "3952 Parkview Dr #8102, Cheyenne, WY 82001", "city": "Cheyenne", "phone": "+1 307-637-7700", "website": "http://cwcob.com/", "rating": null, "reviews": 0, "place_id": "ChIJyyePT-Y6b4cR1mLENaRIhT0", "latitude": 41.15757, "longitude": -104.7617444, "care_type": "OB-GYN"}, {"name": "Jacques D. Beveridge MD, FACOG", "address": "3952 Parkview Dr #8102, Cheyenne, WY 82001", "city": "Cheyenne", "phone": "+1 307-637-7700", "website": "http://cwcob.com/", "rating": 3.0, "reviews": 2, "place_id": "ChIJSbM2GHo7b4cR49_X0Tf06iI", "latitude": 41.1575646, "longitude": -104.7617615, "care_type": "OB-GYN"}, {"name": "Dr. Kathryn K. Randall, MD", "address": "2301 House Ave, Cheyenne, WY 82001", "city": "Cheyenne", "phone": "+1 307-634-5216", "website": "", "rating": null, "reviews": 0, "place_id": "ChIJPVYvWuk6b4cRKsD7WHKaE0w", "latitude": 41.140318, "longitude": -104.815729, "care_type": "OB-GYN"}, {"name": "Hope M. Richards, MD", "address": "3952 Parkview Dr, Cheyenne, WY 82001", "city": "Cheyenne", "phone": "+1 307-637-7700", "website": "", "rating": null, "reviews": 0, "place_id": "ChIJVVWVJXo7b4cRjaKzpzf9HKs", "latitude": 41.1575811, "longitude": -104.7616623, "care_type": "OB-GYN"}, {"name": "Mary-Ellen Foley, MD", "address": "2301 House Ave #400, Cheyenne, WY 82001", "city": "Cheyenne", "phone": "+1 307-634-5216", "website": "http://cheyenneobgyn.com/", "rating": null, "reviews": 0, "place_id": "ChIJPVYvWuk6b4cRM5h7zPzFLCU", "latitude": 41.1403411, "longitude": -104.8162085, "care_type": "OB-GYN"}, {"name": "Dr. Robert L. Mcguire, MD", "address": "2301 House Ave, Cheyenne, WY 82001", "city": "Cheyenne", "phone": "+1 307-634-5216", "website": "", "rating": null, "reviews": 0, "place_id": "ChIJPVYvWuk6b4cRIZ7tHFezl_s", "latitude": 41.140318, "longitude": -104.815729, "care_type": "OB-GYN"}, {"name": "True Care Women's Resource Center", "address": "770 E 2nd St, Casper, WY 82601", "city": "Casper", "phone": "+1 307-215-9684", "website": "https://truecarecasper.org/", "rating": 4.7, "reviews": 123, "place_id": "ChIJGRHw-FC7YIcR5RtoshtBw4s", "latitude": 42.8489426, "longitude": -106.3155062, "care_type": "OB-GYN"}, {"name": "Black Mountain Wellness", "address": "1540 Centennial Ct #300, Casper, WY 82609", "city": "Casper", "phone": "+1 307-337-4981", "website": "http://www.bmwwy.com/", "rating": 5.0, "reviews": 8, "place_id": "ChIJ5-nVE467YIcRbF1owoZK0jo", "latitude": 42.83299, "longitude": -106.271794, "care_type": "OB-GYN"}]